URL,WMOstn,WBANo,Acz,HVAC,meanPa,WBref,hBASE,dpy,[,avHDD,avCDD,avChD,],low,min,ave,max,best,[,WsD,YsD,],yrs,dys,[,Icy,Hea,Hum,Pas,Vtn,EvC,DX,],24Cd,67Fd,latitude,longitude,elev,base,stop,CC,ST,Placename,,psychrometric_chart_image
https://bioclimatic.github.io/predilection/psych/648510-99999_fig2.png,648510,99999,3,__Ac,96334,19.4,57.3,24,[,0,478,654,],0,3,5,6,10,[,30,6,],11,63,[,0,0,0,1,6,23,33,],61,37,10.451,14.257,424,2019,2020,CM,,SALAK,,648510-99999_fig2.png
https://bioclimatic.github.io/predilection/psych/648600-99999_fig2.png,648600,99999,0,__Ac,98315,19.4,56.5,34,[,0,1867,3607,],2,15,24,31,52,[,186,36,],21,340,[,0,0,0,7,68,90,175,],329,216,9.336,13.37,242,1993,2020,CM,,GAROUA,,648600-99999_fig2.png
https://bioclimatic.github.io/predilection/psych/648700-99999_fig2.png,648700,99999,2,__Ev,89108,19.4,60.4,32,[,4,114,348,],0,13,20,29,38,[,1,0,],11,307,[,0,4,0,138,152,8,4,],69,125,7.357,13.559,1114,1993,2020,CM,,NGAOUNDERE,,648700-99999_fig2.png
https://bioclimatic.github.io/predilection/psych/649100-99999_fig2.png,649100,99999,1,__Ac,101033,19.4,55.5,34,[,0,964,7218,],0,8,15,23,32,[,257,23,],29,348,[,0,0,0,0,53,0,295,],340,348,4.006,9.719,10,1989,2020,CM,,DOUALA,,649100-99999_fig2.png
https://bioclimatic.github.io/predilection/psych/649500-99999_fig2.png,649500,99999,2,__Vt,93258,19.4,58.6,30,[,0,127,2370,],1,9,15,23,32,[,18,0,],21,297,[,0,0,0,7,283,0,7,],121,289,3.723,11.553,694,2001,2020,CM,,YAOUNDE NSIMALEN,,649500-99999_fig2.png
