URL,WMOstn,WBANo,Acz,HVAC,meanPa,WBref,hBASE,dpy,[,avHDD,avCDD,avChD,],low,min,ave,max,best,[,WsD,YsD,],yrs,dys,[,Icy,Hea,Hum,Pas,Vtn,EvC,DX,],24Cd,67Fd,latitude,longitude,elev,base,stop,CC,ST,Placename,,psychrometric_chart_image
https://bioclimatic.github.io/predilection/psych/690160-93114_fig2.png,690160,93114,3,HpVt,93004,19.4,58.7,9,[,568,40,60,],12,18,27,36,42,[,3,0,],8,365,[,0,173,1,158,31,0,2,],28,22,33.7,-117.833,16,1990,1997,AF,CA,FOB DWYER,,690160-93114_fig2.png
https://bioclimatic.github.io/predilection/psych/409040-99999_fig2.png,409040,99999,3,HpVt,87716,19.4,61.1,6,[,161,40,0,],0,0,0,0,0,[,0,0,],20,34,[,3,13,0,7,3,7,0,],10,0,37.117,70.517,1200,2010,2011,AF,,FAIZABAD,,409040-99999_fig2.png
https://bioclimatic.github.io/predilection/psych/409110-99999_fig2.png,409110,99999,3,GsEv,96713,19.4,57.1,20,[,783,561,0,],3,0,6,6,7,[,1,0,],26,184,[,16,68,2,19,15,62,0,],78,1,36.707,67.21,391,2006,2020,AF,,MAZAR I SHARIF,,409110-99999_fig2.png
https://bioclimatic.github.io/predilection/psych/409130-99999_fig2.png,409130,99999,3,GsEv,96236,19.4,57.3,13,[,497,286,3,],6,2,10,13,15,[,3,0,],21,116,[,14,38,1,17,10,34,2,],47,2,36.667,68.917,433,2005,2012,AF,,KUNDUZ,,409130-99999_fig2.png
https://bioclimatic.github.io/predilection/psych/409133-99999_fig2.png,409133,99999,2,GsEv,96057,19.4,57.4,3,[,1892,961,0,],0,NaN,NaN,NaN,NaN,[,3,0,],2,365,[,62,101,2,53,31,115,0,],146,0,36.667,68.9,448,2011,2012,AF,,FOB KUNDUZ,,409133-99999_fig2.png
https://bioclimatic.github.io/predilection/psych/409220-99999_fig2.png,409220,99999,3,____,91910,19.4,59.2,7,[,95,23,0,],0,0,0,0,0,[,0,0,],19,16,[,3,4,0,3,1,4,0,],5,0,35.933,64.767,815,2011,2011,AF,,MIMANA,,409220-99999_fig2.png
https://bioclimatic.github.io/predilection/psych/409230-99999_fig2.png,409230,99999,3,____,95805,19.4,57.5,3,[,81,31,0,],0,0,0,0,0,[,0,0,],24,15,[,3,4,0,2,1,4,0,],5,0,35.583,63.317,470,2011,2011,AF,,BALA-MOORGHAB,,409230-99999_fig2.png
https://bioclimatic.github.io/predilection/psych/409323-99999_fig2.png,409323,99999,3,GsEv,80040,19.4,65.2,3,[,1401,176,0,],0,0,0,0,0,[,0,0,],4,256,[,15,128,26,32,28,28,0,],59,0,35.267,69.467,1945,2009,2011,AF,,PANJSHIR,,409323-99999_fig2.png
https://bioclimatic.github.io/predilection/psych/409343-99999_fig2.png,409343,99999,3,HpAc,89418,19.4,60.3,3,[,1036,648,244,],16,28,35,42,52,[,25,0,],2,322,[,3,141,1,54,28,53,41,],123,43,35.21,71.52,1042,2010,2011,AF,,FOB BOSTIC,,409343-99999_fig2.png
https://bioclimatic.github.io/predilection/psych/409370-99999_fig2.png,409370,99999,3,Hp__,90816,19.4,59.6,3,[,89,15,0,],0,0,0,0,0,[,0,0,],22,14,[,0,10,0,2,2,0,0,],3,3,35,63.117,914,2012,2012,AF,,QALA-I-NOW,,409370-99999_fig2.png
https://bioclimatic.github.io/predilection/psych/409380-99999_fig2.png,409380,99999,3,HpEv,90242,19.4,59.9,19,[,842,381,18,],3,7,10,11,13,[,3,0,],26,193,[,9,83,6,23,17,50,4,],72,5,34.21,62.228,977,2007,2020,AF,,HERAT,,409380-99999_fig2.png
https://bioclimatic.github.io/predilection/psych/409389-99999_fig2.png,409389,99999,3,GsEv,88655,19.4,60.7,5,[,1625,507,0,],0,NaN,NaN,NaN,NaN,[,0,0,],3,343,[,15,154,24,34,37,79,0,],118,0,34.117,62.217,1112,2011,2013,AF,,FOB VICTORY/STONE,,409389-99999_fig2.png
https://bioclimatic.github.io/predilection/psych/409420-99999_fig2.png,409420,99999,3,Hp__,77706,19.4,66.6,10,[,245,7,0,],0,0,0,0,0,[,0,0,],21,31,[,1,20,3,2,5,0,0,],4,6,33.533,65.267,2183,2010,2011,AF,,CHAKHCHARAN,,409420-99999_fig2.png
https://bioclimatic.github.io/predilection/psych/409473-99999_fig2.png,409473,99999,4,GsVt,77155,19.4,67,4,[,2851,23,0,],0,NaN,NaN,NaN,NaN,[,0,0,],4,339,[,23,211,49,39,16,1,0,],22,0,34.4,68.883,2240,2010,2013,AF,,CAMP AIRBORNE HLZ,,409473-99999_fig2.png
https://bioclimatic.github.io/predilection/psych/409480-99999_fig2.png,409480,99999,3,GsEv,81580,19.4,64.3,25,[,1497,158,1,],6,2,14,18,18,[,0,0,],28,245,[,16,124,16,30,35,23,0,],61,0,34.566,69.212,1791,2002,2020,AF,,KABUL INTL,,409480-99999_fig2.png
https://bioclimatic.github.io/predilection/psych/409511-99999_fig2.png,409511,99999,3,HpAc,86041,19.4,61.9,4,[,1166,573,23,],26,30,38,45,48,[,3,0,],1,327,[,6,145,23,29,37,77,10,],129,10,34.867,69.633,1358,2011,2011,AF,,FOB KUTSCHBACH,,409511-99999_fig2.png
https://bioclimatic.github.io/predilection/psych/409520-99999_fig2.png,409520,99999,3,HpEv,92411,19.4,58.9,6,[,129,168,91,],2,4,5,6,8,[,8,1,],26,55,[,0,20,1,8,5,11,9,],26,10,34.65,70.217,770,2010,2013,AF,,LAGHMAN,,409520-99999_fig2.png
https://bioclimatic.github.io/predilection/psych/409534-99999_fig2.png,409534,99999,3,HpAc,87560,19.4,61.2,2,[,1245,430,82,],21,25,34,42,49,[,9,0,],1,328,[,6,152,9,66,34,43,18,],97,24,34.267,70.2,1215,2012,2012,AF,,FOB CONNOLLY,,409534-99999_fig2.png
https://bioclimatic.github.io/predilection/psych/409540-99999_fig2.png,409540,99999,3,HpEv,94698,19.4,58,8,[,93,138,108,],2,3,4,5,6,[,10,3,],27,40,[,0,15,0,6,3,7,10,],20,10,34.4,70.499,567,2017,2019,AF,,JALALABAD,,409540-99999_fig2.png
https://bioclimatic.github.io/predilection/psych/409570-99999_fig2.png,409570,99999,3,HpEv,88252,19.4,60.8,6,[,227,139,0,],0,0,0,0,0,[,0,0,],24,60,[,1,26,5,4,5,19,0,],25,0,33.391,62.261,1150,2010,2013,AF,,SHINDAND,,409570-99999_fig2.png
https://bioclimatic.github.io/predilection/psych/409585-99999_fig2.png,409585,99999,2,HpAc,89657,19.4,60.2,2,[,917,641,332,],18,23,31,37,51,[,16,0,],1,346,[,3,131,12,61,42,62,35,],139,38,34.983,70.9,1020,2010,2010,AF,,CAMP BLESSING-NANGA,,409585-99999_fig2.png
https://bioclimatic.github.io/predilection/psych/409680-99999_fig2.png,409680,99999,3,Hp__,77706,19.4,66.6,8,[,586,22,0,],0,0,0,0,0,[,0,0,],23,75,[,6,42,12,6,6,2,0,],11,0,33.533,68.417,2183,2009,2013,AF,,GHAZNI,,409680-99999_fig2.png
https://bioclimatic.github.io/predilection/psych/409700-99999_fig2.png,409700,99999,3,Hp__,76101,19.4,67.6,7,[,466,6,0,],0,0,0,0,0,[,0,0,],23,56,[,7,30,7,8,4,0,0,],5,0,33.617,69.233,2350,2006,2012,AF,,GARDIZ,,409700-99999_fig2.png
https://bioclimatic.github.io/predilection/psych/409705-99999_fig2.png,409705,99999,3,GsVt,79299,19.4,65.6,4,[,2020,49,0,],10,NaN,31,37,37,[,0,0,],2,317,[,14,176,17,75,33,1,0,],39,0,33.367,69.417,2020,2011,2012,AF,,COP WILDERNESS,,409705-99999_fig2.png
https://bioclimatic.github.io/predilection/psych/409706-99999_fig2.png,409706,99999,4,GsVt,79971,19.4,65.2,2,[,2071,106,13,],17,21,29,37,41,[,0,0,],1,336,[,15,200,5,62,48,6,0,],54,6,33.8,69.817,1952,2012,2012,AF,,FOB CHAMKANI,,409706-99999_fig2.png
https://bioclimatic.github.io/predilection/psych/409710-99999_fig2.png,409710,99999,3,HpAc,88295,19.4,60.8,9,[,309,132,131,],2,5,8,9,12,[,4,0,],23,95,[,1,42,1,16,15,8,12,],35,19,33.35,69.95,1146,2006,2012,AF,,KHOST,,409710-99999_fig2.png
https://bioclimatic.github.io/predilection/psych/409740-99999_fig2.png,409740,99999,3,HpEv,93194,19.4,58.6,9,[,90,132,0,],0,0,0,0,0,[,0,0,],19,36,[,0,13,1,3,4,15,0,],19,0,32.367,62.183,700,2010,2012,AF,,FARAH,,409740-99999_fig2.png
https://bioclimatic.github.io/predilection/psych/409763-99999_fig2.png,409763,99999,2,HpEv,90794,19.4,59.7,3,[,967,922,3,],36,NaN,42,48,49,[,2,0,],2,315,[,1,116,28,28,28,113,1,],144,1,31.65,64.96,916,2010,2012,AF,,SAKARI KAREZ,,409763-99999_fig2.png
https://bioclimatic.github.io/predilection/psych/409764-99999_fig2.png,409764,99999,2,HpEv,91181,19.4,59.5,2,[,808,1201,11,],40,NaN,46,50,52,[,6,0,],1,337,[,0,129,16,31,22,134,5,],162,5,32.083,64.833,881,2013,2013,AF,,FOB SABIT QADAM,,409764-99999_fig2.png
https://bioclimatic.github.io/predilection/psych/409770-99999_fig2.png,409770,99999,3,HpEv,86124,19.4,61.9,8,[,296,162,1,],1,1,1,2,2,[,0,0,],24,74,[,1,33,8,4,6,22,0,],29,0,32.617,65.867,1350,2007,2013,AF,,TIRIN KOT,,409770-99999_fig2.png
https://bioclimatic.github.io/predilection/psych/409790-99999_fig2.png,409790,99999,3,HpEv,83884,19.4,63.1,7,[,447,100,0,],1,0,2,2,2,[,0,0,],24,81,[,3,42,10,3,9,15,0,],25,1,32.117,66.9,1565,2006,2013,AF,,KALAT,,409790-99999_fig2.png
https://bioclimatic.github.io/predilection/psych/409793-99999_fig2.png,409793,99999,3,GsEv,80468,19.4,65,4,[,1943,355,0,],0,NaN,NaN,NaN,NaN,[,0,0,],3,364,[,22,170,73,12,31,57,0,],106,0,31.967,67.05,1902,2010,2012,AF,,FOB WOLVERINE,,409793-99999_fig2.png
https://bioclimatic.github.io/predilection/psych/409804-99999_fig2.png,409804,99999,3,GsEv,79531,19.4,65.5,5,[,1908,171,0,],0,NaN,NaN,NaN,NaN,[,0,0,],2,322,[,22,160,37,30,53,19,0,],80,0,32.737,67.628,1996,2011,2012,AF,,VSSA WARRIOR,,409804-99999_fig2.png
https://bioclimatic.github.io/predilection/psych/409810-99999_fig2.png,409810,99999,3,Hu__,71911,19.4,70.5,3,[,116,4,0,],0,0,0,0,0,[,0,0,],23,14,[,2,7,2,1,1,1,0,],2,0,32.2,68.35,2800,2009,2009,AF,,WAZAKHAW,,409810-99999_fig2.png
https://bioclimatic.github.io/predilection/psych/409840-99999_fig2.png,409840,99999,3,Hp__,76943,19.4,67.1,8,[,608,7,0,],1,0,1,2,2,[,0,0,],25,80,[,7,47,5,17,4,0,0,],5,0,32.917,69.133,2262,2006,2012,AF,,URGOON,,409840-99999_fig2.png
https://bioclimatic.github.io/predilection/psych/409844-99999_fig2.png,409844,99999,3,GsEv,81349,19.4,64.5,2,[,1594,98,18,],17,21,27,38,44,[,0,0,],1,301,[,14,149,5,80,40,10,3,],53,9,32.933,69.45,1814,2012,2012,AF,,FOB TILLMAN,,409844-99999_fig2.png
https://bioclimatic.github.io/predilection/psych/409845-99999_fig2.png,409845,99999,4,GsVt,76903,19.4,67.1,5,[,2111,31,0,],0,0,0,0,0,[,0,0,],4,267,[,34,144,36,30,22,1,0,],26,0,33.126,68.839,2266,2009,2012,AF,,SHARANA,,409845-99999_fig2.png
https://bioclimatic.github.io/predilection/psych/409849-99999_fig2.png,409849,99999,3,HpVt,77425,19.4,66.8,4,[,1383,29,0,],0,0,0,0,0,[,0,0,],2,233,[,4,142,18,43,26,0,0,],19,12,32.533,69.2,2212,2010,2011,AF,,FOB SKHIN,,409849-99999_fig2.png
https://bioclimatic.github.io/predilection/psych/409900-99999_fig2.png,409900,99999,3,HpEv,89854,19.4,60.1,18,[,497,455,4,],9,8,12,15,16,[,1,0,],29,161,[,1,64,12,13,14,56,1,],72,1,31.506,65.848,1007,2005,2020,AF,,KANDAHAR,,409900-99999_fig2.png
https://bioclimatic.github.io/predilection/psych/409903-99999_fig2.png,409903,99999,2,HpEv,88396,19.4,60.8,5,[,1070,956,3,],19,NaN,44,47,49,[,2,0,],4,330,[,2,129,34,21,23,119,2,],147,2,31.867,65.85,1137,2010,2013,AF,,FOB FRONTENAC,,409903-99999_fig2.png
https://bioclimatic.github.io/predilection/psych/409904-99999_fig2.png,409904,99999,2,HpEv,87810,19.4,61.1,5,[,1081,871,8,],9,27,38,44,48,[,2,0,],3,337,[,2,132,42,25,21,113,2,],143,2,30.983,66.35,1191,2011,2013,AF,,FOB SPIN BULDAK,,409904-99999_fig2.png
https://bioclimatic.github.io/predilection/psych/409905-99999_fig2.png,409905,99999,2,HpEv,90291,19.4,59.9,4,[,899,1111,4,],13,NaN,46,50,52,[,9,0,],3,343,[,0,125,26,35,25,130,2,],158,2,31.583,65.433,962,2011,2013,AF,,FOB PASAB/WILSON,,409905-99999_fig2.png
