URL,WMOstn,WBANo,Acz,HVAC,meanPa,WBref,hBASE,dpy,[,avHDD,avCDD,avChD,],low,min,ave,max,best,[,WsD,YsD,],yrs,dys,[,Icy,Hea,Hum,Pas,Vtn,EvC,DX,],24Cd,67Fd,latitude,longitude,elev,base,stop,CC,ST,Placename,,psychrometric_chart_image
https://bioclimatic.github.io/predilection/psych/010010-99999_fig2.png,10010,99999,7,Gs__,100398,19.4,55.7,33,[,6544,0,0,],0,NaN,NaN,NaN,NaN,[,0,0,],33,364,[,282,82,0,0,0,0,0,],0,0,70.933,-8.667,9,1987,2020,NO,,JAN MAYEN(NOR-NAVY),,010010-99999_fig2.png
https://bioclimatic.github.io/predilection/psych/010013-99999_fig2.png,10013,99999,5,Gs__,NaN,19.4,NaN,1,[,4037,0,0,],0,NaN,NaN,NaN,NaN,[,0,0,],1,302,[,109,192,0,1,0,0,0,],0,0,NaN,NaN,0,1987,1987,NO,,ROST,,010013-99999_fig2.png
https://bioclimatic.github.io/predilection/psych/010014-99999_fig2.png,10014,99999,4,Gs__,100740,19.4,55.6,32,[,2903,2,1,],6,34,35,38,38,[,0,0,],15,306,[,58,233,0,14,1,0,0,],1,0,59.792,5.341,49,1993,2019,NO,,SORSTOKKEN,,010014-99999_fig2.png
https://bioclimatic.github.io/predilection/psych/010015-99999_fig2.png,10015,99999,5,Gs__,97458,19.4,56.8,18,[,3800,0,0,],0,0,0,0,0,[,0,0,],21,307,[,108,189,0,10,0,0,0,],0,0,61.383,5.867,327,1988,2008,NO,,BRINGELAND,,010015-99999_fig2.png
https://bioclimatic.github.io/predilection/psych/010016-99999_fig2.png,10016,99999,5,Gs__,101157,19.4,55.5,4,[,3872,0,0,],0,NaN,NaN,NaN,NaN,[,0,0,],3,340,[,89,243,0,8,0,0,0,],0,0,64.85,11.233,14,1988,1990,NO,,RORVIK/RYUM,,010016-99999_fig2.png
https://bioclimatic.github.io/predilection/psych/010017-99999_fig2.png,10017,99999,5,Gs__,100750,19.4,55.6,12,[,3185,0,0,],0,NaN,NaN,NaN,NaN,[,0,0,],2,323,[,24,299,0,0,0,0,0,],0,0,59.98,2.25,48,1999,2001,NO,,FRIGG,,010017-99999_fig2.png
https://bioclimatic.github.io/predilection/psych/010020-99999_fig2.png,10020,99999,3,Gs__,101105,19.4,55.5,9,[,1986,0,0,],0,0,0,0,0,[,0,0,],27,86,[,69,17,0,0,0,0,0,],0,0,80.05,16.25,8,2011,2019,NO,,VERLEGENHUKEN,,010020-99999_fig2.png
https://bioclimatic.github.io/predilection/psych/010030-99999_fig2.png,10030,99999,7,Gs__,100922,19.4,55.5,32,[,7069,0,0,],0,0,0,0,0,[,0,0,],24,336,[,262,74,0,0,0,0,0,],0,0,77,15.5,12,1996,2019,NO,,HORNSUND,,010030-99999_fig2.png
https://bioclimatic.github.io/predilection/psych/010060-99999_fig2.png,10060,99999,4,Gs__,101062,19.4,55.5,11,[,2065,0,0,],0,0,0,0,0,[,0,0,],31,91,[,84,7,0,0,0,0,0,],0,0,78.25,22.817,14,2011,2019,NO,,EDGEOYA,,010060-99999_fig2.png
https://bioclimatic.github.io/predilection/psych/010100-99999_fig2.png,10100,99999,6,Gs__,101167,19.4,55.4,33,[,5084,0,0,],0,NaN,NaN,NaN,NaN,[,0,0,],33,364,[,149,214,0,1,0,0,0,],0,0,69.293,16.144,13,1987,2020,NO,,ANDOYA,,010100-99999_fig2.png
https://bioclimatic.github.io/predilection/psych/010150-99999_fig2.png,10150,99999,6,Gs__,101160,19.4,55.5,30,[,4501,0,0,],0,0,0,0,0,[,0,0,],21,336,[,118,217,0,1,0,0,0,],0,0,69.6,17.833,14,1998,2020,NO,,HEKKINGEN FYR,,010150-99999_fig2.png
https://bioclimatic.github.io/predilection/psych/010160-99999_fig2.png,10160,99999,4,Gs__,100981,19.4,55.5,8,[,2586,0,0,],0,0,0,0,0,[,0,0,],22,111,[,103,8,0,0,0,0,0,],0,0,78.933,28.9,20,2012,2019,NO,,KONGSOYA,,010160-99999_fig2.png
https://bioclimatic.github.io/predilection/psych/010230-99999_fig2.png,10230,99999,7,Gs__,100361,19.4,55.7,32,[,6050,0,0,],0,NaN,25,33,35,[,0,0,],32,364,[,174,184,0,6,0,0,0,],0,0,69.056,18.54,77,1987,2020,NO,,BARDUFOSS,,010230-99999_fig2.png
https://bioclimatic.github.io/predilection/psych/010231-99999_fig2.png,10231,99999,5,Gs__,101325,19.4,55.4,13,[,3644,0,0,],0,NaN,NaN,NaN,NaN,[,0,0,],7,359,[,38,318,0,3,0,0,0,],0,0,64.35,7.8,0,2011,2017,NO,,DRAUGEN,,010231-99999_fig2.png
https://bioclimatic.github.io/predilection/psych/010240-99999_fig2.png,10240,99999,3,Gs__,101020,19.4,55.5,9,[,1233,0,0,],0,0,0,0,0,[,0,0,],30,59,[,27,32,0,0,0,0,0,],0,0,78.65,16.367,20,2014,2019,NO,,PYRAMIDEN,,010240-99999_fig2.png
https://bioclimatic.github.io/predilection/psych/010250-99999_fig2.png,10250,99999,7,Gs__,101088,19.4,55.5,33,[,5401,0,0,],0,NaN,NaN,NaN,NaN,[,0,0,],33,364,[,174,189,0,1,0,0,0,],0,0,69.683,18.919,9,1987,2020,NO,,TROMSO,,010250-99999_fig2.png
https://bioclimatic.github.io/predilection/psych/010260-99999_fig2.png,10260,99999,6,Gs__,99078,19.4,56.2,19,[,5037,0,0,],0,0,0,0,0,[,0,0,],19,344,[,157,185,0,2,0,0,0,],0,0,69.65,18.933,114,2003,2020,NO,,TROMSO,,010260-99999_fig2.png
https://bioclimatic.github.io/predilection/psych/010270-99999_fig2.png,10270,99999,6,Gs__,101085,19.4,55.5,9,[,5048,0,0,],0,NaN,NaN,NaN,NaN,[,0,0,],9,357,[,148,207,0,2,0,0,0,],0,0,69.65,18.9,20,2012,2020,NO,,TROMSO-HOLT,,010270-99999_fig2.png
https://bioclimatic.github.io/predilection/psych/010280-99999_fig2.png,10280,99999,7,Gs__,100254,19.4,55.8,34,[,6841,0,0,],0,NaN,NaN,NaN,NaN,[,0,0,],34,362,[,307,55,0,0,0,0,0,],0,0,74.517,19.017,18,1987,2020,NO,,BJORNOYA ISLAND,,010280-99999_fig2.png
https://bioclimatic.github.io/predilection/psych/010300-99999_fig2.png,10300,99999,3,Hp__,90071,19.4,60,0,[,893,0,0,],0,0,0,0,0,[,0,0,],28,44,[,0,44,0,0,0,0,0,],0,0,69.283,18.133,982,2015,2019,NO,,KISTEFJELL,,010300-99999_fig2.png
https://bioclimatic.github.io/predilection/psych/010330-99999_fig2.png,10330,99999,6,Gs__,100105,19.4,55.8,31,[,4837,0,0,],0,NaN,NaN,NaN,NaN,[,0,0,],30,356,[,126,229,0,1,0,0,0,],0,0,70.25,19.5,24,1987,2020,NO,,TORSVAG FYR,,010330-99999_fig2.png
https://bioclimatic.github.io/predilection/psych/010340-99999_fig2.png,10340,99999,6,Gs__,100466,19.4,55.7,16,[,4518,0,0,],0,NaN,NaN,NaN,NaN,[,0,0,],11,317,[,156,160,0,1,0,0,0,],0,0,70.317,20.15,38,1992,2002,NO,,FUGLOYKALVEN FYR,,010340-99999_fig2.png
https://bioclimatic.github.io/predilection/psych/010350-99999_fig2.png,10350,99999,4,Gs__,93081,19.4,58.6,12,[,2621,0,0,],0,0,0,0,0,[,0,0,],14,156,[,53,102,0,1,0,0,0,],0,0,69.567,20.1,710,1992,2016,NO,,LYNGEN GJERDVASSBU,,010350-99999_fig2.png
https://bioclimatic.github.io/predilection/psych/010360-99999_fig2.png,10360,99999,4,Hp__,92048,19.4,59.1,0,[,2619,0,0,],0,0,0,0,0,[,0,0,],9,143,[,0,143,0,0,0,0,0,],0,0,69.567,20.433,710,2015,2020,NO,,NORDNESFJELLET,,010360-99999_fig2.png
https://bioclimatic.github.io/predilection/psych/010370-99999_fig2.png,10370,99999,4,Gs__,100594,19.4,55.7,16,[,2445,0,0,],0,0,0,2,2,[,0,0,],33,162,[,56,104,0,2,0,0,0,],0,0,69.383,20.283,20,2005,2019,NO,,SKIBOTN 2,,010370-99999_fig2.png
https://bioclimatic.github.io/predilection/psych/010420-99999_fig2.png,10420,99999,5,Gs__,96173,19.4,57.4,3,[,3822,0,0,],0,0,0,0,0,[,0,0,],6,220,[,116,103,0,1,0,0,0,],0,0,70.6,22.45,438,2009,2020,NO,,HASVIK-SLUSKFJELLET,,010420-99999_fig2.png
https://bioclimatic.github.io/predilection/psych/010430-99999_fig2.png,10430,99999,3,Hp__,101205,19.4,55.4,0,[,1277,0,0,],0,0,0,0,0,[,0,0,],21,89,[,0,89,0,0,0,0,0,],0,0,70.417,22.817,10,2012,2019,NO,,ROGNSUNDET,,010430-99999_fig2.png
https://bioclimatic.github.io/predilection/psych/010440-99999_fig2.png,10440,99999,6,Gs__,100455,19.4,55.7,13,[,4479,0,0,],0,0,0,0,0,[,0,0,],9,324,[,136,187,0,1,0,0,0,],0,0,70.487,22.14,6,2012,2020,NO,,HASVIK,,010440-99999_fig2.png
https://bioclimatic.github.io/predilection/psych/010450-99999_fig2.png,10450,99999,3,Gs__,101253,19.4,55.4,3,[,393,0,0,],0,0,0,0,0,[,0,0,],27,27,[,12,15,0,0,0,0,0,],0,0,69.833,21.883,6,2019,2020,NO,,NORDSTRAUM I KVAENANGEN,,010450-99999_fig2.png
https://bioclimatic.github.io/predilection/psych/010460-99999_fig2.png,10460,99999,7,Gs__,100614,19.4,55.7,32,[,5198,0,0,],0,0,15,18,18,[,0,0,],31,346,[,115,226,0,5,0,0,0,],0,0,69.787,20.959,5,1989,2020,NO,,SORKJOSEN,,010460-99999_fig2.png
https://bioclimatic.github.io/predilection/psych/010470-99999_fig2.png,10470,99999,7,Gs__,97112,19.4,57,34,[,6911,0,0,],0,NaN,NaN,NaN,NaN,[,0,0,],30,357,[,203,148,0,6,0,0,0,],0,0,69.017,23.067,307,1987,2019,NO,,KAUTOKEINO II,,010470-99999_fig2.png
https://bioclimatic.github.io/predilection/psych/010490-99999_fig2.png,10490,99999,7,Gs__,101239,19.4,55.4,31,[,5787,0,0,],1,NaN,31,37,38,[,0,0,],31,364,[,154,205,0,5,0,0,0,],0,0,69.976,23.372,3,1987,2020,NO,,ALTA,,010490-99999_fig2.png
https://bioclimatic.github.io/predilection/psych/010520-99999_fig2.png,10520,99999,7,Gs__,100357,19.4,55.7,34,[,5640,0,0,],0,NaN,NaN,NaN,NaN,[,0,0,],34,362,[,195,163,0,4,0,0,0,],0,0,70.683,23.683,81,1987,2020,NO,,HAMMERFEST AP,,010520-99999_fig2.png
https://bioclimatic.github.io/predilection/psych/010550-99999_fig2.png,10550,99999,7,Gs__,100245,19.4,55.8,30,[,5309,0,0,],0,NaN,NaN,NaN,NaN,[,0,0,],29,361,[,191,169,0,1,0,0,0,],0,0,71.1,23.983,14,1987,2020,NO,,FRUHOLMEN FYR,,010550-99999_fig2.png
https://bioclimatic.github.io/predilection/psych/010580-99999_fig2.png,10580,99999,7,Gs__,96146,19.4,57.4,13,[,7017,0,0,],0,NaN,NaN,NaN,NaN,[,0,0,],12,353,[,223,128,0,2,0,0,0,],0,0,69.567,23.533,381,2006,2019,NO,,SUOLOVUOPMI LULIT,,010580-99999_fig2.png
https://bioclimatic.github.io/predilection/psych/010590-99999_fig2.png,10590,99999,7,Gs__,101217,19.4,55.4,34,[,6032,0,0,],0,NaN,32,38,39,[,0,0,],34,363,[,168,191,0,4,0,0,0,],0,0,70.069,24.973,8,1987,2020,NO,,BANAK,,010590-99999_fig2.png
https://bioclimatic.github.io/predilection/psych/010620-99999_fig2.png,10620,99999,8,Gs__,100447,19.4,55.7,34,[,8068,0,0,],0,NaN,NaN,NaN,NaN,[,0,0,],34,364,[,345,19,0,0,0,0,0,],0,0,76.5,25.067,10,1987,2020,NO,,HOPEN ISLAND,,010620-99999_fig2.png
https://bioclimatic.github.io/predilection/psych/010650-99999_fig2.png,10650,99999,6,Gs__,98990,19.4,56.3,25,[,4693,0,0,],0,0,0,0,0,[,0,0,],21,245,[,140,103,0,2,0,0,0,],0,0,69.467,25.517,133,2006,2020,NO,,KARASJOK,,010650-99999_fig2.png
https://bioclimatic.github.io/predilection/psych/010680-99999_fig2.png,10680,99999,7,Gs__,100940,19.4,55.5,28,[,5243,0,0,],0,NaN,NaN,NaN,NaN,[,0,0,],26,346,[,190,155,0,1,0,0,0,],0,0,71.017,25.983,14,1987,2020,NO,,HONNINGSVAG/VALAN,,010680-99999_fig2.png
https://bioclimatic.github.io/predilection/psych/010740-99999_fig2.png,10740,99999,7,Gs__,100474,19.4,55.7,31,[,5332,0,0,],0,NaN,NaN,NaN,NaN,[,0,0,],26,339,[,193,143,0,3,0,0,0,],0,0,71.033,27.833,13,1987,2020,NO,,MEHAMN,,010740-99999_fig2.png
https://bioclimatic.github.io/predilection/psych/010760-99999_fig2.png,10760,99999,7,Gs__,100173,19.4,55.8,8,[,6342,1,0,],0,NaN,NaN,NaN,NaN,[,0,0,],7,360,[,209,147,0,3,1,0,0,],1,0,70.217,28.167,32,2014,2020,NO,,TANABRU,,010760-99999_fig2.png
https://bioclimatic.github.io/predilection/psych/010780-99999_fig2.png,10780,99999,7,Gs__,100350,19.4,55.7,31,[,5702,0,0,],0,NaN,NaN,NaN,NaN,[,0,0,],31,362,[,213,148,0,1,0,0,0,],0,0,71.1,28.233,10,1987,2020,NO,,SLETTNES FYR,,010780-99999_fig2.png
https://bioclimatic.github.io/predilection/psych/010820-99999_fig2.png,10820,99999,3,Gs__,99952,19.4,55.9,9,[,1390,0,0,],0,0,1,1,1,[,0,0,],32,79,[,44,33,0,2,0,0,0,],0,0,69.15,29.25,56,2014,2020,NO,,NYRUD,,010820-99999_fig2.png
https://bioclimatic.github.io/predilection/psych/010830-99999_fig2.png,10830,99999,7,Gs__,100460,19.4,55.7,33,[,5294,0,0,],0,NaN,NaN,NaN,NaN,[,0,0,],32,334,[,182,150,0,2,0,0,0,],0,0,70.867,29.033,13,1987,2020,NO,,BERLEVAG,,010830-99999_fig2.png
https://bioclimatic.github.io/predilection/psych/010840-99999_fig2.png,10840,99999,3,Gs__,101001,19.4,55.5,10,[,1942,0,0,],1,1,2,3,3,[,0,0,],29,109,[,63,44,0,2,0,0,0,],0,0,69.45,30.033,27,2012,2020,NO,,PASVIK,,010840-99999_fig2.png
https://bioclimatic.github.io/predilection/psych/010860-99999_fig2.png,10860,99999,7,Gs__,98757,19.4,56.3,10,[,5675,0,0,],1,0,15,18,18,[,0,0,],11,334,[,180,151,0,3,0,0,0,],0,0,70.6,29.693,149,2006,2020,NO,,BATSFJORD,,010860-99999_fig2.png
https://bioclimatic.github.io/predilection/psych/010875-99999_fig2.png,10875,99999,5,Gs__,100248,19.4,55.8,9,[,3410,0,0,],0,NaN,NaN,NaN,NaN,[,0,0,],9,362,[,28,333,0,1,0,0,0,],0,0,59.567,2.217,90,2012,2020,NO,,HEIMDAL OIL PLATFORM,,010875-99999_fig2.png
https://bioclimatic.github.io/predilection/psych/010876-99999_fig2.png,10876,99999,5,Gs__,100248,19.4,55.8,9,[,4079,0,0,],0,NaN,NaN,NaN,NaN,[,0,0,],9,362,[,65,297,0,0,0,0,0,],0,0,66.017,8.083,90,2012,2020,NO,,NORNE OIL PLATFORM,,010876-99999_fig2.png
https://bioclimatic.github.io/predilection/psych/010877-99999_fig2.png,10877,99999,5,Gs__,100248,19.4,55.8,9,[,3468,0,0,],0,NaN,NaN,NaN,NaN,[,0,0,],9,360,[,37,320,0,3,0,0,0,],0,0,60.633,3.717,90,2012,2020,NO,,TROLL A  OIL PLATFORM,,010877-99999_fig2.png
https://bioclimatic.github.io/predilection/psych/010878-99999_fig2.png,10878,99999,5,Gs__,100248,19.4,55.8,9,[,3440,0,0,],0,NaN,NaN,NaN,NaN,[,0,0,],9,359,[,21,337,0,1,0,0,0,],0,0,61.45,2.133,90,2012,2020,NO,,SNORRE A  OIL PLATFORM,,010878-99999_fig2.png
https://bioclimatic.github.io/predilection/psych/010879-99999_fig2.png,10879,99999,5,Gs__,100248,19.4,55.8,8,[,3408,0,0,],0,NaN,NaN,NaN,NaN,[,0,0,],8,357,[,24,332,0,1,0,0,0,],0,0,61.533,2.2,90,2012,2020,NO,,SNORRE B  OIL PLATFORM,,010879-99999_fig2.png
https://bioclimatic.github.io/predilection/psych/010880-99999_fig2.png,10880,99999,7,Gs__,100286,19.4,55.8,34,[,6003,0,0,],0,NaN,NaN,NaN,NaN,[,0,0,],34,359,[,217,140,0,2,0,0,0,],0,0,70.067,29.85,39,1987,2020,NO,,VADSO,,010880-99999_fig2.png
https://bioclimatic.github.io/predilection/psych/010882-99999_fig2.png,10882,99999,7,Gs__,94026,19.4,58.2,15,[,5994,0,0,],0,NaN,NaN,NaN,NaN,[,0,0,],15,360,[,197,158,0,5,0,0,0,],0,0,62.578,11.342,626,2006,2020,NO,,ROROS,,010882-99999_fig2.png
https://bioclimatic.github.io/predilection/psych/010884-99999_fig2.png,10884,99999,5,Gs__,99641,19.4,56,10,[,3481,6,0,],8,NaN,32,34,34,[,0,0,],8,326,[,100,199,0,24,3,0,0,],4,0,59.185,9.567,141,2007,2014,NO,,GEITERYGGEN,,010884-99999_fig2.png
https://bioclimatic.github.io/predilection/psych/010885-99999_fig2.png,10885,99999,6,Gs__,99500,19.4,56.1,6,[,4489,0,0,],0,0,0,0,0,[,0,0,],9,267,[,132,131,0,3,1,0,0,],0,1,70.6,29.733,153,1995,2008,NO,,BATSFJORD,,010885-99999_fig2.png
https://bioclimatic.github.io/predilection/psych/010886-99999_fig2.png,10886,99999,5,Gs__,100965,19.4,55.5,11,[,3238,0,0,],0,NaN,NaN,NaN,NaN,[,0,0,],11,363,[,21,342,0,0,0,0,0,],0,0,58.367,1.9,30,2010,2020,NO,,SLEIPNER A OIL PLATFORM,,010886-99999_fig2.png
https://bioclimatic.github.io/predilection/psych/010887-99999_fig2.png,10887,99999,5,Gs__,101085,19.4,55.5,9,[,3317,0,0,],0,NaN,NaN,NaN,NaN,[,0,0,],9,359,[,26,330,0,3,0,0,0,],0,0,60.886,3.61,20,2012,2020,NO,,TROLL C OIL PLATFORM,,010887-99999_fig2.png
https://bioclimatic.github.io/predilection/psych/010890-99999_fig2.png,10890,99999,7,Gs__,100186,19.4,55.8,30,[,6422,0,0,],1,NaN,30,36,38,[,0,0,],30,362,[,218,139,0,5,0,0,0,],0,0,69.726,29.893,86,1987,2020,NO,,HOYBUKTMOEN,,010890-99999_fig2.png
https://bioclimatic.github.io/predilection/psych/010920-99999_fig2.png,10920,99999,5,Gs__,101217,19.4,55.4,18,[,4011,0,0,],0,0,0,0,0,[,0,0,],21,258,[,139,118,0,1,0,0,0,],0,0,70.7,30.083,9,2000,2019,NO,,MAKKAUR FYR,,010920-99999_fig2.png
https://bioclimatic.github.io/predilection/psych/010970-99999_fig2.png,10970,99999,5,Gs__,101181,19.4,55.4,11,[,3987,0,0,],0,0,0,0,0,[,0,0,],11,237,[,148,88,0,1,0,0,0,],0,0,70.35,31.05,12,1995,2008,NO,,SVARTNES,,010970-99999_fig2.png
https://bioclimatic.github.io/predilection/psych/010980-99999_fig2.png,10980,99999,7,Gs__,100265,19.4,55.8,34,[,5750,0,0,],0,NaN,NaN,NaN,NaN,[,0,0,],33,361,[,225,136,0,0,0,0,0,],0,0,70.367,31.1,15,1987,2020,NO,,VARDO,,010980-99999_fig2.png
https://bioclimatic.github.io/predilection/psych/010990-99999_fig2.png,10990,99999,7,Gs__,100448,19.4,55.7,11,[,5304,0,0,],0,0,0,0,0,[,0,0,],12,330,[,197,132,0,1,0,0,0,],0,0,70.355,31.045,13,2006,2020,NO,,VARDO AP / SVARTNES,,010990-99999_fig2.png
https://bioclimatic.github.io/predilection/psych/011020-99999_fig2.png,11020,99999,6,Gs__,100942,19.4,55.5,32,[,4188,0,0,],0,NaN,NaN,NaN,NaN,[,0,0,],29,359,[,104,254,0,1,0,0,0,],0,0,65.2,11,16,1987,2018,NO,,SKLINNA FYR,,011020-99999_fig2.png
https://bioclimatic.github.io/predilection/psych/011025-99999_fig2.png,11025,99999,5,Gs__,100370,19.4,55.7,21,[,4004,0,0,],0,NaN,NaN,NaN,NaN,[,0,0,],21,363,[,54,309,0,0,0,0,0,],0,0,65.333,7.317,80,2000,2020,NO,,HEIDRUN,,011025-99999_fig2.png
https://bioclimatic.github.io/predilection/psych/011030-99999_fig2.png,11030,99999,4,Gs__,100762,19.4,55.6,11,[,2069,0,0,],0,0,0,0,0,[,0,0,],2,157,[,49,107,0,1,0,0,0,],0,0,65.1,11.7,47,2001,2001,NO,,LEKA,,011030-99999_fig2.png
https://bioclimatic.github.io/predilection/psych/011050-99999_fig2.png,11050,99999,3,Gs__,101229,19.4,55.4,12,[,1659,0,0,],0,0,0,0,0,[,0,0,],32,130,[,45,84,0,1,0,0,0,],0,0,68.367,15.95,8,2009,2020,NO,,ROTVAER,,011050-99999_fig2.png
https://bioclimatic.github.io/predilection/psych/011060-99999_fig2.png,11060,99999,4,Gs__,101092,19.4,55.5,17,[,2896,0,0,],0,0,0,0,0,[,0,0,],15,234,[,73,161,0,0,0,0,0,],0,0,67.517,12.1,2,1987,1996,NO,,ROEST III,,011060-99999_fig2.png
https://bioclimatic.github.io/predilection/psych/011070-99999_fig2.png,11070,99999,6,Gs__,100672,19.4,55.6,28,[,4154,0,0,],0,NaN,NaN,NaN,NaN,[,0,0,],20,342,[,98,244,0,0,0,0,0,],0,0,67.517,12.1,4,1989,2020,NO,,ROST (NOR-AFB),,011070-99999_fig2.png
https://bioclimatic.github.io/predilection/psych/011080-99999_fig2.png,11080,99999,3,Gs__,100496,19.4,55.7,4,[,1606,0,0,],0,0,0,0,0,[,0,0,],16,137,[,18,117,0,2,0,0,0,],0,0,65.7,11.85,9,2013,2020,NO,,VEGA-VALLSJO,,011080-99999_fig2.png
https://bioclimatic.github.io/predilection/psych/011100-99999_fig2.png,11100,99999,6,Gs__,100929,19.4,55.5,7,[,4229,0,0,],0,NaN,NaN,NaN,NaN,[,0,0,],6,354,[,126,227,0,1,0,0,0,],0,0,66,11.683,33,1997,2002,NO,,YTTERHOLMEN FYR,,011100-99999_fig2.png
https://bioclimatic.github.io/predilection/psych/011120-99999_fig2.png,11120,99999,6,Gs__,101229,19.4,55.4,34,[,4172,0,0,],1,NaN,27,33,33,[,0,0,],34,360,[,90,260,0,10,0,0,0,],1,0,65.461,12.218,8,1987,2020,NO,,BRONNOY,,011120-99999_fig2.png
https://bioclimatic.github.io/predilection/psych/011130-99999_fig2.png,11130,99999,6,Gs__,100857,19.4,55.6,5,[,4315,0,0,],0,NaN,NaN,NaN,NaN,[,0,0,],4,357,[,75,275,0,7,0,0,0,],0,0,66.8,13.983,39,2006,2009,NO,,GLOMFJORD,,011130-99999_fig2.png
https://bioclimatic.github.io/predilection/psych/011133-99999_fig2.png,11133,99999,5,____,92099,19.4,59.1,6,[,4078,0,NaN,],NaN,NaN,NaN,NaN,NaN,[,NaN,NaN,],1,316,[,NaN,303,NaN,9,4,NaN,NaN,],0,5,60.417,8.513,798,1990,1990,NO,,DAGALI,,011133-99999_fig2.png
https://bioclimatic.github.io/predilection/psych/011140-99999_fig2.png,11140,99999,6,Gs__,100440,19.4,55.7,11,[,4676,0,0,],1,NaN,NaN,33,33,[,0,0,],11,359,[,131,224,0,4,0,0,0,],0,0,66.9,13.633,8,2010,2020,NO,,REIPA,,011140-99999_fig2.png
https://bioclimatic.github.io/predilection/psych/011150-99999_fig2.png,11150,99999,6,Gs__,100303,19.4,55.8,28,[,4255,0,0,],0,NaN,NaN,NaN,NaN,[,0,0,],22,359,[,87,271,0,1,0,0,0,],0,0,66.767,12.483,13,1993,2020,NO,,MYKEN,,011150-99999_fig2.png
https://bioclimatic.github.io/predilection/psych/011160-99999_fig2.png,11160,99999,6,Gs__,100620,19.4,55.6,32,[,4231,0,0,],1,NaN,27,34,35,[,0,0,],32,361,[,93,257,0,10,1,0,0,],1,0,65.95,12.467,17,1987,2020,NO,,STOKKA,,011160-99999_fig2.png
https://bioclimatic.github.io/predilection/psych/011170-99999_fig2.png,11170,99999,4,Gs__,101073,19.4,55.5,8,[,2487,1,0,],1,0,4,5,5,[,0,0,],13,211,[,53,154,0,4,0,0,0,],0,0,65.817,12.417,21,2012,2020,NO,,TJOTTA,,011170-99999_fig2.png
https://bioclimatic.github.io/predilection/psych/011210-99999_fig2.png,11210,99999,6,Gs__,100839,19.4,55.6,31,[,4137,0,0,],1,NaN,27,31,31,[,0,0,],26,347,[,101,242,0,4,0,0,0,],0,0,66.367,12.617,10,1987,2019,NO,,SOLVAER III,,011210-99999_fig2.png
https://bioclimatic.github.io/predilection/psych/011220-99999_fig2.png,11220,99999,6,Gs__,99954,19.4,55.9,30,[,5072,0,0,],1,NaN,32,37,37,[,0,0,],30,361,[,150,200,0,10,1,0,0,],1,0,65.784,13.215,72,1989,2020,NO,,KJAERSTAD,,011220-99999_fig2.png
https://bioclimatic.github.io/predilection/psych/011240-99999_fig2.png,11240,99999,4,Gs__,99004,19.4,56.3,9,[,3040,0,0,],0,0,0,0,0,[,0,0,],13,222,[,101,115,0,6,0,0,0,],0,0,64.167,12.467,195,2013,2020,NO,,SNASA,,011240-99999_fig2.png
https://bioclimatic.github.io/predilection/psych/011320-99999_fig2.png,11320,99999,7,Gs__,96876,19.4,57.1,11,[,5543,0,0,],0,NaN,NaN,NaN,NaN,[,0,0,],11,358,[,179,173,0,6,0,0,0,],0,0,65.167,13.367,319,2009,2020,NO,,MAJAVATN V,,011320-99999_fig2.png
https://bioclimatic.github.io/predilection/psych/011330-99999_fig2.png,11330,99999,6,Gs__,100726,19.4,55.6,9,[,5090,0,0,],3,NaN,27,36,36,[,0,0,],9,353,[,165,181,0,7,0,0,0,],0,0,65.617,13.283,50,2012,2020,NO,,LAKSFORS,,011330-99999_fig2.png
https://bioclimatic.github.io/predilection/psych/011350-99999_fig2.png,11350,99999,6,Gs__,99145,19.4,56.2,9,[,5092,0,0,],1,NaN,28,36,36,[,0,0,],9,358,[,170,181,0,7,0,0,0,],0,0,66.117,13.583,123,2012,2020,NO,,SELJELIA,,011350-99999_fig2.png
https://bioclimatic.github.io/predilection/psych/011380-99999_fig2.png,11380,99999,6,Gs__,101157,19.4,55.5,13,[,4292,0,0,],0,NaN,NaN,NaN,NaN,[,0,0,],9,356,[,123,233,0,0,0,0,0,],0,0,67.3,13.5,14,1988,2001,NO,,TENNHOLMEN (LGT-H),,011380-99999_fig2.png
https://bioclimatic.github.io/predilection/psych/011390-99999_fig2.png,11390,99999,6,Gs__,100525,19.4,55.7,9,[,4206,0,0,],0,NaN,NaN,NaN,NaN,[,0,0,],9,353,[,93,259,0,1,0,0,0,],0,0,67.65,12.717,4,2012,2020,NO,,VAEROY HELIPORT,,011390-99999_fig2.png
https://bioclimatic.github.io/predilection/psych/011410-99999_fig2.png,11410,99999,6,Gs__,100175,19.4,55.8,33,[,4616,0,0,],0,NaN,NaN,NaN,NaN,[,0,0,],33,357,[,128,224,0,5,0,0,0,],0,0,68.15,13.617,26,1987,2020,NO,,LEKNES,,011410-99999_fig2.png
https://bioclimatic.github.io/predilection/psych/011430-99999_fig2.png,11430,99999,6,Gs__,101097,19.4,55.5,12,[,4400,0,0,],0,0,0,0,0,[,0,0,],11,328,[,109,214,0,5,0,0,0,],0,0,68.05,16.083,19,2008,2017,NO,,DRAG-AJLUOKTA,,011430-99999_fig2.png
https://bioclimatic.github.io/predilection/psych/011440-99999_fig2.png,11440,99999,6,Gs__,101037,19.4,55.5,14,[,4365,0,0,],0,NaN,NaN,NaN,NaN,[,0,0,],14,360,[,94,264,0,2,0,0,0,],0,0,67.4,13.883,24,2006,2020,NO,,HELLIGVAER II,,011440-99999_fig2.png
https://bioclimatic.github.io/predilection/psych/011460-99999_fig2.png,11460,99999,3,Gs__,101265,19.4,55.4,10,[,1322,0,0,],0,0,1,2,2,[,0,0,],33,97,[,41,54,0,2,0,0,0,],0,0,66.233,13.883,5,2012,2020,NO,,SKAMDAL,,011460-99999_fig2.png
https://bioclimatic.github.io/predilection/psych/011470-99999_fig2.png,11470,99999,3,Gs__,96542,19.4,57.2,9,[,1457,0,0,],0,0,0,0,0,[,0,0,],31,93,[,51,41,0,1,0,0,0,],0,0,65.833,14.183,406,2013,2020,NO,,VARNTRESK,,011470-99999_fig2.png
https://bioclimatic.github.io/predilection/psych/011480-99999_fig2.png,11480,99999,7,Gs__,100011,19.4,55.9,9,[,5429,0,0,],2,NaN,30,35,35,[,0,0,],9,350,[,166,177,0,7,0,0,0,],0,0,66.383,14.517,110,2012,2020,NO,,STORFORSHEI,,011480-99999_fig2.png
https://bioclimatic.github.io/predilection/psych/011500-99999_fig2.png,11500,99999,3,Gs__,98346,19.4,56.5,11,[,1821,0,0,],0,0,0,0,0,[,0,0,],34,116,[,54,61,0,1,0,0,0,],0,0,66.5,14.95,251,2010,2020,NO,,HJARTASEN,,011500-99999_fig2.png
https://bioclimatic.github.io/predilection/psych/011510-99999_fig2.png,11510,99999,7,Gs__,100007,19.4,55.9,31,[,5350,1,0,],1,NaN,28,34,34,[,0,0,],31,361,[,153,196,0,11,1,0,0,],1,0,66.367,14.3,70,1987,2020,NO,,MOIRANA,,011510-99999_fig2.png
https://bioclimatic.github.io/predilection/psych/011520-99999_fig2.png,11520,99999,6,Gs__,101150,19.4,55.5,32,[,4669,0,0,],1,NaN,28,33,34,[,0,0,],32,364,[,112,247,0,5,0,0,0,],0,0,67.269,14.365,13,1987,2020,NO,,BODO,,011520-99999_fig2.png
https://bioclimatic.github.io/predilection/psych/011530-99999_fig2.png,11530,99999,6,Gs__,100929,19.4,55.5,3,[,4880,0,0,],0,NaN,NaN,NaN,NaN,[,0,0,],2,362,[,123,236,0,3,0,0,0,],0,0,67.283,14.45,33,2012,2013,NO,,BODO-VAGONES,,011530-99999_fig2.png
https://bioclimatic.github.io/predilection/psych/011540-99999_fig2.png,11540,99999,6,Gs__,100965,19.4,55.5,7,[,4177,0,0,],0,NaN,NaN,NaN,NaN,[,0,0,],3,320,[,88,231,0,1,0,0,0,],0,0,68.583,14.3,30,2000,2002,NO,,LITLOY FYR,,011540-99999_fig2.png
https://bioclimatic.github.io/predilection/psych/011560-99999_fig2.png,11560,99999,6,Gs__,100345,19.4,55.8,16,[,4493,0,0,],1,NaN,23,28,29,[,0,0,],15,357,[,125,230,0,2,0,0,0,],0,0,68.6,14.433,8,2006,2020,NO,,BO I VESTERALEN,,011560-99999_fig2.png
https://bioclimatic.github.io/predilection/psych/011580-99999_fig2.png,11580,99999,6,Gs__,100512,19.4,55.7,10,[,4833,0,0,],0,NaN,NaN,NaN,NaN,[,0,0,],10,359,[,118,234,0,7,0,0,0,],0,0,67.167,15.483,8,2011,2020,NO,,SETSA,,011580-99999_fig2.png
https://bioclimatic.github.io/predilection/psych/011600-99999_fig2.png,11600,99999,6,Gs__,100356,19.4,55.7,31,[,4500,0,0,],0,NaN,NaN,NaN,NaN,[,0,0,],30,361,[,127,230,0,4,0,0,0,],0,0,68.15,14.65,11,1987,2020,NO,,SKROVA FYR,,011600-99999_fig2.png
https://bioclimatic.github.io/predilection/psych/011610-99999_fig2.png,11610,99999,6,Gs__,100653,19.4,55.6,33,[,4589,0,0,],0,NaN,NaN,NaN,NaN,[,0,0,],33,359,[,119,235,0,5,0,0,0,],0,0,68.25,14.667,9,1987,2020,NO,,SVOLVAER/HELLE,,011610-99999_fig2.png
https://bioclimatic.github.io/predilection/psych/011620-99999_fig2.png,11620,99999,6,Gs__,100661,19.4,55.6,32,[,4645,0,0,],0,NaN,NaN,32,32,[,0,0,],32,357,[,123,230,0,4,0,0,0,],0,0,68.583,15.017,3,1987,2020,NO,,STORKMARKNES/SKAGEN,,011620-99999_fig2.png
https://bioclimatic.github.io/predilection/psych/011670-99999_fig2.png,11670,99999,6,Gs__,100832,19.4,55.6,30,[,4883,0,0,],0,NaN,NaN,NaN,NaN,[,0,0,],30,360,[,142,216,0,2,0,0,0,],0,0,68.7,15.417,3,1987,2019,NO,,SORTLAND,,011670-99999_fig2.png
https://bioclimatic.github.io/predilection/psych/011690-99999_fig2.png,11690,99999,3,Gs__,100161,19.4,55.8,9,[,1338,0,0,],0,0,1,1,1,[,0,0,],31,92,[,39,51,0,2,0,0,0,],0,0,66.933,15.317,37,2013,2020,NO,,SALTDAL-NORDNES,,011690-99999_fig2.png
https://bioclimatic.github.io/predilection/psych/011800-99999_fig2.png,11800,99999,6,Gs__,99925,19.4,55.9,16,[,4877,0,0,],1,NaN,26,33,33,[,0,0,],15,360,[,130,227,0,3,0,0,0,],0,0,68.8,16.533,45,2006,2020,NO,,HARSTAD,,011800-99999_fig2.png
https://bioclimatic.github.io/predilection/psych/011830-99999_fig2.png,11830,99999,7,Gs__,101005,19.4,55.5,34,[,5197,0,0,],0,NaN,26,34,35,[,0,0,],34,362,[,140,216,0,6,0,0,0,],0,0,68.491,16.678,26,1987,2020,NO,,EVENES,,011830-99999_fig2.png
https://bioclimatic.github.io/predilection/psych/011920-99999_fig2.png,11920,99999,7,Gs__,98945,19.4,56.3,9,[,5293,0,0,],0,NaN,NaN,NaN,NaN,[,0,0,],9,361,[,98,257,0,6,0,0,0,],0,0,68.417,17.65,200,2012,2020,NO,,STRAUMSNES,,011920-99999_fig2.png
https://bioclimatic.github.io/predilection/psych/011930-99999_fig2.png,11930,99999,5,Gs__,100668,19.4,55.6,12,[,3472,0,0,],0,0,0,0,0,[,0,0,],15,260,[,90,165,0,5,0,0,0,],0,0,68.467,17.5,23,2005,2016,NO,,NARVIK III/FRAMNES,,011930-99999_fig2.png
https://bioclimatic.github.io/predilection/psych/011940-99999_fig2.png,11940,99999,6,Gs__,101049,19.4,55.5,18,[,4881,0,0,],0,NaN,NaN,NaN,NaN,[,0,0,],18,355,[,121,227,0,7,0,0,0,],0,0,68.467,17.5,23,1987,2004,NO,,NARVIK III,,011940-99999_fig2.png
https://bioclimatic.github.io/predilection/psych/011980-99999_fig2.png,11980,99999,7,Gs__,98367,19.4,56.5,10,[,6188,0,0,],0,NaN,NaN,NaN,NaN,[,0,0,],8,357,[,175,175,0,6,0,0,0,],0,0,68.783,19.7,204,2011,2019,NO,,DIVIDALEN II,,011980-99999_fig2.png
https://bioclimatic.github.io/predilection/psych/011990-99999_fig2.png,11990,99999,7,Gs__,95969,19.4,57.4,26,[,5749,0,0,],0,0,0,0,0,[,0,0,],16,290,[,185,101,0,4,0,0,0,],0,0,68.75,23.533,382,1999,2020,NO,,SIHCCAJAVRI,,011990-99999_fig2.png
https://bioclimatic.github.io/predilection/psych/012030-99999_fig2.png,12030,99999,4,Gs__,100237,19.4,55.8,14,[,2134,0,0,],0,0,0,0,0,[,0,0,],22,213,[,29,181,0,3,0,0,0,],0,0,62.033,4.983,41,2003,2020,NO,,KRAKENES,,012030-99999_fig2.png
https://bioclimatic.github.io/predilection/psych/012050-99999_fig2.png,12050,99999,5,Gs__,100422,19.4,55.7,33,[,3734,0,0,],0,NaN,NaN,NaN,NaN,[,0,0,],32,363,[,72,289,0,2,0,0,0,],0,0,62.333,5.267,37,1987,2019,NO,,SVINOY LH,,012050-99999_fig2.png
https://bioclimatic.github.io/predilection/psych/012090-99999_fig2.png,12090,99999,5,Gs__,100083,19.4,55.8,34,[,4031,1,0,],0,NaN,NaN,NaN,NaN,[,0,0,],34,355,[,110,231,0,13,1,0,0,],1,0,62.183,6.067,74,1987,2020,NO,,ORSTA-VOLDA/HOVDEN,,012090-99999_fig2.png
https://bioclimatic.github.io/predilection/psych/012100-99999_fig2.png,12100,99999,5,Gs__,101072,19.4,55.5,33,[,3752,0,0,],0,NaN,NaN,NaN,NaN,[,0,0,],33,364,[,67,292,0,5,0,0,0,],0,0,62.56,6.11,21,1987,2020,NO,,VIGRA,,012100-99999_fig2.png
https://bioclimatic.github.io/predilection/psych/012120-99999_fig2.png,12120,99999,5,Gs__,100536,19.4,55.7,32,[,3730,0,0,],0,NaN,NaN,NaN,NaN,[,0,0,],31,361,[,72,287,0,2,0,0,0,],0,0,62.867,6.533,15,1987,2020,NO,,ONA II,,012120-99999_fig2.png
https://bioclimatic.github.io/predilection/psych/012140-99999_fig2.png,12140,99999,5,Gs__,100810,19.4,55.6,9,[,3854,0,0,],0,NaN,NaN,NaN,NaN,[,0,0,],9,359,[,59,298,0,3,0,0,0,],0,0,62.65,6.767,43,2010,2019,NO,,REKDAL,,012140-99999_fig2.png
https://bioclimatic.github.io/predilection/psych/012170-99999_fig2.png,12170,99999,5,Gs__,101300,19.4,55.4,31,[,3907,0,0,],1,NaN,25,31,31,[,0,0,],31,362,[,101,246,0,15,0,0,0,],0,0,62.745,7.263,3,1987,2020,NO,,ARO,,012170-99999_fig2.png
https://bioclimatic.github.io/predilection/psych/012180-99999_fig2.png,12180,99999,5,Gs__,100598,19.4,55.7,34,[,3631,0,0,],0,NaN,NaN,NaN,NaN,[,0,0,],27,344,[,69,264,0,11,0,0,0,],0,0,62.233,7.417,17,1992,2020,NO,,TAFJORD,,012180-99999_fig2.png
https://bioclimatic.github.io/predilection/psych/012200-99999_fig2.png,12200,99999,7,Gs__,86716,19.4,61.6,10,[,6585,0,0,],0,NaN,NaN,NaN,NaN,[,0,0,],7,352,[,237,115,0,0,0,0,0,],0,0,62.45,7.767,1294,2012,2019,NO,,MANNEN,,012200-99999_fig2.png
https://bioclimatic.github.io/predilection/psych/012210-99999_fig2.png,12210,99999,6,Gs__,96438,19.4,57.3,11,[,5099,0,0,],0,NaN,NaN,NaN,NaN,[,0,0,],10,362,[,131,225,0,6,0,0,0,],0,0,63.05,9.083,415,2009,2019,NO,,TAGDALEN,,012210-99999_fig2.png
https://bioclimatic.github.io/predilection/psych/012230-99999_fig2.png,12230,99999,5,Gs__,100578,19.4,55.7,32,[,3966,0,0,],1,NaN,29,35,35,[,0,0,],32,363,[,91,262,0,10,0,0,0,],0,0,63.112,7.825,62,1987,2020,NO,,KVERNBERGET,,012230-99999_fig2.png
https://bioclimatic.github.io/predilection/psych/012240-99999_fig2.png,12240,99999,4,Gs__,100726,19.4,55.6,28,[,2557,0,0,],0,0,0,0,0,[,0,0,],19,245,[,48,195,0,2,0,0,0,],0,0,62.467,6.217,50,1997,2019,NO,,AALESUND,,012240-99999_fig2.png
https://bioclimatic.github.io/predilection/psych/012250-99999_fig2.png,12250,99999,3,Gs__,100645,19.4,55.6,14,[,1764,0,0,],0,0,0,0,0,[,0,0,],30,170,[,30,139,0,1,0,0,0,],0,0,63.517,7.95,5,2006,2020,NO,,VEIHOLMEN,,012250-99999_fig2.png
https://bioclimatic.github.io/predilection/psych/012270-99999_fig2.png,12270,99999,4,Gs__,96553,19.4,57.2,25,[,2549,0,0,],0,0,0,0,0,[,0,0,],23,205,[,68,132,0,5,0,0,0,],0,0,62.717,8.783,405,1996,2020,NO,,INNERDALEN,,012270-99999_fig2.png
https://bioclimatic.github.io/predilection/psych/012273-99999_fig2.png,12273,99999,5,Gs__,100156,19.4,55.8,2,[,3919,0,0,],0,NaN,NaN,NaN,NaN,[,0,0,],2,335,[,119,206,0,10,0,0,0,],0,0,62.833,8.3,69,2006,2007,NO,,TINGVOLL-HANEM,,012273-99999_fig2.png
https://bioclimatic.github.io/predilection/psych/012280-99999_fig2.png,12280,99999,5,Gs__,100827,19.4,55.6,28,[,3499,0,0,],0,0,0,0,0,[,0,0,],27,318,[,80,237,0,1,0,0,0,],0,0,63.85,8.467,6,1987,2019,NO,,SULA,,012280-99999_fig2.png
https://bioclimatic.github.io/predilection/psych/012300-99999_fig2.png,12300,99999,3,Gs__,94560,19.4,58,10,[,1685,0,0,],0,0,0,0,0,[,0,0,],32,108,[,44,63,0,1,0,0,0,],0,0,62.267,8.2,579,2011,2020,NO,,BJORLI,,012300-99999_fig2.png
https://bioclimatic.github.io/predilection/psych/012310-99999_fig2.png,12310,99999,4,Gs__,94084,19.4,58.2,14,[,2309,0,0,],0,0,0,0,0,[,0,0,],12,147,[,69,76,0,2,0,0,0,],0,0,62.233,8.367,621,2002,2007,NO,,LESJASKOG,,012310-99999_fig2.png
https://bioclimatic.github.io/predilection/psych/012320-99999_fig2.png,12320,99999,3,Gs__,100021,19.4,55.9,11,[,1329,0,0,],0,0,0,0,0,[,0,0,],31,116,[,26,87,0,3,0,0,0,],0,0,62.45,7.85,67,2011,2020,NO,,VINJEORA II,,012320-99999_fig2.png
https://bioclimatic.github.io/predilection/psych/012330-99999_fig2.png,12330,99999,7,Gs__,93892,19.4,58.3,14,[,5635,0,0,],0,NaN,NaN,NaN,NaN,[,0,0,],14,361,[,166,191,0,4,0,0,0,],0,0,62.083,9.117,638,2007,2020,NO,,DOMBAAS,,012330-99999_fig2.png
https://bioclimatic.github.io/predilection/psych/012340-99999_fig2.png,12340,99999,6,Gs__,101277,19.4,55.4,13,[,4697,0,0,],0,NaN,NaN,NaN,NaN,[,0,0,],13,363,[,155,202,0,6,0,0,0,],0,0,63.317,9.85,4,2007,2020,NO,,ORKDAL-THAMSHAMN,,012340-99999_fig2.png
https://bioclimatic.github.io/predilection/psych/012370-99999_fig2.png,12370,99999,4,Gs__,100544,19.4,55.7,9,[,2209,0,0,],0,0,0,0,0,[,0,0,],14,206,[,48,155,0,3,0,0,0,],0,0,63.517,9.117,13,2013,2020,NO,,HITRA,,012370-99999_fig2.png
https://bioclimatic.github.io/predilection/psych/012380-99999_fig2.png,12380,99999,7,Gs__,89547,19.4,60.2,28,[,6171,0,0,],0,NaN,NaN,NaN,NaN,[,0,0,],28,357,[,187,169,0,1,0,0,0,],0,0,62.117,9.283,974,1987,2020,NO,,FOKSTUA II,,012380-99999_fig2.png
https://bioclimatic.github.io/predilection/psych/012390-99999_fig2.png,12390,99999,7,Gs__,89744,19.4,60.1,10,[,6135,0,0,],0,NaN,NaN,NaN,NaN,[,0,0,],10,355,[,193,161,0,1,0,0,0,],0,0,62.217,9.55,1012,2011,2020,NO,,HJERKINN II,,012390-99999_fig2.png
https://bioclimatic.github.io/predilection/psych/012400-99999_fig2.png,12400,99999,5,Gs__,100450,19.4,55.7,29,[,3857,0,0,],1,NaN,18,25,25,[,0,0,],21,349,[,92,256,0,1,0,0,0,],0,0,64.167,9.4,16,1994,2020,NO,,HALTEN FYR,,012400-99999_fig2.png
https://bioclimatic.github.io/predilection/psych/012410-99999_fig2.png,12410,99999,6,Gs__,101234,19.4,55.4,33,[,4215,0,0,],0,NaN,29,36,38,[,0,0,],33,364,[,111,247,0,6,0,0,0,],0,0,63.699,9.604,8,1987,2020,NO,,ORLAND,,012410-99999_fig2.png
https://bioclimatic.github.io/predilection/psych/012420-99999_fig2.png,12420,99999,6,Gs__,100965,19.4,55.5,12,[,4373,1,1,],0,NaN,26,37,40,[,0,0,],11,358,[,124,223,0,10,1,0,0,],1,0,63.967,10.217,30,2009,2019,NO,,AFJORD II,,012420-99999_fig2.png
https://bioclimatic.github.io/predilection/psych/012450-99999_fig2.png,12450,99999,5,Gs__,93802,19.4,58.3,18,[,3623,0,0,],0,0,0,0,0,[,0,0,],24,258,[,66,186,0,6,0,0,0,],0,0,62.6,9.667,606,2001,2020,NO,,OPPDAL-SETER,,012450-99999_fig2.png
https://bioclimatic.github.io/predilection/psych/012500-99999_fig2.png,12500,99999,7,Gs__,93261,19.4,58.6,7,[,6022,0,0,],0,NaN,NaN,NaN,NaN,[,0,0,],7,352,[,151,200,0,1,0,0,0,],0,0,62.133,10,694,2012,2020,NO,,FOLLDAL-FREDHEIM,,012500-99999_fig2.png
https://bioclimatic.github.io/predilection/psych/012520-99999_fig2.png,12520,99999,5,Gs__,95747,19.4,57.5,17,[,4000,0,0,],0,0,0,0,0,[,0,0,],6,263,[,117,143,0,3,0,0,0,],0,0,62.817,10.017,475,1991,2002,NO,,BERKAK-LYNGHOLT,,012520-99999_fig2.png
https://bioclimatic.github.io/predilection/psych/012530-99999_fig2.png,12530,99999,6,Gs__,97784,19.4,56.7,11,[,4963,0,0,],0,NaN,NaN,NaN,NaN,[,0,0,],11,355,[,158,191,0,6,0,0,0,],0,0,62.95,10.183,299,2010,2020,NO,,SOKNEDAL,,012530-99999_fig2.png
https://bioclimatic.github.io/predilection/psych/012540-99999_fig2.png,12540,99999,6,Gs__,99809,19.4,55.9,11,[,4966,0,0,],0,NaN,NaN,NaN,NaN,[,0,0,],11,357,[,163,185,0,9,0,0,0,],0,0,62.983,10.55,127,2010,2020,NO,,KOTSOY,,012540-99999_fig2.png
https://bioclimatic.github.io/predilection/psych/012570-99999_fig2.png,12570,99999,6,Gs__,99171,19.4,56.2,16,[,4404,1,0,],2,NaN,NaN,39,39,[,0,0,],15,361,[,119,229,0,12,1,0,0,],1,0,63.417,10.45,132,2006,2020,NO,,TRONDHEIM/VOLL,,012570-99999_fig2.png
https://bioclimatic.github.io/predilection/psych/012590-99999_fig2.png,12590,99999,3,Gs__,100429,19.4,55.7,13,[,1735,0,0,],0,0,0,0,0,[,0,0,],23,163,[,23,137,0,3,0,0,0,],0,0,64.4,10.45,18,2006,2020,NO,,BUHOLMRASA LH,,012590-99999_fig2.png
https://bioclimatic.github.io/predilection/psych/012620-99999_fig2.png,12620,99999,5,Gs__,100930,19.4,55.5,18,[,4035,0,0,],0,NaN,NaN,NaN,NaN,[,0,0,],8,356,[,101,253,0,2,0,0,0,],0,0,64.8,10.55,33,1998,2019,NO,,NORDOYAN FYR,,012620-99999_fig2.png
https://bioclimatic.github.io/predilection/psych/012650-99999_fig2.png,12650,99999,4,Gs__,95173,19.4,57.8,17,[,2771,0,0,],0,0,0,0,0,[,0,0,],32,168,[,84,83,0,2,0,0,0,],0,0,62.267,10.733,482,2006,2020,NO,,TYNSET-HANSMOEN,,012650-99999_fig2.png
https://bioclimatic.github.io/predilection/psych/012700-99999_fig2.png,12700,99999,6,Gs__,100845,19.4,55.6,9,[,4269,1,1,],1,NaN,28,36,37,[,0,0,],9,359,[,112,235,0,11,1,0,0,],1,0,63.483,10.883,40,2012,2020,NO,,KVITHAMAR,,012700-99999_fig2.png
https://bioclimatic.github.io/predilection/psych/012710-99999_fig2.png,12710,99999,6,Gs__,101097,19.4,55.5,33,[,4409,1,0,],1,NaN,30,38,38,[,0,0,],33,364,[,115,236,0,12,1,0,0,],0,0,63.458,10.94,17,1987,2020,NO,,VAERNES,,012710-99999_fig2.png
https://bioclimatic.github.io/predilection/psych/012720-99999_fig2.png,12720,99999,6,Gs__,100487,19.4,55.7,9,[,4109,2,1,],4,NaN,29,38,38,[,0,0,],9,358,[,113,230,0,13,2,0,0,],1,1,63.567,10.7,70,2012,2020,NO,,FROSTA,,012720-99999_fig2.png
https://bioclimatic.github.io/predilection/psych/012730-99999_fig2.png,12730,99999,6,Gs__,98903,19.4,56.3,12,[,4757,0,0,],0,NaN,NaN,NaN,NaN,[,0,0,],12,360,[,133,218,0,9,0,0,0,],0,0,63.233,11.017,160,2008,2020,NO,,SELBU,,012730-99999_fig2.png
https://bioclimatic.github.io/predilection/psych/012740-99999_fig2.png,12740,99999,4,Gs__,98451,19.4,56.5,11,[,2533,0,0,],0,0,0,0,0,[,0,0,],10,198,[,69,121,0,8,0,0,0,],0,0,63.2,11.117,242,1999,2005,NO,,SELBU-STUBBE,,012740-99999_fig2.png
https://bioclimatic.github.io/predilection/psych/012770-99999_fig2.png,12770,99999,3,Gs__,100667,19.4,55.6,17,[,2034,0,0,],0,0,0,0,0,[,0,0,],31,163,[,64,93,0,6,0,0,0,],0,0,64.017,11.45,80,2006,2020,NO,,STEINKJER,,012770-99999_fig2.png
https://bioclimatic.github.io/predilection/psych/012780-99999_fig2.png,12780,99999,5,Gs__,99921,19.4,55.9,17,[,3344,1,0,],1,0,7,12,12,[,0,0,],18,273,[,95,163,0,14,1,0,0,],1,1,63.783,11.683,83,1999,2017,NO,,VERDAL-REPPE,,012780-99999_fig2.png
https://bioclimatic.github.io/predilection/psych/012800-99999_fig2.png,12800,99999,4,Gs__,99440,19.4,56.1,6,[,2872,0,0,],0,0,0,0,0,[,0,0,],5,228,[,84,133,0,12,0,0,0,],0,0,64.133,11.333,118,2004,2008,NO,,NAMDALSEID-VENGSTAD,,012800-99999_fig2.png
https://bioclimatic.github.io/predilection/psych/012810-99999_fig2.png,12810,99999,7,Gs__,99231,19.4,56.2,13,[,5219,1,0,],0,NaN,32,40,40,[,0,0,],12,362,[,174,178,0,9,1,0,0,],1,0,64.733,12.85,140,2008,2019,NO,,NAMSSKOGAN,,012810-99999_fig2.png
https://bioclimatic.github.io/predilection/psych/012820-99999_fig2.png,12820,99999,5,Gs__,100797,19.4,55.6,24,[,4054,1,0,],0,NaN,28,36,37,[,0,0,],24,345,[,105,229,0,10,1,0,0,],1,0,64.85,11.233,14,1996,2020,NO,,RORVIK/RYUM,,012820-99999_fig2.png
https://bioclimatic.github.io/predilection/psych/012823-99999_fig2.png,12823,99999,6,Gs__,101157,19.4,55.5,4,[,4302,1,0,],0,NaN,NaN,NaN,NaN,[,0,0,],3,349,[,110,229,0,9,1,0,0,],1,0,64.85,11.233,14,1992,1994,NO,,RORVIK/RYUM,,012823-99999_fig2.png
https://bioclimatic.github.io/predilection/psych/012870-99999_fig2.png,12870,99999,7,Gs__,92667,19.4,58.8,11,[,5987,0,0,],0,NaN,NaN,NaN,NaN,[,0,0,],9,354,[,210,142,0,2,0,0,0,],0,0,62.683,11.817,747,2009,2019,NO,,SOLENDET,,012870-99999_fig2.png
https://bioclimatic.github.io/predilection/psych/012880-99999_fig2.png,12880,99999,7,Gs__,93467,19.4,58.5,33,[,5762,0,0,],0,NaN,NaN,NaN,NaN,[,0,0,],28,339,[,189,146,0,4,0,0,0,],0,0,62.567,11.383,630,1987,2020,NO,,ROROS,,012880-99999_fig2.png
https://bioclimatic.github.io/predilection/psych/012890-99999_fig2.png,12890,99999,7,Gs__,94027,19.4,58.2,13,[,5670,0,0,],0,NaN,NaN,NaN,NaN,[,0,0,],13,350,[,162,177,1,10,0,0,0,],0,0,62.583,11.35,626,1987,2004,NO,,ROROS LUFTHAVN,,012890-99999_fig2.png
https://bioclimatic.github.io/predilection/psych/012900-99999_fig2.png,12900,99999,6,Gs__,100890,19.4,55.5,33,[,4499,1,0,],0,NaN,31,39,39,[,0,0,],33,358,[,134,209,0,14,1,0,0,],1,0,64.467,11.583,2,1987,2020,NO,,NAMSOS AIRPORT,,012900-99999_fig2.png
https://bioclimatic.github.io/predilection/psych/012910-99999_fig2.png,12910,99999,7,Gs__,100189,19.4,55.8,11,[,5137,0,0,],0,NaN,28,38,39,[,0,0,],11,360,[,180,171,0,9,0,0,0,],0,0,64.533,12.383,95,2010,2020,NO,,GARTLAND,,012910-99999_fig2.png
https://bioclimatic.github.io/predilection/psych/012930-99999_fig2.png,12930,99999,6,Gs__,98926,19.4,56.3,15,[,4901,0,0,],0,NaN,NaN,NaN,NaN,[,0,0,],14,362,[,144,207,0,11,0,0,0,],0,0,63.417,11.733,171,2006,2019,NO,,MERAKER-EGGE,,012930-99999_fig2.png
https://bioclimatic.github.io/predilection/psych/013000-99999_fig2.png,13000,99999,5,Gs__,99800,19.4,56,18,[,3533,0,0,],0,NaN,NaN,NaN,NaN,[,0,0,],18,362,[,26,335,0,1,0,0,0,],0,0,61.2,2.267,78,2002,2020,NO,,GULLFAKS C,,013000-99999_fig2.png
https://bioclimatic.github.io/predilection/psych/013040-99999_fig2.png,13040,99999,5,Gs__,100482,19.4,55.7,33,[,3552,0,0,],0,NaN,14,21,21,[,0,0,],29,351,[,69,278,0,4,0,0,0,],0,0,61.567,4.683,25,1989,2020,NO,,YTTEROYANE FYR,,013040-99999_fig2.png
https://bioclimatic.github.io/predilection/psych/013060-99999_fig2.png,13060,99999,3,Gs__,101049,19.4,55.5,6,[,1115,0,0,],0,0,0,0,0,[,0,0,],16,108,[,24,84,0,0,0,0,0,],0,0,60.75,4.717,23,1987,1991,NO,,HELLISOY FYR,,013060-99999_fig2.png
https://bioclimatic.github.io/predilection/psych/013070-99999_fig2.png,13070,99999,5,Gs__,100554,19.4,55.7,15,[,3481,0,0,],0,NaN,NaN,NaN,NaN,[,0,0,],14,355,[,54,297,0,4,0,0,0,],0,0,60.75,4.717,20,2006,2020,NO,,FEDJE,,013070-99999_fig2.png
https://bioclimatic.github.io/predilection/psych/013080-99999_fig2.png,13080,99999,5,Gs__,101241,19.4,55.4,9,[,3701,0,0,],0,NaN,NaN,NaN,NaN,[,0,0,],9,359,[,80,272,0,7,0,0,0,],0,0,61.3,5.05,7,2012,2020,NO,,FURUNESET,,013080-99999_fig2.png
https://bioclimatic.github.io/predilection/psych/013100-99999_fig2.png,13100,99999,5,Gs__,101178,19.4,55.4,34,[,3645,0,0,],0,NaN,NaN,NaN,NaN,[,0,0,],34,361,[,76,276,0,9,0,0,0,],0,0,61.584,5.025,11,1987,2020,NO,,FLORO,,013100-99999_fig2.png
https://bioclimatic.github.io/predilection/psych/013110-99999_fig2.png,13110,99999,5,Gs__,100725,19.4,55.6,33,[,3895,0,0,],0,NaN,NaN,NaN,NaN,[,0,0,],33,364,[,95,261,0,8,0,0,0,],0,0,60.293,5.218,52,1987,2020,NO,,FLESLAND,,013110-99999_fig2.png
https://bioclimatic.github.io/predilection/psych/013140-99999_fig2.png,13140,99999,5,Gs__,101205,19.4,55.4,8,[,3636,0,0,],0,NaN,NaN,NaN,NaN,[,0,0,],8,358,[,74,273,0,11,0,0,0,],0,0,60.517,5.717,10,2013,2020,NO,,FOSSMARK,,013140-99999_fig2.png
https://bioclimatic.github.io/predilection/psych/013150-99999_fig2.png,13150,99999,6,Gs__,101121,19.4,55.5,10,[,4108,0,0,],0,NaN,NaN,NaN,NaN,[,0,0,],9,356,[,130,214,0,12,0,0,0,],0,0,60.633,6.1,17,2011,2020,NO,,EVANGER,,013150-99999_fig2.png
https://bioclimatic.github.io/predilection/psych/013170-99999_fig2.png,13170,99999,5,Gs__,100501,19.4,55.7,34,[,3639,0,0,],1,NaN,NaN,38,38,[,0,0,],34,364,[,79,272,0,13,0,0,0,],0,0,60.383,5.333,36,1987,2020,NO,,BERGEN/FLORIDA,,013170-99999_fig2.png
https://bioclimatic.github.io/predilection/psych/013190-99999_fig2.png,13190,99999,3,Gs__,100869,19.4,55.6,6,[,649,0,0,],0,0,0,0,0,[,0,0,],33,64,[,15,48,0,1,0,0,0,],0,0,61.033,5.383,38,2015,2020,NO,,TAKLE,,013190-99999_fig2.png
https://bioclimatic.github.io/predilection/psych/013200-99999_fig2.png,13200,99999,5,Gs__,100312,19.4,55.8,33,[,3736,0,0,],0,0,0,0,0,[,0,0,],33,346,[,93,239,0,14,0,0,0,],0,0,61.833,6.117,60,1987,2020,NO,,SANDANE/ANDA,,013200-99999_fig2.png
https://bioclimatic.github.io/predilection/psych/013210-99999_fig2.png,13210,99999,4,Gs__,98353,19.4,56.5,14,[,2070,0,0,],0,0,0,0,0,[,0,0,],26,168,[,52,112,0,4,0,0,0,],0,0,61.9,6.55,208,2006,2020,NO,,STRYN,,013210-99999_fig2.png
https://bioclimatic.github.io/predilection/psych/013230-99999_fig2.png,13230,99999,3,Gs__,97222,19.4,56.9,15,[,2024,0,0,],0,0,0,0,0,[,0,0,],33,164,[,57,103,0,4,0,0,0,],0,0,61.393,5.764,327,2005,2020,NO,,BRINGELAND,,013230-99999_fig2.png
https://bioclimatic.github.io/predilection/psych/013250-99999_fig2.png,13250,99999,5,Gs__,99963,19.4,55.9,18,[,3661,0,0,],0,NaN,NaN,NaN,NaN,[,0,0,],1,303,[,110,191,0,2,0,0,0,],0,0,60.833,5.95,114,2000,2000,NO,,MODALEN II,,013250-99999_fig2.png
https://bioclimatic.github.io/predilection/psych/013260-99999_fig2.png,13260,99999,6,Gs__,99832,19.4,55.9,9,[,4322,0,0,],0,NaN,NaN,NaN,NaN,[,0,0,],9,352,[,124,222,0,5,1,0,0,],0,1,60.85,5.983,125,2009,2020,NO,,MODALEN III,,013260-99999_fig2.png
https://bioclimatic.github.io/predilection/psych/013270-99999_fig2.png,13270,99999,6,Gs__,95542,19.4,57.6,14,[,4837,0,0,],0,NaN,NaN,NaN,NaN,[,0,0,],14,361,[,153,203,0,5,0,0,0,],0,0,60.383,5.967,455,2007,2020,NO,,KVAMSKOGEN-JONSHOGDI,,013270-99999_fig2.png
https://bioclimatic.github.io/predilection/psych/013290-99999_fig2.png,13290,99999,5,Gs__,100356,19.4,55.7,15,[,3612,0,0,],1,NaN,26,38,38,[,0,0,],15,361,[,79,264,0,17,1,0,0,],1,0,60.35,6.267,50,2006,2020,NO,,KVAMSOY,,013290-99999_fig2.png
https://bioclimatic.github.io/predilection/psych/013320-99999_fig2.png,13320,99999,6,Gs__,101289,19.4,55.4,10,[,4599,0,0,],0,NaN,NaN,NaN,NaN,[,0,0,],9,361,[,153,203,0,5,0,0,0,],0,0,61.43,6.77,3,2007,2020,NO,,FJAERLAND BREMUSEET,,013320-99999_fig2.png
https://bioclimatic.github.io/predilection/psych/013360-99999_fig2.png,13360,99999,3,Hp__,97446,19.4,56.9,5,[,1047,0,0,],0,0,0,0,0,[,0,0,],20,85,[,10,71,0,4,0,0,0,],0,0,60.65,6.217,328,2015,2020,NO,,BULKEN,,013360-99999_fig2.png
https://bioclimatic.github.io/predilection/psych/013370-99999_fig2.png,13370,99999,6,Gs__,100375,19.4,55.7,12,[,4373,0,0,],0,NaN,NaN,NaN,NaN,[,0,0,],12,362,[,134,215,0,13,0,0,0,],0,0,60.633,6.433,55,2006,2020,NO,,VOSSEVANGEN,,013370-99999_fig2.png
https://bioclimatic.github.io/predilection/psych/013380-99999_fig2.png,13380,99999,5,Gs__,100303,19.4,55.8,16,[,3823,0,0,],0,NaN,NaN,NaN,NaN,[,0,0,],16,362,[,89,261,0,12,0,0,0,],0,0,61.167,6.65,51,2005,2020,NO,,VANGSNES,,013380-99999_fig2.png
https://bioclimatic.github.io/predilection/psych/013400-99999_fig2.png,13400,99999,7,Gs__,92343,19.4,59,14,[,5557,0,0,],0,NaN,NaN,NaN,NaN,[,0,0,],14,361,[,183,176,0,2,0,0,0,],0,0,60.42,7.28,737,2006,2020,NO,,FET I EIDFJORD,,013400-99999_fig2.png
https://bioclimatic.github.io/predilection/psych/013420-99999_fig2.png,13420,99999,3,Gs__,101181,19.4,55.4,10,[,986,0,0,],0,0,0,0,0,[,0,0,],33,97,[,22,71,0,4,0,0,0,],0,0,60.317,6.65,12,2012,2020,NO,,ULLENSVANG,,013420-99999_fig2.png
https://bioclimatic.github.io/predilection/psych/013440-99999_fig2.png,13440,99999,4,Gs__,93250,19.4,58.6,15,[,2320,0,0,],0,0,0,0,0,[,0,0,],29,160,[,67,92,0,1,0,0,0,],0,0,60.7,6.95,695,2007,2020,NO,,MJOLFJELL,,013440-99999_fig2.png
https://bioclimatic.github.io/predilection/psych/013450-99999_fig2.png,13450,99999,3,Gs__,90312,19.4,59.9,7,[,1087,0,0,],0,0,0,0,0,[,0,0,],31,66,[,38,28,0,0,0,0,0,],0,0,60.717,7.217,960,2015,2020,NO,,KLEVAVATNET,,013450-99999_fig2.png
https://bioclimatic.github.io/predilection/psych/013460-99999_fig2.png,13460,99999,7,Gs__,88123,19.4,60.9,8,[,6353,0,0,],0,NaN,NaN,NaN,NaN,[,0,0,],8,355,[,227,127,0,1,0,0,0,],0,0,60.65,7.267,1162,2012,2020,NO,,MIDTSTOVA,,013460-99999_fig2.png
https://bioclimatic.github.io/predilection/psych/013470-99999_fig2.png,13470,99999,6,Gs__,95098,19.4,57.8,34,[,4850,0,0,],0,NaN,NaN,NaN,NaN,[,0,0,],34,357,[,136,212,0,9,0,0,0,],0,0,61.156,7.137,511,1987,2020,NO,,SOGNDAL HAUKASEN,,013470-99999_fig2.png
https://bioclimatic.github.io/predilection/psych/013500-99999_fig2.png,13500,99999,7,Gs__,87010,19.4,61.5,15,[,6639,0,0,],0,NaN,NaN,NaN,NaN,[,0,0,],15,349,[,246,103,0,0,0,0,0,],0,0,60.6,7.533,1208,2006,2020,NO,,FINSEVATN,,013500-99999_fig2.png
https://bioclimatic.github.io/predilection/psych/013520-99999_fig2.png,13520,99999,7,Gs__,87183,19.4,61.4,11,[,5199,0,0,],0,0,0,0,0,[,0,0,],11,269,[,177,92,0,0,0,0,0,],0,0,60.183,7.483,1250,2009,2020,NO,,SANDHAUG,,013520-99999_fig2.png
https://bioclimatic.github.io/predilection/psych/013550-99999_fig2.png,13550,99999,4,Gs__,100862,19.4,55.6,13,[,2215,0,0,],0,0,0,0,0,[,0,0,],18,195,[,44,144,0,7,0,0,0,],0,0,61.1,7.5,5,2009,2020,NO,,LAERDAL IV,,013550-99999_fig2.png
https://bioclimatic.github.io/predilection/psych/013570-99999_fig2.png,13570,99999,3,Gs__,91523,19.4,59.3,8,[,1192,0,0,],0,0,0,0,0,[,0,0,],32,78,[,32,45,0,1,0,0,0,],0,0,60.867,8.517,804,2014,2020,NO,,HOLLEKOLTEN,,013570-99999_fig2.png
https://bioclimatic.github.io/predilection/psych/013580-99999_fig2.png,13580,99999,7,Gs__,93764,19.4,58.4,9,[,5506,0,0,],0,NaN,NaN,NaN,NaN,[,0,0,],9,359,[,154,201,0,4,0,0,0,],0,0,60.85,8.6,604,2012,2020,NO,,HEMSEDAL II,,013580-99999_fig2.png
https://bioclimatic.github.io/predilection/psych/013590-99999_fig2.png,13590,99999,4,Gs__,91925,19.4,59.2,15,[,2454,0,0,],0,0,0,0,0,[,0,0,],33,153,[,69,83,0,1,0,0,0,],0,0,60.533,8.2,773,2007,2020,NO,,GEILO-OLDEBRATEN,,013590-99999_fig2.png
https://bioclimatic.github.io/predilection/psych/013600-99999_fig2.png,13600,99999,7,Gs__,93600,19.4,58.4,22,[,5356,0,0,],0,0,0,0,0,[,0,0,],18,329,[,162,165,0,2,0,0,0,],0,0,61.9,7.9,664,1994,2019,NO,,BRATA-SLETTOM,,013600-99999_fig2.png
https://bioclimatic.github.io/predilection/psych/013610-99999_fig2.png,13610,99999,4,Gs__,90712,19.4,59.7,12,[,2326,0,0,],0,0,0,0,0,[,0,0,],32,131,[,72,59,0,0,0,0,0,],0,0,62.017,7.667,872,2009,2020,NO,,GROTLI III,,013610-99999_fig2.png
https://bioclimatic.github.io/predilection/psych/013620-99999_fig2.png,13620,99999,7,Gs__,79801,19.4,65.3,7,[,7019,0,0,],0,0,0,0,0,[,0,0,],7,324,[,217,107,0,0,0,0,0,],0,0,61.667,8.367,1894,2012,2020,NO,,JUVVASSHOE,,013620-99999_fig2.png
https://bioclimatic.github.io/predilection/psych/013640-99999_fig2.png,13640,99999,6,Gs__,89838,19.4,60.1,27,[,4594,0,0,],0,0,0,0,0,[,0,0,],21,263,[,140,123,0,0,0,0,0,],0,0,61.183,8.117,955,1993,2020,NO,,FILEFJELL,,013640-99999_fig2.png
https://bioclimatic.github.io/predilection/psych/013650-99999_fig2.png,13650,99999,3,Gs__,90257,19.4,59.9,10,[,1821,0,0,],0,0,0,0,0,[,0,0,],32,110,[,52,58,0,0,0,0,0,],0,0,61.251,8.917,965,2011,2020,NO,,BEITOSTOLEN II,,013650-99999_fig2.png
https://bioclimatic.github.io/predilection/psych/013660-99999_fig2.png,13660,99999,6,Gs__,84839,19.4,62.6,20,[,4099,0,0,],0,0,0,0,0,[,0,0,],27,205,[,135,70,0,0,0,0,0,],0,0,61.567,8,1413,1987,2020,NO,,SOGNEFJELL,,013660-99999_fig2.png
https://bioclimatic.github.io/predilection/psych/013670-99999_fig2.png,13670,99999,7,Gs__,96574,19.4,57.2,32,[,5311,0,0,],0,NaN,NaN,NaN,NaN,[,0,0,],32,361,[,145,207,0,9,0,0,0,],0,0,60.983,9.217,365,1987,2020,NO,,FAGERNES,,013670-99999_fig2.png
https://bioclimatic.github.io/predilection/psych/013680-99999_fig2.png,13680,99999,7,Gs__,91423,19.4,59.4,31,[,5335,0,0,],0,NaN,NaN,NaN,NaN,[,0,0,],26,333,[,139,187,1,6,0,0,0,],0,0,61.016,9.288,822,1990,2019,NO,,LEIRIN,,013680-99999_fig2.png
https://bioclimatic.github.io/predilection/psych/013700-99999_fig2.png,13700,99999,3,Gs__,90068,19.4,60,10,[,1890,0,0,],0,0,0,0,0,[,0,0,],29,112,[,55,56,0,1,0,0,0,],0,0,61.517,9.4,928,2012,2020,NO,,SKABU,,013700-99999_fig2.png
https://bioclimatic.github.io/predilection/psych/013710-99999_fig2.png,13710,99999,3,Gs__,95221,19.4,57.7,10,[,1461,0,0,],0,0,0,0,0,[,0,0,],33,98,[,42,54,0,2,0,0,0,],0,0,61.117,9.067,521,2012,2020,NO,,LOKEN I VOLBU,,013710-99999_fig2.png
https://bioclimatic.github.io/predilection/psych/013720-99999_fig2.png,13720,99999,5,Gs__,99158,19.4,56.2,15,[,3431,2,0,],1,0,10,13,13,[,0,0,],8,275,[,94,153,0,26,2,0,0,],2,0,60.567,9.133,167,1989,2002,NO,,NESBYEN-SKOGLUND,,013720-99999_fig2.png
https://bioclimatic.github.io/predilection/psych/013730-99999_fig2.png,13730,99999,4,Gs__,98963,19.4,56.3,15,[,2310,0,0,],0,0,0,0,0,[,0,0,],32,164,[,66,91,0,7,0,0,0,],0,0,60.567,9.133,166,2005,2020,NO,,NESBYEN-TODOKK,,013730-99999_fig2.png
https://bioclimatic.github.io/predilection/psych/013740-99999_fig2.png,13740,99999,6,Gs__,94981,19.4,57.8,27,[,4693,0,0,],0,0,0,0,0,[,0,0,],16,327,[,134,182,0,11,0,0,0,],0,0,60.933,10.033,542,1999,2020,NO,,VEST-TORPA II,,013740-99999_fig2.png
https://bioclimatic.github.io/predilection/psych/013750-99999_fig2.png,13750,99999,4,Gs__,89370,19.4,60.3,17,[,2893,0,0,],0,0,0,0,0,[,0,0,],32,164,[,95,68,0,1,0,0,0,],0,0,61.467,10.133,1028,2006,2020,NO,,KVITFJELL,,013750-99999_fig2.png
https://bioclimatic.github.io/predilection/psych/013755-99999_fig2.png,13755,99999,5,Gs__,101200,19.4,55.4,30,[,3623,0,0,],0,NaN,NaN,NaN,NaN,[,0,0,],30,364,[,29,334,0,1,0,0,0,],0,0,61.033,2.033,10,1990,2020,NO,,GULLFAX (PLATFORM),,013755-99999_fig2.png
https://bioclimatic.github.io/predilection/psych/013760-99999_fig2.png,13760,99999,3,Gs__,99631,19.4,56,10,[,1588,0,0,],0,0,0,0,0,[,0,0,],32,123,[,44,73,0,6,0,0,0,],0,0,60.383,9.6,142,2009,2020,NO,,GULSVIK II,,013760-99999_fig2.png
https://bioclimatic.github.io/predilection/psych/013780-99999_fig2.png,13780,99999,5,Gs__,98004,19.4,56.6,27,[,3799,0,0,],0,0,0,0,0,[,0,0,],31,277,[,116,150,0,11,0,0,0,],0,0,61.1,10.467,239,1987,2020,NO,,LILLEHAMMER-SAETHERENGEN,,013780-99999_fig2.png
https://bioclimatic.github.io/predilection/psych/013800-99999_fig2.png,13800,99999,7,Gs__,90640,19.4,59.7,21,[,5172,0,0,],0,0,0,0,0,[,0,0,],15,292,[,162,129,0,1,0,0,0,],0,0,61.65,10.117,930,2007,2020,NO,,VENABU,,013800-99999_fig2.png
https://bioclimatic.github.io/predilection/psych/013810-99999_fig2.png,13810,99999,6,Gs__,98194,19.4,56.6,9,[,4579,0,0,],0,NaN,NaN,NaN,NaN,[,0,0,],9,358,[,137,204,0,17,0,0,0,],0,0,60.7,10.867,264,2012,2020,NO,,APELSVOLL,,013810-99999_fig2.png
https://bioclimatic.github.io/predilection/psych/013820-99999_fig2.png,13820,99999,3,Gs__,99797,19.4,56,9,[,1232,0,0,],0,0,0,0,0,[,0,0,],32,97,[,37,56,0,4,0,0,0,],0,0,60.767,10.8,128,2012,2020,NO,,KISE,,013820-99999_fig2.png
https://bioclimatic.github.io/predilection/psych/013830-99999_fig2.png,13830,99999,4,Gs__,97854,19.4,56.7,9,[,2612,0,0,],0,0,0,0,0,[,0,0,],24,175,[,65,104,0,6,0,0,0,],0,0,61.4,11.08,255,2006,2020,NO,,EVENSTAD-DIH,,013830-99999_fig2.png
https://bioclimatic.github.io/predilection/psych/013840-99999_fig2.png,13840,99999,6,Gs__,98900,19.4,56.3,32,[,4747,0,0,],0,NaN,NaN,NaN,NaN,[,0,0,],32,363,[,143,203,0,17,0,0,0,],0,0,60.194,11.1,208,1987,2020,NO,,GARDERMOEN,,013840-99999_fig2.png
https://bioclimatic.github.io/predilection/psych/013850-99999_fig2.png,13850,99999,6,Gs__,98291,19.4,56.5,12,[,4701,0,0,],0,NaN,NaN,NaN,NaN,[,0,0,],12,361,[,143,201,0,17,0,0,0,],0,0,60.817,11.067,222,2007,2020,NO,,HAMER,,013850-99999_fig2.png
https://bioclimatic.github.io/predilection/psych/013860-99999_fig2.png,13860,99999,6,Gs__,99749,19.4,56,11,[,4595,0,0,],0,NaN,NaN,NaN,NaN,[,0,0,],11,359,[,140,200,0,19,0,0,0,],0,0,60.8,11.1,132,2010,2020,NO,,HAMAR II,,013860-99999_fig2.png
https://bioclimatic.github.io/predilection/psych/013870-99999_fig2.png,13870,99999,7,Gs__,98945,19.4,56.3,9,[,5139,0,0,],0,NaN,NaN,NaN,NaN,[,0,0,],9,358,[,157,190,0,11,0,0,0,],0,0,61.45,10.183,200,2012,2020,NO,,FAVANG,,013870-99999_fig2.png
https://bioclimatic.github.io/predilection/psych/013890-99999_fig2.png,13890,99999,7,Gs__,97963,19.4,56.7,25,[,5274,0,0,],0,0,0,0,0,[,0,0,],26,342,[,165,171,0,6,0,0,0,],0,0,61.183,11.367,256,1988,2020,NO,,RENA AP,,013890-99999_fig2.png
https://bioclimatic.github.io/predilection/psych/013920-99999_fig2.png,13920,99999,6,Gs__,98751,19.4,56.3,12,[,4674,0,0,],0,NaN,NaN,NaN,NaN,[,0,0,],12,360,[,143,198,0,19,0,0,0,],0,0,60.617,12.017,185,2006,2020,NO,,FLISA II,,013920-99999_fig2.png
https://bioclimatic.github.io/predilection/psych/013930-99999_fig2.png,13930,99999,5,Gs__,92943,19.4,58.7,18,[,3373,0,0,],0,0,0,0,0,[,0,0,],31,200,[,104,94,0,2,0,0,0,],0,0,61.883,12.033,674,2003,2020,NO,,DREVSJO,,013930-99999_fig2.png
https://bioclimatic.github.io/predilection/psych/013970-99999_fig2.png,13970,99999,4,Gs__,96651,19.4,57.2,18,[,2680,0,0,],0,0,0,0,0,[,0,0,],31,176,[,83,87,0,5,0,0,0,],0,0,61.3,12.267,361,2006,2020,NO,,TRYSIL VEGSTASJON,,013970-99999_fig2.png
https://bioclimatic.github.io/predilection/psych/014000-99999_fig2.png,14000,99999,5,Gs__,100408,19.4,55.7,21,[,3120,0,0,],1,NaN,17,24,24,[,0,0,],20,361,[,29,329,0,3,0,0,0,],0,0,56.55,3.217,49,1999,2019,NO,,EKOFISK,,014000-99999_fig2.png
https://bioclimatic.github.io/predilection/psych/014030-99999_fig2.png,14030,99999,5,Gs__,100273,19.4,55.8,32,[,3590,0,0,],0,NaN,18,22,23,[,0,0,],32,360,[,75,280,0,5,0,0,0,],0,0,59.3,4.867,56,1987,2020,NO,,UTSIRA FYR,,014030-99999_fig2.png
https://bioclimatic.github.io/predilection/psych/014033-99999_fig2.png,14033,99999,5,Gs__,101290,19.4,55.4,34,[,3209,0,0,],1,13,14,19,21,[,0,0,],33,363,[,33,327,0,3,0,0,0,],0,0,56.55,3.25,49,1987,2020,NO,,EKOFISK OIL PLTFRM,,014033-99999_fig2.png
https://bioclimatic.github.io/predilection/psych/014060-99999_fig2.png,14060,99999,5,Gs__,100695,19.4,55.6,30,[,3442,0,0,],0,NaN,NaN,NaN,NaN,[,0,0,],29,354,[,68,280,0,6,0,0,0,],0,0,59.917,5.067,16,1987,2020,NO,,SLATTEROY FYR,,014060-99999_fig2.png
https://bioclimatic.github.io/predilection/psych/014080-99999_fig2.png,14080,99999,5,Gs__,101010,19.4,55.5,32,[,3662,0,0,],0,NaN,18,24,24,[,0,0,],32,363,[,78,276,0,9,0,0,0,],0,0,59.345,5.208,26,1987,2020,NO,,KARMOY,,014080-99999_fig2.png
https://bioclimatic.github.io/predilection/psych/014110-99999_fig2.png,14110,99999,5,Gs__,100762,19.4,55.6,11,[,3444,0,0,],0,NaN,NaN,NaN,NaN,[,0,0,],10,362,[,62,293,0,7,0,0,0,],0,0,59.067,5.417,22,2006,2019,NO,,KVITSOY - NORDBO,,014110-99999_fig2.png
https://bioclimatic.github.io/predilection/psych/014120-99999_fig2.png,14120,99999,3,Gs__,100724,19.4,55.6,14,[,1987,0,0,],0,0,0,0,0,[,0,0,],22,198,[,32,163,0,3,0,0,0,],0,0,58.65,5.567,26,1989,2020,NO,,OBRESTAD,,014120-99999_fig2.png
https://bioclimatic.github.io/predilection/psych/014130-99999_fig2.png,14130,99999,5,Gs__,100284,19.4,55.8,8,[,3616,0,0,],0,NaN,NaN,NaN,NaN,[,0,0,],8,359,[,80,269,0,10,0,0,0,],0,0,58.75,5.65,87,2012,2020,NO,,SAERHEIM,,014130-99999_fig2.png
https://bioclimatic.github.io/predilection/psych/014140-99999_fig2.png,14140,99999,3,Hp__,101025,19.4,55.5,0,[,1030,0,0,],0,0,0,0,0,[,0,0,],21,109,[,0,107,0,1,1,0,0,],0,1,59.433,5.067,25,2012,2020,NO,,ROVER,,014140-99999_fig2.png
https://bioclimatic.github.io/predilection/psych/014150-99999_fig2.png,14150,99999,5,Gs__,101212,19.4,55.4,30,[,3625,0,0,],0,NaN,21,29,29,[,0,0,],30,364,[,78,274,0,12,0,0,0,],0,0,58.877,5.638,9,1987,2020,NO,,SOLA,,014150-99999_fig2.png
https://bioclimatic.github.io/predilection/psych/014160-99999_fig2.png,14160,99999,5,Gs__,100463,19.4,55.7,8,[,3553,0,0,],0,NaN,NaN,NaN,NaN,[,0,0,],8,361,[,72,277,0,12,0,0,0,],0,0,58.95,5.733,72,2009,2020,NO,,STAVANGER VAALAND,,014160-99999_fig2.png
https://bioclimatic.github.io/predilection/psych/014170-99999_fig2.png,14170,99999,3,Gs__,100547,19.4,55.7,7,[,1233,0,0,],0,0,0,0,0,[,0,0,],22,120,[,24,92,0,4,0,0,0,],0,0,59.483,5.75,65,2013,2020,NO,,NEDRE VATS,,014170-99999_fig2.png
https://bioclimatic.github.io/predilection/psych/014180-99999_fig2.png,14180,99999,3,Hp__,100941,19.4,55.5,0,[,980,0,0,],0,0,0,0,0,[,0,0,],20,102,[,0,100,0,1,1,0,0,],0,1,60.017,5.2,32,2013,2020,NO,,AUSTEVOLL,,014180-99999_fig2.png
https://bioclimatic.github.io/predilection/psych/014190-99999_fig2.png,14190,99999,6,Gs__,97773,19.4,56.7,9,[,4140,0,0,],0,NaN,NaN,NaN,NaN,[,0,0,],9,359,[,109,243,0,7,0,0,0,],0,0,59.05,6.117,300,2011,2020,NO,,LIARVATN,,014190-99999_fig2.png
https://bioclimatic.github.io/predilection/psych/014220-99999_fig2.png,14220,99999,5,Gs__,101025,19.4,55.5,14,[,3222,0,0,],0,0,0,0,0,[,0,0,],13,334,[,55,268,0,11,0,0,0,],1,0,59.167,6.033,25,2008,2020,NO,,FISTER SIGMUNDSTAD,,014220-99999_fig2.png
https://bioclimatic.github.io/predilection/psych/014240-99999_fig2.png,14240,99999,5,Gs__,100988,19.4,55.5,31,[,3773,0,0,],0,NaN,NaN,NaN,NaN,[,0,0,],19,337,[,104,220,0,13,0,0,0,],0,0,59.65,6.367,6,1991,2020,NO,,SAUDA,,014240-99999_fig2.png
https://bioclimatic.github.io/predilection/psych/014250-99999_fig2.png,14250,99999,5,Gs__,100260,19.4,55.8,21,[,3674,0,0,],0,0,6,9,9,[,0,0,],21,328,[,111,208,0,9,0,0,0,],0,0,58.517,6.517,66,1999,2020,NO,,EIK HOVE,,014250-99999_fig2.png
https://bioclimatic.github.io/predilection/psych/014260-99999_fig2.png,14260,99999,4,Hp__,100738,19.4,55.6,0,[,2333,0,0,],0,0,0,0,0,[,0,0,],5,240,[,0,236,0,2,2,0,0,],0,2,58.433,5.867,49,2011,2020,NO,,EIGEROYA,,014260-99999_fig2.png
https://bioclimatic.github.io/predilection/psych/014270-99999_fig2.png,14270,99999,5,Gs__,100902,19.4,55.5,31,[,3586,0,0,],0,NaN,16,19,19,[,0,0,],31,358,[,83,266,0,9,0,0,0,],0,0,58.117,6.567,14,1987,2019,NO,,LISTA FYR,,014270-99999_fig2.png
https://bioclimatic.github.io/predilection/psych/014281-99999_fig2.png,14281,99999,4,Gs__,100201,19.4,55.8,7,[,2977,0,0,],2,NaN,16,23,23,[,0,0,],7,360,[,15,343,0,2,0,0,0,],0,0,59.111,2.846,94,2014,2020,NO,,ULA OIL PLATFORM,,014281-99999_fig2.png
https://bioclimatic.github.io/predilection/psych/014300-99999_fig2.png,14300,99999,3,Gs__,99678,19.4,56,12,[,1186,0,0,],0,0,0,0,0,[,0,0,],33,119,[,29,86,0,4,0,0,0,],0,0,58.017,7.45,138,2010,2020,NO,,MANDAL II,,014300-99999_fig2.png
https://bioclimatic.github.io/predilection/psych/014310-99999_fig2.png,14310,99999,6,Gs__,94466,19.4,58.1,12,[,5091,0,0,],0,NaN,NaN,NaN,NaN,[,0,0,],12,359,[,171,186,0,2,0,0,0,],0,0,58.933,6.917,557,2008,2020,NO,,SIRDAL-SINNES,,014310-99999_fig2.png
https://bioclimatic.github.io/predilection/psych/014330-99999_fig2.png,14330,99999,5,Gs__,88645,19.4,60.7,14,[,3234,0,0,],0,0,0,0,0,[,0,0,],18,193,[,99,94,0,0,0,0,0,],0,0,59.833,6.983,1081,2002,2014,NO,,MIDTLAEGER,,014330-99999_fig2.png
https://bioclimatic.github.io/predilection/psych/014340-99999_fig2.png,14340,99999,7,Gs__,91396,19.4,59.4,15,[,5779,0,0,],0,NaN,NaN,NaN,NaN,[,0,0,],14,355,[,176,179,0,0,0,0,0,],0,0,59.767,7.367,822,2006,2020,NO,,VAAGSLI,,014340-99999_fig2.png
https://bioclimatic.github.io/predilection/psych/014350-99999_fig2.png,14350,99999,3,Gs__,89513,19.4,60.2,4,[,1184,0,0,],0,0,0,0,0,[,0,0,],26,71,[,15,56,0,0,0,0,0,],0,0,59.817,7.217,990,1995,2020,NO,,HAUKELISETER TESTFELT,,014350-99999_fig2.png
https://bioclimatic.github.io/predilection/psych/014360-99999_fig2.png,14360,99999,4,Gs__,101169,19.4,55.4,24,[,2578,0,0,],0,0,0,0,0,[,0,0,],27,271,[,56,207,0,8,0,0,0,],0,0,57.983,7.05,13,1999,2020,NO,,LINDESNES FYR,,014360-99999_fig2.png
https://bioclimatic.github.io/predilection/psych/014400-99999_fig2.png,14400,99999,3,Gs__,88309,19.4,60.8,6,[,1578,0,0,],0,0,0,0,0,[,0,0,],28,90,[,40,50,0,0,0,0,0,],0,0,59.333,6.867,1105,2012,2020,NO,,BLASJO,,014400-99999_fig2.png
https://bioclimatic.github.io/predilection/psych/014410-99999_fig2.png,14410,99999,4,Gs__,91224,19.4,59.5,16,[,2807,0,0,],0,0,0,0,0,[,0,0,],32,168,[,94,74,0,0,0,0,0,],0,0,59.583,7.383,836,2005,2020,NO,,HOVDEN-LUNDANE,,014410-99999_fig2.png
https://bioclimatic.github.io/predilection/psych/014420-99999_fig2.png,14420,99999,6,Gs__,98517,19.4,56.4,31,[,4120,0,0,],0,NaN,NaN,NaN,NaN,[,0,0,],31,357,[,117,223,0,17,0,0,0,],0,0,58.667,7.8,211,1987,2020,NO,,BYGLANDSFJORD,,014420-99999_fig2.png
https://bioclimatic.github.io/predilection/psych/014440-99999_fig2.png,14440,99999,6,Gs__,97749,19.4,56.7,8,[,4611,0,0,],0,NaN,NaN,NaN,NaN,[,0,0,],8,362,[,137,216,0,9,0,0,0,],0,0,59.2,7.517,302,2012,2020,NO,,VALLE,,014440-99999_fig2.png
https://bioclimatic.github.io/predilection/psych/014470-99999_fig2.png,14470,99999,7,Gs__,94376,19.4,58.1,11,[,5437,0,0,],0,NaN,NaN,NaN,NaN,[,0,0,],11,362,[,169,189,0,4,0,0,0,],0,0,59.5,8.2,562,2007,2020,NO,,HOYDALSMO II,,014470-99999_fig2.png
https://bioclimatic.github.io/predilection/psych/014480-99999_fig2.png,14480,99999,5,Gs__,100998,19.4,55.5,32,[,3564,0,0,],1,14,18,24,25,[,0,0,],32,359,[,92,255,0,12,0,0,0,],0,0,58.067,8.05,8,1987,2020,NO,,OKSOY FYR,,014480-99999_fig2.png
https://bioclimatic.github.io/predilection/psych/014490-99999_fig2.png,14490,99999,6,Gs__,100941,19.4,55.5,8,[,4153,0,0,],0,NaN,NaN,NaN,NaN,[,0,0,],8,360,[,132,208,0,20,0,0,0,],0,0,58.867,9.033,32,2013,2020,NO,,GJERSTAD,,014490-99999_fig2.png
https://bioclimatic.github.io/predilection/psych/014500-99999_fig2.png,14500,99999,4,Gs__,89644,19.4,60.2,16,[,2790,0,0,],0,0,0,0,0,[,0,0,],28,168,[,90,78,0,0,0,0,0,],0,0,59.833,8.183,977,2007,2020,NO,,MOSSTRAND II,,014500-99999_fig2.png
https://bioclimatic.github.io/predilection/psych/014520-99999_fig2.png,14520,99999,5,Gs__,101116,19.4,55.5,33,[,3796,0,0,],1,NaN,NaN,28,28,[,0,0,],33,364,[,104,241,0,19,0,0,0,],0,0,58.204,8.085,17,1987,2020,NO,,KJEVIK,,014520-99999_fig2.png
https://bioclimatic.github.io/predilection/psych/014530-99999_fig2.png,14530,99999,6,Gs__,99394,19.4,56.1,5,[,4310,0,0,],0,NaN,NaN,NaN,NaN,[,0,0,],5,360,[,133,214,0,13,0,0,0,],0,0,58.6,8.417,162,2013,2020,NO,,HYNNEKLEIV,,014530-99999_fig2.png
https://bioclimatic.github.io/predilection/psych/014550-99999_fig2.png,14550,99999,6,Gs__,97969,19.4,56.6,28,[,4280,0,0,],0,NaN,NaN,NaN,NaN,[,0,0,],23,351,[,129,211,0,11,0,0,0,],0,0,59.033,8.517,252,1990,2020,NO,,TVEITSUND,,014550-99999_fig2.png
https://bioclimatic.github.io/predilection/psych/014600-99999_fig2.png,14600,99999,5,____,101157,19.4,55.5,0,[,3460,1,NaN,],NaN,NaN,NaN,NaN,NaN,[,NaN,NaN,],7,349,[,NaN,326,NaN,9,14,NaN,NaN,],1,16,59.433,10.583,14,2014,2020,NO,,GULLHOLMEN,,014600-99999_fig2.png
https://bioclimatic.github.io/predilection/psych/014620-99999_fig2.png,14620,99999,5,Gs__,100248,19.4,55.8,7,[,3792,0,0,],0,NaN,NaN,NaN,NaN,[,0,0,],7,359,[,116,223,0,19,1,0,0,],1,0,59.083,9.667,90,2014,2020,NO,,PORSGRUNN,,014620-99999_fig2.png
https://bioclimatic.github.io/predilection/psych/014630-99999_fig2.png,14630,99999,6,Gs__,100260,19.4,55.8,7,[,4102,0,0,],0,NaN,NaN,NaN,NaN,[,0,0,],7,356,[,128,211,0,18,0,0,0,],0,0,59.65,10.767,89,2012,2020,NO,,AS,,014630-99999_fig2.png
https://bioclimatic.github.io/predilection/psych/014640-99999_fig2.png,14640,99999,5,Gs__,101253,19.4,55.4,8,[,3593,0,0,],0,NaN,NaN,NaN,NaN,[,0,0,],8,359,[,99,241,0,19,0,0,0,],0,0,58.333,8.517,6,2012,2020,NO,,LANDVIK,,014640-99999_fig2.png
https://bioclimatic.github.io/predilection/psych/014650-99999_fig2.png,14650,99999,5,Gs__,101214,19.4,55.4,32,[,3611,0,1,],2,10,14,20,22,[,0,0,],31,361,[,100,247,0,13,1,0,0,],0,1,58.4,8.783,15,1987,2018,NO,,TORUNGEN FYR,,014650-99999_fig2.png
https://bioclimatic.github.io/predilection/psych/014660-99999_fig2.png,14660,99999,6,Gs__,99756,19.4,56,9,[,4334,0,0,],0,NaN,NaN,NaN,NaN,[,0,0,],8,360,[,142,199,0,18,1,0,0,],1,0,59.967,11.033,109,2012,2019,NO,,KJELLER AP,,014660-99999_fig2.png
https://bioclimatic.github.io/predilection/psych/014670-99999_fig2.png,14670,99999,5,Gs__,100994,19.4,55.5,31,[,3564,0,0,],2,14,19,23,23,[,0,0,],26,357,[,89,249,0,18,1,0,0,],0,1,58.633,9.15,5,1990,2020,NO,,LYNGOR FYR,,014670-99999_fig2.png
https://bioclimatic.github.io/predilection/psych/014680-99999_fig2.png,14680,99999,6,Gs__,99560,19.4,56,13,[,4622,0,0,],0,NaN,NaN,NaN,NaN,[,0,0,],12,358,[,149,192,0,17,0,0,0,],0,0,60.183,12,148,2007,2019,NO,,KONGSVINGER,,014680-99999_fig2.png
https://bioclimatic.github.io/predilection/psych/014690-99999_fig2.png,14690,99999,6,Gs__,99291,19.4,56.1,13,[,4423,0,0,],0,NaN,NaN,NaN,NaN,[,0,0,],13,363,[,133,207,0,22,1,0,0,],1,0,60.167,10.25,140,2006,2020,NO,,HONEFOSS-HOYBY,,014690-99999_fig2.png
https://bioclimatic.github.io/predilection/psych/014700-99999_fig2.png,14700,99999,3,Gs__,99872,19.4,55.9,15,[,1785,0,0,],0,0,0,0,0,[,0,0,],26,153,[,49,96,0,8,0,0,0,],0,0,59.383,9.2,93,2006,2020,NO,,GVARV,,014700-99999_fig2.png
https://bioclimatic.github.io/predilection/psych/014703-99999_fig2.png,14703,99999,5,Gs__,101095,19.4,55.5,20,[,3414,14,0,],6,NaN,33,37,39,[,0,0,],10,321,[,104,171,0,39,6,1,0,],9,0,59.566,9.212,19,2006,2019,NO,,NOTODDEN,,014703-99999_fig2.png
https://bioclimatic.github.io/predilection/psych/014710-99999_fig2.png,14710,99999,6,Gs__,97895,19.4,56.7,14,[,4731,0,0,],0,NaN,NaN,NaN,NaN,[,0,0,],14,359,[,132,215,0,12,0,0,0,],0,0,60.05,9.15,275,2007,2020,NO,,VEGGLI II,,014710-99999_fig2.png
https://bioclimatic.github.io/predilection/psych/014730-99999_fig2.png,14730,99999,6,Gs__,98912,19.4,56.3,14,[,4528,0,0,],0,NaN,NaN,NaN,NaN,[,0,0,],14,362,[,132,211,0,19,0,0,0,],0,0,59.617,9.633,173,2005,2020,NO,,KONGSBERG BRANNSTASJON,,014730-99999_fig2.png
https://bioclimatic.github.io/predilection/psych/014740-99999_fig2.png,14740,99999,5,Gs__,97582,19.4,56.8,14,[,3798,0,0,],0,0,0,0,0,[,0,0,],12,293,[,108,163,0,21,1,0,0,],1,0,59.9,9.533,294,1994,2004,NO,,LYNGDAL I NUMEDAL,,014740-99999_fig2.png
https://bioclimatic.github.io/predilection/psych/014750-99999_fig2.png,14750,99999,5,Gs__,99643,19.4,56,17,[,3672,2,4,],4,17,26,29,32,[,0,0,],11,331,[,115,186,0,28,2,0,0,],1,1,59.183,9.567,141,1991,2002,NO,,SKIEN-GEITERYGGEN,,014750-99999_fig2.png
https://bioclimatic.github.io/predilection/psych/014760-99999_fig2.png,14760,99999,3,Gs__,101003,19.4,55.5,16,[,1843,0,0,],1,0,2,2,2,[,0,0,],27,184,[,49,125,0,10,0,0,0,],0,0,58.85,9.55,5,2003,2019,NO,,JOMFRULAND FYR,,014760-99999_fig2.png
https://bioclimatic.github.io/predilection/psych/014770-99999_fig2.png,14770,99999,5,Gs__,99030,19.4,56.2,25,[,3527,0,0,],0,0,0,0,0,[,0,0,],30,283,[,97,171,0,15,0,0,0,],0,0,59.717,10.15,193,1987,2020,NO,,KONNERUD,,014770-99999_fig2.png
https://bioclimatic.github.io/predilection/psych/014780-99999_fig2.png,14780,99999,3,Hp__,101145,19.4,55.5,3,[,1252,0,0,],0,0,0,0,0,[,0,0,],19,130,[,0,123,0,4,3,0,0,],0,3,58.967,10.15,15,2010,2020,NO,,SVENNER LH,,014780-99999_fig2.png
https://bioclimatic.github.io/predilection/psych/014800-99999_fig2.png,14800,99999,6,Gs__,101229,19.4,55.4,15,[,4162,0,0,],0,NaN,NaN,NaN,NaN,[,0,0,],15,359,[,126,206,0,26,1,0,0,],1,0,59.75,10.133,8,2006,2020,NO,,DRAMMEN BERSKOG,,014800-99999_fig2.png
https://bioclimatic.github.io/predilection/psych/014810-99999_fig2.png,14810,99999,3,Gs__,100719,19.4,55.6,15,[,1839,0,0,],1,0,0,2,2,[,0,0,],31,167,[,52,105,0,9,1,0,0,],0,1,59.233,10.35,26,2006,2020,NO,,MELSOM,,014810-99999_fig2.png
https://bioclimatic.github.io/predilection/psych/014820-99999_fig2.png,14820,99999,5,Gs__,100900,19.4,55.5,30,[,3534,0,2,],7,15,22,26,28,[,0,0,],30,361,[,102,236,0,21,2,0,0,],0,2,59.033,10.517,8,1987,2020,NO,,FERDER LH,,014820-99999_fig2.png
https://bioclimatic.github.io/predilection/psych/014825-99999_fig2.png,14825,99999,5,Gs__,100282,19.4,55.8,15,[,3988,0,0,],0,NaN,NaN,NaN,NaN,[,0,0,],15,363,[,114,228,0,20,1,0,0,],1,0,59.187,10.259,87,2006,2020,NO,,TORP,,014825-99999_fig2.png
https://bioclimatic.github.io/predilection/psych/014830-99999_fig2.png,14830,99999,4,Gs__,99974,19.4,55.9,22,[,2382,1,0,],0,0,2,2,2,[,0,0,],31,221,[,62,141,0,17,1,0,0,],1,0,59.183,10.267,88,1987,2020,NO,,TORP,,014830-99999_fig2.png
https://bioclimatic.github.io/predilection/psych/014840-99999_fig2.png,14840,99999,3,Gs__,99529,19.4,56.1,10,[,1802,0,0,],0,0,0,0,0,[,0,0,],28,138,[,52,80,0,5,0,0,0,],0,0,59.917,11.583,128,2008,2019,NO,,AURSKOG,,014840-99999_fig2.png
https://bioclimatic.github.io/predilection/psych/014843-99999_fig2.png,14843,99999,5,Gs__,101145,19.4,55.5,27,[,3458,0,0,],0,NaN,NaN,NaN,NaN,[,0,0,],24,362,[,28,332,0,2,0,0,0,],0,0,59.317,10.45,15,1996,2020,NO,,OSEBERG,,014843-99999_fig2.png
https://bioclimatic.github.io/predilection/psych/014850-99999_fig2.png,14850,99999,5,Gs__,100606,19.4,55.7,7,[,3989,0,0,],0,NaN,NaN,NaN,NaN,[,0,0,],7,352,[,119,213,0,20,0,0,0,],1,0,59.617,10.217,60,2012,2020,NO,,DANDE-GALLEBERG,,014850-99999_fig2.png
https://bioclimatic.github.io/predilection/psych/014860-99999_fig2.png,14860,99999,4,Gs__,99382,19.4,56.1,8,[,2095,0,0,],0,0,0,0,0,[,0,0,],13,179,[,62,107,0,8,1,0,0,],0,1,59.85,10.433,163,2013,2019,NO,,ASKER,,014860-99999_fig2.png
https://bioclimatic.github.io/predilection/psych/014870-99999_fig2.png,14870,99999,5,Gs__,100248,19.4,55.8,8,[,3183,2,0,],0,0,0,0,0,[,0,0,],7,271,[,97,156,0,16,2,0,0,],2,0,59.933,10.833,90,2008,2014,NO,,ALNA,,014870-99999_fig2.png
https://bioclimatic.github.io/predilection/psych/014880-99999_fig2.png,14880,99999,5,Gs__,99300,19.4,56.1,23,[,3115,0,0,],1,0,5,7,8,[,0,0,],32,252,[,97,140,0,15,0,0,0,],0,0,60.117,10.833,170,1987,2020,NO,,HAKADAL,,014880-99999_fig2.png
https://bioclimatic.github.io/predilection/psych/014881-99999_fig2.png,14881,99999,5,Gs__,99631,19.4,56,10,[,3420,0,0,],0,NaN,NaN,NaN,NaN,[,0,0,],9,357,[,23,333,0,1,0,0,0,],0,0,61.206,1.829,142,2011,2019,NO,,STATFJORD B OIL PLATFORM,,014881-99999_fig2.png
https://bioclimatic.github.io/predilection/psych/014890-99999_fig2.png,14890,99999,6,Gs__,97074,19.4,57,1,[,4780,0,0,],0,NaN,NaN,NaN,NaN,[,0,0,],1,354,[,120,227,0,5,1,0,0,],0,2,60.05,10.683,360,2012,2020,NO,,BJORNHOLT,,014890-99999_fig2.png
https://bioclimatic.github.io/predilection/psych/014900-99999_fig2.png,14900,99999,4,Gs__,95141,19.4,57.8,18,[,2782,0,0,],0,0,0,0,0,[,0,0,],28,206,[,83,118,0,5,0,0,0,],0,0,59.983,10.683,528,2003,2020,NO,,TRYVANNSHOGDA,,014900-99999_fig2.png
https://bioclimatic.github.io/predilection/psych/014920-99999_fig2.png,14920,99999,4,Gs__,99814,19.4,55.9,24,[,2980,1,0,],0,0,2,3,3,[,0,0,],32,264,[,88,157,0,18,1,0,0,],1,0,59.95,10.717,97,1997,2020,NO,,OSLO-BLINDERN,,014920-99999_fig2.png
https://bioclimatic.github.io/predilection/psych/014930-99999_fig2.png,14930,99999,3,Gs__,100642,19.4,55.6,7,[,1390,0,0,],2,0,3,3,3,[,0,0,],15,136,[,43,82,0,10,1,0,0,],1,0,59.283,11.117,57,2015,2020,NO,,SARPSBORG,,014930-99999_fig2.png
https://bioclimatic.github.io/predilection/psych/014940-99999_fig2.png,14940,99999,6,Gs__,100693,19.4,55.6,34,[,4108,0,0,],1,NaN,23,30,31,[,0,0,],34,364,[,123,219,0,21,1,0,0,],1,0,59.379,10.786,53,1987,2020,NO,,RYGGE,,014940-99999_fig2.png
https://bioclimatic.github.io/predilection/psych/014950-99999_fig2.png,14950,99999,5,Gs__,100890,19.4,55.5,8,[,3601,0,0,],0,NaN,NaN,NaN,NaN,[,0,0,],7,360,[,98,242,0,18,2,0,0,],0,2,59.15,10.833,10,2006,2020,NO,,STROMTANGEN FYR,,014950-99999_fig2.png
https://bioclimatic.github.io/predilection/psych/014990-99999_fig2.png,14990,99999,5,____,NaN,19.4,NaN,3,[,3984,0,NaN,],NaN,NaN,NaN,NaN,NaN,[,NaN,NaN,],1,308,[,NaN,305,NaN,1,1,NaN,NaN,],0,1,NaN,NaN,0,1988,1988,NO,,VAEROY,,014990-99999_fig2.png
https://bioclimatic.github.io/predilection/psych/692254-99999_fig2.png,692254,99999,3,__Ev,101025,19.4,55.5,4,[,50,106,1,],3,0,3,3,4,[,4,0,],16,22,[,0,8,0,2,2,10,1,],12,1,68.483,16.683,25,2008,2008,NO,,EVENES / EXERCISE,,692254-99999_fig2.png
