URL,WMOstn,WBANo,Acz,HVAC,meanPa,WBref,hBASE,dpy,[,avHDD,avCDD,avChD,],low,min,ave,max,best,[,WsD,YsD,],yrs,dys,[,Icy,Hea,Hum,Pas,Vtn,EvC,DX,],24Cd,67Fd,latitude,longitude,elev,base,stop,CC,ST,Placename,,psychrometric_chart_image
https://bioclimatic.github.io/predilection/psych/070020-99999_fig2.png,70020,99999,4,Gs__,100728,19.4,55.6,32,[,2633,4,3,],8,17,28,34,36,[,0,0,],32,359,[,37,297,0,23,2,0,0,],2,1,50.733,1.6,74,1987,2020,FR,,BOULOGNE,,070020-99999_fig2.png
https://bioclimatic.github.io/predilection/psych/070030-99999_fig2.png,70030,99999,4,Gs__,101125,19.4,55.5,31,[,2455,4,7,],7,9,24,32,34,[,0,0,],31,346,[,40,273,0,30,3,0,0,],2,3,50.515,1.627,11,1987,2020,FR,,LE TOUQUET PARIS PLAGE,,070030-99999_fig2.png
https://bioclimatic.github.io/predilection/psych/070050-99999_fig2.png,70050,99999,4,Gs__,100735,19.4,55.6,31,[,2800,3,3,],6,16,25,35,37,[,0,0,],31,363,[,56,277,0,28,2,0,0,],2,1,50.143,1.832,67,1987,2020,FR,,ABBEVILLE,,070050-99999_fig2.png
https://bioclimatic.github.io/predilection/psych/070090-99999_fig2.png,70090,99999,3,Hp__,101543,19.4,55.3,10,[,617,0,1,],1,0,4,5,5,[,0,0,],32,90,[,8,74,0,8,0,0,0,],0,0,50.967,1.95,3,2012,2020,FR,,CALAIS/DUNKERQUE,,070090-99999_fig2.png
https://bioclimatic.github.io/predilection/psych/070100-99999_fig2.png,70100,99999,4,Gs__,101340,19.4,55.4,32,[,2470,1,4,],7,14,23,31,34,[,0,0,],31,356,[,35,285,0,34,2,0,0,],1,2,51.05,2.333,17,1987,2020,FR,,DUNKERQUE,,070100-99999_fig2.png
https://bioclimatic.github.io/predilection/psych/070150-99999_fig2.png,70150,99999,4,Gs__,100646,19.4,55.6,33,[,2667,7,6,],8,10,25,34,36,[,0,0,],34,353,[,57,252,0,40,4,0,0,],4,3,50.562,3.089,48,1987,2020,FR,,LESQUIN,,070150-99999_fig2.png
https://bioclimatic.github.io/predilection/psych/070160-99999_fig2.png,70160,99999,3,Hp__,100581,19.4,55.7,3,[,99,0,0,],0,0,0,0,0,[,0,0,],24,15,[,1,13,0,1,0,0,0,],0,0,50.333,3,48,2011,2011,FR,,VITRY-EN-ARTOIS,,070160-99999_fig2.png
https://bioclimatic.github.io/predilection/psych/070170-99999_fig2.png,70170,99999,4,Gs__,100404,19.4,55.7,21,[,2280,4,6,],5,2,19,27,29,[,0,0,],22,294,[,54,206,0,30,3,0,0,],3,3,50.222,3.154,78,1987,2011,FR,,EPINOY,,070170-99999_fig2.png
https://bioclimatic.github.io/predilection/psych/070190-99999_fig2.png,70190,99999,3,Hp__,101241,19.4,55.4,0,[,1193,0,0,],0,0,0,0,0,[,0,0,],11,187,[,0,176,0,8,3,0,0,],0,3,49.7,-1.267,7,1987,2012,FR,,BARFLEUR (POINT),,070190-99999_fig2.png
https://bioclimatic.github.io/predilection/psych/070200-99999_fig2.png,70200,99999,4,Gs__,101437,19.4,55.4,29,[,2110,0,0,],1,0,16,22,22,[,0,0,],29,343,[,11,321,0,11,0,0,0,],0,0,49.717,-1.933,12,1987,2020,FR,,LA HAGUE,,070200-99999_fig2.png
https://bioclimatic.github.io/predilection/psych/070220-99999_fig2.png,70220,99999,3,Hp__,99773,19.4,56,0,[,1264,0,0,],0,0,0,0,0,[,0,0,],10,198,[,0,184,0,9,5,0,0,],0,6,49.65,-1.5,130,1987,2013,FR,,VIGITE DU HAUMET,,070220-99999_fig2.png
https://bioclimatic.github.io/predilection/psych/070240-99999_fig2.png,70240,99999,4,Gs__,99639,19.4,56,32,[,2686,0,0,],2,NaN,24,34,34,[,0,0,],20,362,[,31,319,0,12,0,0,0,],0,0,49.65,-1.47,140,1987,2020,FR,,MAUPERTUS,,070240-99999_fig2.png
https://bioclimatic.github.io/predilection/psych/070270-99999_fig2.png,70270,99999,4,Gs__,100490,19.4,55.7,33,[,2508,2,2,],4,0,23,32,34,[,0,0,],34,353,[,38,282,0,31,2,0,0,],1,1,49.173,-0.45,78,1987,2020,FR,,CARPIQUET,,070270-99999_fig2.png
https://bioclimatic.github.io/predilection/psych/070280-99999_fig2.png,70280,99999,4,Gs__,100027,19.4,55.9,33,[,2557,3,4,],7,14,26,35,37,[,0,0,],33,362,[,34,298,0,28,2,0,0,],2,1,49.534,0.088,95,1987,2020,FR,,OCTEVILLE,,070280-99999_fig2.png
https://bioclimatic.github.io/predilection/psych/070290-99999_fig2.png,70290,99999,3,Gs__,100775,19.4,55.6,14,[,1621,0,2,],2,3,9,12,12,[,0,0,],19,224,[,21,189,0,13,1,0,0,],0,1,49.35,-0.767,73,1987,2006,FR,,PORT EN BESSIN,,070290-99999_fig2.png
https://bioclimatic.github.io/predilection/psych/070310-99999_fig2.png,70310,99999,4,Gs__,99531,19.4,56.1,23,[,2107,2,2,],5,3,17,23,23,[,0,0,],27,278,[,34,223,0,19,2,0,0,],1,1,49.365,0.154,146,1987,2020,FR,,ST GATIEN,,070310-99999_fig2.png
https://bioclimatic.github.io/predilection/psych/070340-99999_fig2.png,70340,99999,3,Hp__,100547,19.4,55.7,7,[,960,2,1,],1,0,5,6,6,[,0,0,],14,147,[,8,122,0,14,3,0,0,],1,4,49.367,-1.8,65,1987,2006,FR,,CARTERET,,070340-99999_fig2.png
https://bioclimatic.github.io/predilection/psych/070370-99999_fig2.png,70370,99999,4,Gs__,99418,19.4,56.1,30,[,2836,4,3,],6,NaN,26,35,37,[,0,0,],30,363,[,60,266,0,34,3,0,0,],3,2,49.384,1.175,156,1987,2020,FR,,VALLEE DE SEINE,,070370-99999_fig2.png
https://bioclimatic.github.io/predilection/psych/070380-99999_fig2.png,70380,99999,4,Gs__,100053,19.4,55.9,4,[,2762,15,8,],10,NaN,27,37,40,[,1,0,],4,365,[,63,255,0,41,5,1,1,],6,3,49.029,1.22,141,2001,2004,FR,,FAUVILLE,,070380-99999_fig2.png
https://bioclimatic.github.io/predilection/psych/070390-99999_fig2.png,70390,99999,3,Gs__,100590,19.4,55.7,11,[,1455,0,1,],1,3,5,7,8,[,0,0,],16,201,[,20,171,0,9,1,0,0,],0,0,49.517,-1.5,61,2000,2008,FR,,VALOGNES (AUT),,070390-99999_fig2.png
https://bioclimatic.github.io/predilection/psych/070400-99999_fig2.png,70400,99999,4,Gs__,101110,19.4,55.5,34,[,2579,1,2,],5,13,24,34,36,[,0,0,],34,358,[,38,297,0,22,1,0,0,],1,1,49.933,1.1,38,1987,2020,FR,,DIEPPE,,070400-99999_fig2.png
https://bioclimatic.github.io/predilection/psych/070460-99999_fig2.png,70460,99999,4,Gs__,100526,19.4,55.7,18,[,2522,3,2,],7,NaN,30,38,40,[,0,0,],18,361,[,35,297,0,27,2,0,0,],2,1,49.533,0.083,94,2002,2020,FR,,LE HAVRE-OCTEVILLE,,070460-99999_fig2.png
https://bioclimatic.github.io/predilection/psych/070530-99999_fig2.png,70530,99999,3,Gs__,100633,19.4,55.6,13,[,789,3,1,],2,1,8,11,12,[,0,0,],28,110,[,15,78,0,15,2,0,0,],2,1,49.083,2.033,88,2011,2020,FR,,CORMEILLES,,070530-99999_fig2.png
https://bioclimatic.github.io/predilection/psych/070550-99999_fig2.png,70550,99999,4,Gs__,99951,19.4,55.9,34,[,2803,5,4,],5,NaN,25,36,38,[,0,0,],34,364,[,62,259,0,38,4,0,0,],3,2,49.454,2.113,109,1987,2020,FR,,TILLE,,070550-99999_fig2.png
https://bioclimatic.github.io/predilection/psych/070570-99999_fig2.png,70570,99999,3,Gs__,100584,19.4,55.7,23,[,1818,6,4,],6,3,18,24,26,[,0,0,],31,245,[,40,171,0,31,3,0,0,],3,2,49.254,2.519,89,1999,2020,FR,,CREIL,,070570-99999_fig2.png
https://bioclimatic.github.io/predilection/psych/070590-99999_fig2.png,70590,99999,3,Gs__,100313,19.4,55.8,9,[,754,2,1,],2,1,6,8,9,[,0,0,],30,101,[,13,76,0,10,1,0,0,],1,1,49.967,2.704,111,2011,2020,FR,,MEAULTE,,070590-99999_fig2.png
https://bioclimatic.github.io/predilection/psych/070610-99999_fig2.png,70610,99999,4,Gs__,100451,19.4,55.7,31,[,2900,5,8,],7,10,25,35,37,[,0,0,],31,361,[,70,253,0,34,4,0,0,],3,3,49.817,3.2,101,1987,2020,FR,,ST. QUENTIN/ROUPY,,070610-99999_fig2.png
https://bioclimatic.github.io/predilection/psych/070700-99999_fig2.png,70700,99999,4,Gs__,100251,19.4,55.8,25,[,2853,6,8,],5,12,25,35,38,[,0,0,],24,364,[,69,245,0,44,5,0,0,],4,4,49.31,4.05,95,1987,2011,FR,,CHAMPAGNE,,070700-99999_fig2.png
https://bioclimatic.github.io/predilection/psych/070720-99999_fig2.png,70720,99999,3,Gs__,100125,19.4,55.8,8,[,659,3,1,],2,0,5,7,8,[,0,0,],32,88,[,13,61,0,11,2,0,0,],2,1,49.217,4.15,96,2013,2020,FR,,REIMS-PRUNAY,,070720-99999_fig2.png
https://bioclimatic.github.io/predilection/psych/070750-99999_fig2.png,70750,99999,4,Gs__,99900,19.4,55.9,29,[,2845,2,5,],2,4,21,31,32,[,0,0,],32,330,[,74,224,0,29,3,0,0,],2,2,49.784,4.647,149,1990,2020,FR,,CHARLEVILLE MEZIERES,,070750-99999_fig2.png
https://bioclimatic.github.io/predilection/psych/070900-99999_fig2.png,70900,99999,4,Gs__,99041,19.4,56.2,26,[,2741,12,8,],9,15,26,34,37,[,1,0,],26,347,[,66,222,0,51,7,0,1,],7,3,49.072,6.132,192,1987,2012,FR,,FRESCATY,,070900-99999_fig2.png
https://bioclimatic.github.io/predilection/psych/070930-99999_fig2.png,70930,99999,4,Gs__,98169,19.4,56.6,28,[,2949,17,6,],10,13,30,38,40,[,0,0,],28,363,[,79,225,0,50,7,1,1,],9,3,48.982,6.251,265,1993,2020,FR,,METZ NANCY LORRAINE,,070930-99999_fig2.png
https://bioclimatic.github.io/predilection/psych/071000-99999_fig2.png,71000,99999,4,Hp__,100764,19.4,55.6,34,[,2249,0,0,],0,NaN,18,21,21,[,0,0,],34,361,[,5,353,0,3,0,0,0,],0,0,48.483,-5.05,68,1987,2020,FR,,OUESSANT,,071000-99999_fig2.png
https://bioclimatic.github.io/predilection/psych/071030-99999_fig2.png,71030,99999,3,Hp__,100260,19.4,55.8,17,[,1313,0,0,],0,0,2,2,2,[,0,0,],28,208,[,7,195,0,6,0,0,0,],0,0,48.033,-4.733,89,1987,2020,FR,,POINTE DU RAZ,,071030-99999_fig2.png
https://bioclimatic.github.io/predilection/psych/071060-99999_fig2.png,71060,99999,4,Gs__,99890,19.4,55.9,26,[,2126,0,1,],2,5,13,19,19,[,0,0,],24,304,[,21,270,0,13,0,0,0,],0,0,48.53,-4.152,106,1991,2020,FR,,LANDIVISIAU,,071060-99999_fig2.png
https://bioclimatic.github.io/predilection/psych/071070-99999_fig2.png,71070,99999,3,Hp__,101626,19.4,55.3,25,[,1674,0,0,],0,0,2,2,2,[,0,0,],30,274,[,7,260,0,7,0,0,0,],0,0,48.683,-4.333,18,1987,2017,FR,,BRIGNOGAN,,071070-99999_fig2.png
https://bioclimatic.github.io/predilection/psych/071090-99999_fig2.png,71090,99999,3,Gs__,100264,19.4,55.8,25,[,1805,0,1,],2,2,11,16,16,[,0,0,],26,282,[,14,252,0,15,1,0,0,],0,0,48.282,-4.445,88,1991,2020,FR,,POULMIC,,071090-99999_fig2.png
https://bioclimatic.github.io/predilection/psych/071100-99999_fig2.png,71100,99999,4,Gs__,100053,19.4,55.9,34,[,2483,0,1,],1,NaN,24,34,35,[,0,0,],34,363,[,23,323,0,16,1,0,0,],0,0,48.448,-4.419,99,1987,2020,FR,,GUIPAVAS,,071100-99999_fig2.png
https://bioclimatic.github.io/predilection/psych/071160-99999_fig2.png,71160,99999,3,Hp__,100881,19.4,55.6,15,[,892,0,0,],0,0,3,4,4,[,0,0,],28,151,[,5,139,0,7,0,0,0,],0,0,48.75,-4.017,37,1987,2020,FR,,BATZ ISLAND,,071160-99999_fig2.png
https://bioclimatic.github.io/predilection/psych/071170-99999_fig2.png,71170,99999,3,Hp__,100908,19.4,55.5,20,[,1519,0,0,],1,0,6,8,8,[,0,0,],28,246,[,7,229,0,10,0,0,0,],0,0,48.833,-3.467,58,2002,2020,FR,,PLOUMANAC'H PERROS GUIREC,,071170-99999_fig2.png
https://bioclimatic.github.io/predilection/psych/071180-99999_fig2.png,71180,99999,4,Gs__,100222,19.4,55.8,18,[,2487,0,1,],2,20,28,35,36,[,0,0,],18,362,[,24,322,0,16,0,0,0,],0,0,48.754,-3.472,88,2002,2020,FR,,LANNION,,071180-99999_fig2.png
https://bioclimatic.github.io/predilection/psych/071190-99999_fig2.png,71190,99999,5,Gs__,98217,19.4,56.6,2,[,3254,0,3,],5,NaN,17,29,29,[,0,0,],1,363,[,75,271,0,16,1,0,0,],0,1,48.233,-3.3,262,1987,1987,FR,,ROSTRENEN,,071190-99999_fig2.png
https://bioclimatic.github.io/predilection/psych/071200-99999_fig2.png,71200,99999,4,Gs__,99997,19.4,55.9,30,[,2604,1,1,],2,NaN,25,34,36,[,0,0,],30,363,[,33,309,0,20,1,0,0,],0,1,48.538,-2.854,138,1987,2020,FR,,ARMOR,,071200-99999_fig2.png
https://bioclimatic.github.io/predilection/psych/071210-99999_fig2.png,71210,99999,3,Hp__,100890,19.4,55.5,11,[,792,0,0,],0,0,1,1,1,[,0,0,],31,124,[,5,112,0,6,1,0,0,],0,1,48.85,-3,36,1987,2020,FR,,BREHAT ISLAND,,071210-99999_fig2.png
https://bioclimatic.github.io/predilection/psych/071230-99999_fig2.png,71230,99999,4,Gs__,99797,19.4,56,2,[,2838,0,17,],0,NaN,18,26,31,[,0,0,],1,357,[,61,268,0,23,5,0,0,],1,5,48.517,-2.8,128,1987,1987,FR,,SAINT BRIEUC,,071230-99999_fig2.png
https://bioclimatic.github.io/predilection/psych/071233-99999_fig2.png,71233,99999,4,Gs__,99797,19.4,56,2,[,2311,0,1,],0,NaN,20,28,28,[,0,0,],1,337,[,33,266,0,37,1,0,0,],0,1,48.517,-2.8,128,1989,1989,FR,,ST. BRIEUC ARMOR  &,,071233-99999_fig2.png
https://bioclimatic.github.io/predilection/psych/071250-99999_fig2.png,71250,99999,4,Gs__,100565,19.4,55.7,33,[,2384,1,3,],3,NaN,24,34,36,[,0,0,],28,363,[,28,302,0,31,2,0,0,],1,1,48.588,-2.08,67,1987,2020,FR,,PLEURTUIT,,071250-99999_fig2.png
https://bioclimatic.github.io/predilection/psych/071270-99999_fig2.png,71270,99999,4,Gs__,101143,19.4,55.5,13,[,2375,0,3,],4,13,18,28,31,[,0,0,],12,359,[,26,301,0,30,2,0,0,],0,2,48.717,-1.85,41,1987,1998,FR,,GROUIN DE CANCALE,,071270-99999_fig2.png
https://bioclimatic.github.io/predilection/psych/071300-99999_fig2.png,71300,99999,4,Gs__,100758,19.4,55.6,31,[,2371,6,9,],5,10,25,35,38,[,1,0,],31,364,[,37,272,0,50,5,0,0,],4,3,48.07,-1.735,38,1987,2020,FR,,ST JACQUES,,071300-99999_fig2.png
https://bioclimatic.github.io/predilection/psych/071330-99999_fig2.png,71330,99999,3,Hp__,100821,19.4,55.6,5,[,813,2,1,],2,1,6,8,9,[,0,0,],17,130,[,8,102,0,16,4,0,0,],1,4,48.833,-1.617,42,1987,2006,FR,,POINTE DU ROC,,071330-99999_fig2.png
https://bioclimatic.github.io/predilection/psych/071340-99999_fig2.png,71340,99999,3,Gs__,100109,19.4,55.8,22,[,1773,6,6,],5,3,16,23,25,[,1,0,],30,256,[,32,187,0,34,3,0,0,],3,2,48.033,-0.733,97,1989,2020,FR,,LAVAL-ETRONNIER,,071340-99999_fig2.png
https://bioclimatic.github.io/predilection/psych/071390-99999_fig2.png,71390,99999,4,Gs__,99954,19.4,55.9,33,[,2722,5,5,],7,NaN,25,35,36,[,0,0,],33,363,[,56,263,0,40,4,0,0,],3,2,48.45,0.117,141,1987,2020,FR,,ALENCON/VALFRAMBERT,,071390-99999_fig2.png
https://bioclimatic.github.io/predilection/psych/071400-99999_fig2.png,71400,99999,4,Gs__,99807,19.4,55.9,27,[,2195,10,5,],5,2,21,29,31,[,1,0,],24,302,[,48,206,0,42,5,0,0,],6,3,48.058,1.377,132,1999,2020,FR,,CHATEAUDUN,,071400-99999_fig2.png
https://bioclimatic.github.io/predilection/psych/071430-99999_fig2.png,71430,99999,4,Gs__,99813,19.4,55.9,31,[,2733,9,5,],8,12,27,37,39,[,1,0,],31,362,[,59,251,0,46,5,0,0,],5,2,48.467,1.517,156,1987,2020,FR,,CHARTRES/CHAMPOL,,071430-99999_fig2.png
https://bioclimatic.github.io/predilection/psych/071450-99999_fig2.png,71450,99999,3,Gs__,99589,19.4,56,25,[,2052,10,5,],10,5,21,28,30,[,0,0,],31,281,[,44,193,0,38,5,0,1,],5,2,48.767,2,168,1988,2020,FR,,TRAPPES,,071450-99999_fig2.png
https://bioclimatic.github.io/predilection/psych/071460-99999_fig2.png,71460,99999,4,GsVt,99364,19.4,56.1,29,[,2605,17,19,],10,13,28,36,40,[,1,0,],28,362,[,56,244,0,52,9,0,1,],9,6,48.752,2.106,164,1987,2020,FR,,TOUSSUS LE NOBLE,,071460-99999_fig2.png
https://bioclimatic.github.io/predilection/psych/071470-99999_fig2.png,71470,99999,4,Gs__,99156,19.4,56.2,32,[,2666,15,7,],12,16,28,36,39,[,0,0,],32,363,[,56,248,0,50,7,1,1,],8,3,48.774,2.202,178,1987,2020,FR,,VELIZY,,071470-99999_fig2.png
https://bioclimatic.github.io/predilection/psych/071480-99999_fig2.png,71480,99999,3,Gs__,100826,19.4,55.6,10,[,969,8,8,],2,5,10,13,15,[,1,0,],13,136,[,21,89,0,22,3,0,1,],4,2,48.6,2.333,80,1991,2005,FR,,BRETIGNY,,071480-99999_fig2.png
https://bioclimatic.github.io/predilection/psych/071490-99999_fig2.png,71490,99999,4,GsVt,100250,19.4,55.8,33,[,2447,17,12,],10,14,27,36,39,[,1,0,],34,353,[,49,238,0,56,8,1,1,],9,4,48.725,2.359,89,1987,2020,FR,,ORLY,,071490-99999_fig2.png
https://bioclimatic.github.io/predilection/psych/071500-99999_fig2.png,71500,99999,4,GsVt,100665,19.4,55.6,32,[,2417,19,14,],9,13,29,37,41,[,1,0,],32,362,[,47,242,0,62,9,1,2,],10,5,48.969,2.441,66,1987,2020,FR,,LE BOURGET,,071500-99999_fig2.png
https://bioclimatic.github.io/predilection/psych/071515-99999_fig2.png,71515,99999,3,GsVt,98473,19.4,56.5,7,[,1438,32,24,],4,7,16,21,25,[,1,0,],7,251,[,20,166,0,48,14,1,2,],16,8,43.556,2.289,240,2014,2020,FR,,MAZAMET,,071515-99999_fig2.png
https://bioclimatic.github.io/predilection/psych/071530-99999_fig2.png,71530,99999,4,Gs__,100180,19.4,55.8,33,[,2619,10,12,],7,10,26,36,39,[,1,0,],32,359,[,59,240,0,52,7,0,1,],6,5,48.605,2.671,92,1987,2020,FR,,VILLAROCHE,,071530-99999_fig2.png
https://bioclimatic.github.io/predilection/psych/071560-99999_fig2.png,71560,99999,3,GsVt,100728,19.4,55.6,25,[,1771,20,10,],11,9,23,29,32,[,1,0,],31,279,[,27,190,0,51,9,1,2,],10,5,48.817,2.333,77,1987,2020,FR,,PARIS-MONTSOURIS,,071560-99999_fig2.png
https://bioclimatic.github.io/predilection/psych/071570-99999_fig2.png,71570,99999,4,Gs__,99979,19.4,55.9,34,[,2545,15,9,],12,14,28,37,40,[,1,0,],34,363,[,53,245,0,56,7,1,1,],8,4,49.013,2.55,120,1987,2020,FR,,CHARLES DE GAULLE,,071570-99999_fig2.png
https://bioclimatic.github.io/predilection/psych/071604-99999_fig2.png,71604,99999,3,Hp__,100333,19.4,55.8,3,[,2054,4,5,],6,NaN,28,34,37,[,0,0,],3,356,[,9,298,0,46,3,0,0,],3,2,48.603,-3.816,83,2015,2020,FR,,PLOUJEAN,,071604-99999_fig2.png
https://bioclimatic.github.io/predilection/psych/071650-99999_fig2.png,71650,99999,3,Gs__,99194,19.4,56.2,16,[,1483,5,3,],3,0,12,16,18,[,0,0,],31,187,[,37,123,0,23,3,0,0,],3,2,48.776,4.184,179,2004,2020,FR,,VATRY,,071650-99999_fig2.png
https://bioclimatic.github.io/predilection/psych/071660-99999_fig2.png,71660,99999,4,Gs__,99729,19.4,56,9,[,2687,17,7,],9,NaN,29,39,41,[,1,0,],8,359,[,62,236,0,52,7,1,1,],8,3,48.767,4.15,179,2012,2020,FR,,VATRY AERO,,071660-99999_fig2.png
https://bioclimatic.github.io/predilection/psych/071680-99999_fig2.png,71680,99999,4,Gs__,99887,19.4,55.9,30,[,2732,13,12,],5,10,27,37,41,[,1,0,],30,363,[,66,237,0,52,7,1,1,],7,5,48.322,4.017,118,1987,2020,FR,,BARBEREY,,071680-99999_fig2.png
https://bioclimatic.github.io/predilection/psych/071690-99999_fig2.png,71690,99999,4,GsVt,99650,19.4,56,31,[,2666,16,14,],9,14,28,37,41,[,1,0,],31,362,[,60,234,0,57,9,1,1,],9,5,48.636,4.899,140,1987,2020,FR,,ROBINSON,,071690-99999_fig2.png
https://bioclimatic.github.io/predilection/psych/071730-99999_fig2.png,71730,99999,3,Gs__,97859,19.4,56.7,13,[,1822,3,1,],4,3,13,17,18,[,0,0,],21,206,[,50,129,0,25,2,0,0,],2,1,48.2,6.433,320,1987,2009,FR,,EPINAL-DOGNEVILLE,,071730-99999_fig2.png
https://bioclimatic.github.io/predilection/psych/071790-34051_fig2.png,71790,34051,3,Gs__,97936,19.4,56.7,17,[,1539,12,7,],4,4,13,17,18,[,0,0,],22,207,[,33,135,0,32,6,0,1,],6,3,48.783,5.983,286,1987,2020,FR,,TOUL / ROSIERES,,071790-34051_fig2.png
https://bioclimatic.github.io/predilection/psych/071800-99999_fig2.png,71800,99999,4,Gs__,98781,19.4,56.3,34,[,2906,12,7,],7,13,27,37,39,[,1,0,],34,363,[,74,228,0,53,6,1,1,],7,3,48.692,6.23,229,1987,2020,FR,,ESSEY,,071800-99999_fig2.png
https://bioclimatic.github.io/predilection/psych/071810-99999_fig2.png,71810,99999,4,Gs__,97170,19.4,57,33,[,2925,12,5,],6,17,28,36,39,[,0,0,],30,351,[,77,222,0,46,5,1,0,],6,2,48.583,5.955,337,1987,2020,FR,,OCHEY,,071810-99999_fig2.png
https://bioclimatic.github.io/predilection/psych/071813-99999_fig2.png,71813,99999,3,Gs__,100320,19.4,55.8,7,[,2057,8,10,],2,NaN,25,32,34,[,0,0,],1,303,[,39,204,0,52,8,0,0,],7,3,48.597,2.331,84,2004,2004,FR,,BRETIGNY SUR ORGE,,071813-99999_fig2.png
https://bioclimatic.github.io/predilection/psych/071825-99999_fig2.png,71825,99999,3,Gs__,97418,19.4,56.9,3,[,1497,8,2,],1,0,4,5,6,[,0,0,],9,180,[,29,119,0,27,4,0,0,],5,1,48.325,6.07,330,2015,2020,FR,,MIRECOURT,,071825-99999_fig2.png
https://bioclimatic.github.io/predilection/psych/071860-34062_fig2.png,71860,34062,5,____,97621,19.4,56.8,0,[,3751,0,NaN,],NaN,NaN,NaN,NaN,NaN,[,NaN,NaN,],1,362,[,NaN,313,NaN,41,8,NaN,NaN,],0,6,48.817,7.2,313,1987,1987,FR,,PHALSBOURG,,071860-34062_fig2.png
https://bioclimatic.github.io/predilection/psych/071900-99999_fig2.png,71900,99999,4,GsVt,99479,19.4,56.1,33,[,2804,14,23,],6,12,26,36,39,[,1,0,],33,364,[,76,215,0,62,11,0,1,],9,8,48.538,7.628,154,1987,2020,FR,,ENTZHEIM,,071900-99999_fig2.png
https://bioclimatic.github.io/predilection/psych/071970-99999_fig2.png,71970,99999,4,GsVt,99266,19.4,56.2,26,[,2471,13,14,],5,8,23,31,34,[,1,0,],29,315,[,65,188,0,51,9,0,1,],8,7,47.917,7.4,211,1987,2020,FR,,MEYENHEIM,,071970-99999_fig2.png
https://bioclimatic.github.io/predilection/psych/072000-99999_fig2.png,72000,99999,3,Gs__,101081,19.4,55.5,25,[,2039,0,1,],3,16,20,27,29,[,0,0,],25,360,[,12,324,0,23,1,0,0,],0,1,47.8,-4.367,19,1987,2014,FR,,PENMARCH,,072000-99999_fig2.png
https://bioclimatic.github.io/predilection/psych/072010-99999_fig2.png,72010,99999,4,Gs__,100142,19.4,55.8,29,[,2268,1,3,],3,9,21,29,30,[,0,0,],30,348,[,21,300,0,26,1,0,0,],1,1,47.975,-4.168,90,1987,2020,FR,,PLUGUFFAN,,072010-99999_fig2.png
https://bioclimatic.github.io/predilection/psych/072030-99999_fig2.png,72030,99999,3,Gs__,100680,19.4,55.6,26,[,1553,1,5,],4,5,15,21,23,[,0,0,],30,274,[,11,232,0,29,2,0,0,],1,2,47.65,-3.5,54,1987,2020,FR,,BEG MELEN,,072030-99999_fig2.png
https://bioclimatic.github.io/predilection/psych/072050-99999_fig2.png,72050,99999,4,Gs__,100763,19.4,55.6,32,[,2317,2,5,],6,12,24,33,35,[,0,0,],32,364,[,28,297,0,37,2,0,0,],2,2,47.761,-3.44,49,1987,2020,FR,,LANN BIHOUE,,072050-99999_fig2.png
https://bioclimatic.github.io/predilection/psych/072070-99999_fig2.png,72070,99999,3,Gs__,101187,19.4,55.4,28,[,2004,1,5,],4,14,19,28,30,[,0,0,],28,362,[,14,307,0,39,2,0,0,],1,2,47.3,-3.218,43,1987,2020,FR,,BELLE ILE-LE TALUT,,072070-99999_fig2.png
https://bioclimatic.github.io/predilection/psych/072080-99999_fig2.png,72080,99999,3,Hp__,100965,19.4,55.5,0,[,477,1,0,],0,0,0,0,0,[,0,0,],15,83,[,0,72,0,5,6,0,0,],1,7,47.5,-3.117,30,1987,2009,FR,,QUIBEKON / ST JULIEN,,072080-99999_fig2.png
https://bioclimatic.github.io/predilection/psych/072100-99999_fig2.png,72100,99999,3,Gs__,101290,19.4,55.4,17,[,1548,3,4,],3,2,12,16,17,[,0,0,],25,239,[,19,189,0,28,2,0,0,],2,2,47.6,-2.717,3,1989,2020,FR,,VANNES/SENE,,072100-99999_fig2.png
https://bioclimatic.github.io/predilection/psych/072160-99999_fig2.png,72160,99999,3,GsVt,101085,19.4,55.5,7,[,2026,4,12,],6,16,25,34,37,[,1,0,],7,355,[,21,280,0,42,12,0,1,],4,13,47.233,-2.3,20,2002,2013,FR,,CHEMOULIN,,072160-99999_fig2.png
https://bioclimatic.github.io/predilection/psych/072170-99999_fig2.png,72170,99999,3,Gs__,101231,19.4,55.4,31,[,2079,6,7,],7,13,25,34,37,[,0,0,],30,350,[,27,265,0,53,5,0,0,],4,3,47.312,-2.149,4,1987,2020,FR,,MONTOIR,,072170-99999_fig2.png
https://bioclimatic.github.io/predilection/psych/072220-99999_fig2.png,72220,99999,4,Gs__,100943,19.4,55.5,33,[,2259,11,13,],6,15,25,35,39,[,1,0,],33,364,[,33,267,0,55,8,0,1,],7,5,47.153,-1.611,27,1987,2020,FR,,NANTES ATLANTIQUE,,072220-99999_fig2.png
https://bioclimatic.github.io/predilection/psych/072300-99999_fig2.png,72300,99999,4,Gs__,101144,19.4,55.5,33,[,2335,12,13,],11,14,27,36,39,[,1,0,],31,360,[,40,254,0,58,7,0,1,],7,5,47.483,-0.6,50,1987,2020,FR,,BEAUCOUZE,,072300-99999_fig2.png
https://bioclimatic.github.io/predilection/psych/072350-99999_fig2.png,72350,99999,4,GsVt,100661,19.4,55.6,32,[,2386,18,14,],9,14,27,36,40,[,1,0,],32,364,[,43,251,0,59,9,1,1,],10,5,47.949,0.202,59,1987,2020,FR,,ARNAGE,,072350-99999_fig2.png
https://bioclimatic.github.io/predilection/psych/072400-99999_fig2.png,72400,99999,4,Gs__,99946,19.4,55.9,33,[,2407,15,11,],7,13,25,35,38,[,1,0,],34,353,[,48,239,0,56,8,1,1,],8,4,47.432,0.728,109,1987,2020,FR,,VAL DE LOIRE,,072400-99999_fig2.png
https://bioclimatic.github.io/predilection/psych/072450-99999_fig2.png,72450,99999,4,Gs__,100145,19.4,55.8,19,[,2516,17,9,],8,17,28,37,41,[,1,0,],19,360,[,53,244,0,54,7,1,1,],9,4,47.678,1.209,121,2002,2020,FR,,LE BREUIL,,072450-99999_fig2.png
https://bioclimatic.github.io/predilection/psych/072470-99999_fig2.png,72470,99999,3,Gs__,100277,19.4,55.8,27,[,2054,10,11,],3,9,21,30,33,[,1,0,],27,291,[,44,195,0,45,6,0,1,],6,4,47.317,1.683,86,1990,2020,FR,,ROMORANTIN/PRUNIERS,,072470-99999_fig2.png
https://bioclimatic.github.io/predilection/psych/072490-99999_fig2.png,72490,99999,4,Gs__,99782,19.4,56,34,[,2638,12,9,],7,14,26,36,40,[,1,0,],34,361,[,59,242,0,51,7,1,1,],7,4,47.988,1.761,126,1987,2020,FR,,BRICY,,072490-99999_fig2.png
https://bioclimatic.github.io/predilection/psych/072550-99999_fig2.png,72550,99999,4,GsVt,99777,19.4,56,34,[,2522,23,15,],9,17,28,38,41,[,1,0,],34,363,[,54,236,0,60,11,1,1,],12,6,47.058,2.37,161,1987,2020,FR,,BOURGES,,072550-99999_fig2.png
https://bioclimatic.github.io/predilection/psych/072553-99999_fig2.png,72553,99999,4,GsVt,98985,19.4,56.3,20,[,2657,22,23,],6,12,27,36,41,[,1,0,],14,361,[,69,220,0,58,12,1,1,],12,8,47.039,5.427,197,2005,2020,FR,,TAVAUX,,072553-99999_fig2.png
https://bioclimatic.github.io/predilection/psych/072554-99999_fig2.png,72554,99999,4,GsVt,99220,19.4,56.2,20,[,2518,24,10,],9,16,28,37,42,[,1,0,],19,361,[,55,235,0,59,10,1,1,],11,5,47.053,2.633,177,1999,2020,FR,,AVORD,,072554-99999_fig2.png
https://bioclimatic.github.io/predilection/psych/072570-99999_fig2.png,72570,99999,3,GsVt,99639,19.4,56,25,[,1906,18,9,],6,3,20,27,30,[,1,0,],32,271,[,43,173,0,45,8,1,1,],9,4,47.05,2.65,177,1987,2020,FR,,AVORD,,072570-99999_fig2.png
https://bioclimatic.github.io/predilection/psych/072600-99999_fig2.png,72600,99999,4,Gs__,99661,19.4,56,33,[,2733,10,11,],4,16,27,37,40,[,1,0,],33,361,[,64,238,0,51,7,0,1,],6,5,47.003,3.113,184,1987,2020,FR,,FOURCHAMBAULT,,072600-99999_fig2.png
https://bioclimatic.github.io/predilection/psych/072650-99999_fig2.png,72650,99999,4,Gs__,99152,19.4,56.2,17,[,2354,14,11,],6,8,23,31,33,[,1,0,],20,311,[,54,203,0,45,7,1,1,],7,4,47.8,3.55,212,1987,2008,FR,,AUXERRE,,072650-99999_fig2.png
https://bioclimatic.github.io/predilection/psych/072660-99999_fig2.png,72660,99999,4,GsVt,99401,19.4,56.1,14,[,2416,18,9,],9,12,27,36,40,[,2,0,],15,339,[,55,219,0,54,9,1,1,],10,4,47.85,3.497,159,2006,2020,FR,,BRANCHES,,072660-99999_fig2.png
https://bioclimatic.github.io/predilection/psych/072700-99999_fig2.png,72700,99999,4,Gs__,94344,19.4,58.1,5,[,2820,17,4,],2,NaN,25,33,37,[,0,0,],2,326,[,80,192,0,45,7,2,0,],8,3,47.067,3.933,598,1990,1991,FR,,CHATEAU-CHINON,,072700-99999_fig2.png
https://bioclimatic.github.io/predilection/psych/072760-99999_fig2.png,72760,99999,3,Gs__,98194,19.4,56.6,6,[,764,3,1,],1,0,6,8,9,[,0,0,],9,98,[,15,67,0,14,2,0,0,],2,1,47.85,4.55,264,1988,1990,FR,,CHATILLON-SUR-SEINE,,072760-99999_fig2.png
https://bioclimatic.github.io/predilection/psych/072800-99999_fig2.png,72800,99999,4,GsVt,98610,19.4,56.4,33,[,2714,17,12,],7,10,26,35,38,[,1,0,],34,354,[,71,214,0,57,10,1,1,],10,6,47.269,5.09,221,1987,2020,FR,,LONGVIC,,072800-99999_fig2.png
https://bioclimatic.github.io/predilection/psych/072830-99999_fig2.png,72830,99999,4,Gs__,96236,19.4,57.3,22,[,2300,9,2,],7,1,16,22,23,[,0,0,],30,262,[,64,160,0,32,4,1,0,],5,1,47.85,5.333,467,1987,2020,FR,,LANGRES,,072830-99999_fig2.png
https://bioclimatic.github.io/predilection/psych/072880-99999_fig2.png,72880,99999,4,GsVt,98100,19.4,56.6,34,[,2820,14,8,],8,12,27,36,40,[,0,0,],34,360,[,73,223,0,54,9,1,1,],9,4,47.25,5.983,309,1987,2020,FR,,BESANCON/THISE(AUT),,072880-99999_fig2.png
https://bioclimatic.github.io/predilection/psych/072920-99999_fig2.png,72920,99999,4,Gs__,98089,19.4,56.6,28,[,2799,9,12,],5,7,24,33,36,[,1,0,],30,340,[,74,211,0,47,7,0,1,],6,5,47.783,6.364,278,1987,2020,FR,,SAINT SAUVEUR,,072920-99999_fig2.png
https://bioclimatic.github.io/predilection/psych/072950-99999_fig2.png,72950,99999,4,Gs__,96705,19.4,57.1,13,[,2084,5,2,],5,0,14,18,19,[,0,0,],18,235,[,56,146,0,29,4,0,0,],3,2,47.633,6.867,423,1987,2008,FR,,BELFORT/FONTAINE,,072950-99999_fig2.png
https://bioclimatic.github.io/predilection/psych/072960-99999_fig2.png,72960,99999,4,GsVt,97045,19.4,57,10,[,2853,19,12,],10,14,28,37,41,[,1,0,],9,361,[,79,217,0,53,9,1,2,],10,5,47.592,6.833,401,2011,2020,FR,,DORANS,,072960-99999_fig2.png
https://bioclimatic.github.io/predilection/psych/072990-99999_fig2.png,72990,99999,4,GsVt,98108,19.4,56.6,34,[,2905,13,15,],6,11,26,36,40,[,1,0,],34,364,[,80,217,0,57,9,0,1,],8,7,47.59,7.53,270,1987,2020,FR,,BALE MULHOUSE,,072990-99999_fig2.png
https://bioclimatic.github.io/predilection/psych/073000-99999_fig2.png,73000,99999,3,Gs__,101335,19.4,55.4,34,[,1937,3,9,],7,14,21,30,34,[,0,0,],34,355,[,16,282,0,52,5,0,0,],2,4,46.7,-2.333,32,1987,2020,FR,,SAINT-SAUVEUR,,073000-99999_fig2.png
https://bioclimatic.github.io/predilection/psych/073013-99999_fig2.png,73013,99999,4,GsVt,100594,19.4,55.7,4,[,2209,13,41,],0,13,22,29,35,[,0,0,],2,341,[,39,243,0,45,13,0,1,],6,12,46.317,-0.4,61,1987,1988,FR,,NIORT/SOUCHE,,073013-99999_fig2.png
https://bioclimatic.github.io/predilection/psych/073060-99999_fig2.png,73060,99999,4,Gs__,100225,19.4,55.8,30,[,2363,8,13,],6,12,25,35,37,[,1,0,],30,363,[,39,266,0,51,6,0,1,],5,4,46.702,-1.379,91,1987,2020,FR,,LES AJONCS,,073060-99999_fig2.png
https://bioclimatic.github.io/predilection/psych/073110-99999_fig2.png,73110,99999,3,Hp__,101205,19.4,55.4,0,[,374,2,0,],0,0,0,0,0,[,0,0,],12,72,[,0,59,0,8,4,0,0,],1,5,46.25,-1.567,10,2002,2004,FR,,POINTE DES BALEINES,,073110-99999_fig2.png
https://bioclimatic.github.io/predilection/psych/073140-99999_fig2.png,73140,99999,3,GsVt,101508,19.4,55.3,28,[,1819,2,39,],8,13,19,27,34,[,0,0,],28,358,[,16,263,0,68,11,0,0,],2,11,46.05,-1.417,22,1987,2020,FR,,CHASSIRON,,073140-99999_fig2.png
https://bioclimatic.github.io/predilection/psych/073150-99999_fig2.png,73150,99999,3,GsVt,101200,19.4,55.4,29,[,2006,11,27,],9,15,22,32,38,[,1,0,],28,361,[,26,251,0,69,14,0,1,],8,11,46.15,-1.15,10,1987,2016,FR,,LA ROCHELLE,,073150-99999_fig2.png
https://bioclimatic.github.io/predilection/psych/073160-99999_fig2.png,73160,99999,3,Gs__,101029,19.4,55.5,14,[,1998,10,15,],10,15,25,34,39,[,1,0,],14,363,[,27,255,0,71,9,0,1,],7,6,46.179,-1.195,23,2005,2020,FR,,ILE DE RE,,073160-99999_fig2.png
https://bioclimatic.github.io/predilection/psych/073170-99999_fig2.png,73170,99999,3,GsVt,100857,19.4,55.6,14,[,1613,21,41,],10,15,24,32,42,[,2,0,],7,352,[,10,239,0,83,18,1,1,],10,14,44.433,-1.25,39,2011,2020,FR,,BISCAROSSE / PARENTIS,,073170-99999_fig2.png
https://bioclimatic.github.io/predilection/psych/073175-99999_fig2.png,73175,99999,4,Gs__,100000,19.4,55.9,9,[,2819,5,2,],7,NaN,27,37,39,[,0,0,],9,359,[,63,258,0,35,3,0,0,],3,2,49.972,2.698,111,2008,2020,FR,,BRAY,,073175-99999_fig2.png
https://bioclimatic.github.io/predilection/psych/073300-99999_fig2.png,73300,99999,4,GsVt,101043,19.4,55.5,32,[,2300,17,19,],8,14,26,36,39,[,1,0,],32,362,[,39,250,0,60,11,0,1,],10,7,46.311,-0.402,62,1987,2020,FR,,SOUCHE,,073300-99999_fig2.png
https://bioclimatic.github.io/predilection/psych/073350-99999_fig2.png,73350,99999,4,GsVt,99852,19.4,55.9,33,[,2441,17,13,],7,14,27,36,40,[,1,0,],33,364,[,47,247,0,59,9,1,1,],9,5,46.588,0.307,129,1987,2020,FR,,BIARD,,073350-99999_fig2.png
https://bioclimatic.github.io/predilection/psych/073540-99999_fig2.png,73540,99999,4,GsVt,99920,19.4,55.9,4,[,2524,35,15,],9,NaN,28,37,42,[,3,0,],4,365,[,56,234,0,59,12,2,2,],14,7,46.862,1.731,161,2001,2004,FR,,DEOLS,,073540-99999_fig2.png
https://bioclimatic.github.io/predilection/psych/073600-99999_fig2.png,73600,99999,4,Gs__,95348,19.4,57.7,23,[,2838,12,3,],9,18,27,35,37,[,0,0,],21,356,[,65,241,0,43,6,1,0,],7,2,46.167,1.867,551,1988,2011,FR,,GUERET,,073600-99999_fig2.png
https://bioclimatic.github.io/predilection/psych/073610-99999_fig2.png,73610,99999,4,Gs__,97462,19.4,56.8,8,[,2735,9,6,],2,NaN,27,39,41,[,1,0,],8,360,[,62,243,0,48,7,0,0,],7,2,46.183,1.95,366,2013,2020,FR,,GUERET ST LAURENT,,073610-99999_fig2.png
https://bioclimatic.github.io/predilection/psych/073740-99999_fig2.png,73740,99999,4,GsVt,98800,19.4,56.3,34,[,2616,20,12,],6,11,28,37,41,[,2,0,],34,363,[,61,231,0,59,10,1,1,],11,5,46.17,3.404,249,1987,2020,FR,,CHARMEIL,,073740-99999_fig2.png
https://bioclimatic.github.io/predilection/psych/073790-99999_fig2.png,73790,99999,4,GsVt,98407,19.4,56.5,28,[,2694,17,13,],7,12,27,37,40,[,2,0,],24,360,[,64,228,0,56,10,1,1,],9,6,46.413,4.013,243,1990,2020,FR,,SAINT YAN,,073790-99999_fig2.png
https://bioclimatic.github.io/predilection/psych/073850-99999_fig2.png,73850,99999,4,GsVt,99190,19.4,56.2,31,[,2572,26,19,],9,15,28,37,41,[,1,0,],31,363,[,63,215,0,67,15,1,2,],15,9,46.295,4.796,222,1987,2020,FR,,CHARNAY,,073850-99999_fig2.png
https://bioclimatic.github.io/predilection/psych/073860-99999_fig2.png,73860,99999,4,GsVt,99445,19.4,56.1,16,[,2156,24,19,],5,9,23,30,34,[,1,0,],17,298,[,53,180,0,50,12,1,2,],13,8,47.033,5.417,195,2002,2020,FR,,DOLE-TAVAUX,,073860-99999_fig2.png
https://bioclimatic.github.io/predilection/psych/073900-99999_fig2.png,73900,99999,3,Gs__,98378,19.4,56.5,11,[,1569,13,6,],5,5,13,19,20,[,0,0,],15,209,[,35,131,0,35,7,1,0,],7,4,46.683,5.517,279,1991,2008,FR,,LONS-LE-SAUNIER,,073900-99999_fig2.png
https://bioclimatic.github.io/predilection/psych/073901-99999_fig2.png,73901,99999,4,Gs__,100617,19.4,55.6,13,[,2425,11,9,],10,14,27,36,39,[,1,0,],12,360,[,46,256,0,52,6,0,1,],6,3,47.56,-0.312,59,2006,2020,FR,,MARCE,,073901-99999_fig2.png
https://bioclimatic.github.io/predilection/psych/074000-99999_fig2.png,74000,99999,3,Gs__,101253,19.4,55.4,3,[,1746,4,13,],2,10,18,27,33,[,0,0,],2,335,[,16,240,0,71,8,0,0,],3,6,45.7,-1.233,6,1988,1989,FR,,LA COUBRE,,074000-99999_fig2.png
https://bioclimatic.github.io/predilection/psych/074120-99999_fig2.png,74120,99999,3,GsVt,100929,19.4,55.5,32,[,2064,28,32,],9,15,27,36,41,[,2,0,],31,363,[,31,240,0,74,15,1,2,],15,10,45.658,-0.318,31,1987,2020,FR,,CHATEAUBERNARD,,074120-99999_fig2.png
https://bioclimatic.github.io/predilection/psych/074200-99999_fig2.png,74200,99999,3,Hp__,99737,19.4,56,10,[,750,9,3,],2,1,7,9,10,[,0,0,],25,124,[,8,88,0,25,3,0,0,],4,2,45.717,0.217,133,2010,2020,FR,,CHAMPNIERS,,074200-99999_fig2.png
https://bioclimatic.github.io/predilection/psych/074280-99999_fig2.png,74280,99999,3,Gs__,100647,19.4,55.6,20,[,632,7,11,],0,0,8,11,13,[,1,0,],20,104,[,10,68,0,21,4,0,1,],4,3,45.198,0.816,100,1988,2020,FR,,BASSILLAC,,074280-99999_fig2.png
https://bioclimatic.github.io/predilection/psych/074340-99999_fig2.png,74340,99999,4,GsVt,96584,19.4,57.2,32,[,2660,16,9,],9,14,27,35,38,[,0,0,],32,364,[,52,251,0,50,9,1,1,],9,4,45.863,1.179,396,1987,2020,FR,,BELLEGARDE,,074340-99999_fig2.png
https://bioclimatic.github.io/predilection/psych/074380-99999_fig2.png,74380,99999,3,GsVt,100436,19.4,55.7,27,[,1903,23,24,],5,9,22,31,34,[,3,0,],29,299,[,35,192,0,57,12,1,2,],13,8,45.151,1.469,116,1990,2020,FR,,LA ROCHE,,074380-99999_fig2.png
https://bioclimatic.github.io/predilection/psych/074600-99999_fig2.png,74600,99999,4,GsVt,97425,19.4,56.9,33,[,2455,22,7,],7,0,27,36,39,[,1,0,],34,353,[,51,228,0,60,11,2,1,],12,4,45.787,3.169,332,1987,2020,FR,,AUVERGNE,,074600-99999_fig2.png
https://bioclimatic.github.io/predilection/psych/074690-99999_fig2.png,74690,99999,5,Gs__,89852,19.4,60.1,4,[,3944,0,0,],0,NaN,NaN,NaN,NaN,[,0,0,],2,354,[,129,211,0,14,0,0,0,],0,0,45.93,6.88,1042,2006,2007,FR,,CHAMONIX,,074690-99999_fig2.png
https://bioclimatic.github.io/predilection/psych/074710-99999_fig2.png,74710,99999,5,Gs__,92231,19.4,59,32,[,3391,1,0,],0,0,0,20,20,[,0,0,],33,351,[,95,223,0,32,1,0,0,],1,0,45.081,3.763,832,1987,2020,FR,,LOUDES,,074710-99999_fig2.png
https://bioclimatic.github.io/predilection/psych/074750-99999_fig2.png,74750,99999,4,GsVt,96605,19.4,57.2,32,[,2604,27,4,],9,22,29,38,40,[,0,0,],32,363,[,59,227,0,61,12,3,1,],15,3,45.541,4.296,404,1987,2020,FR,,BOUTHEON,,074750-99999_fig2.png
https://bioclimatic.github.io/predilection/psych/074760-99999_fig2.png,74760,99999,3,GsVt,100872,19.4,55.6,14,[,1888,85,66,],7,16,29,38,43,[,6,0,],14,363,[,21,214,0,81,38,3,6,],46,19,43.907,4.902,38,2005,2020,FR,,CAUMONT,,074760-99999_fig2.png
https://bioclimatic.github.io/predilection/psych/074765-99999_fig2.png,74765,99999,4,Gs__,100140,19.4,55.8,10,[,2627,6,3,],5,NaN,25,36,40,[,1,0,],9,359,[,50,262,0,43,4,0,0,],4,2,49.097,2.041,99,2009,2020,FR,,CORMEILLES EN VEXIN,,074765-99999_fig2.png
https://bioclimatic.github.io/predilection/psych/074770-99999_fig2.png,74770,99999,3,Gs__,97843,19.4,56.7,12,[,855,7,2,],4,0,8,10,11,[,0,0,],26,118,[,17,80,0,19,3,0,0,],4,1,45.933,4.383,720,1988,2020,FR,,LES SAUVAGES,,074770-99999_fig2.png
https://bioclimatic.github.io/predilection/psych/074800-99999_fig2.png,74800,99999,4,GsVt,98919,19.4,56.3,34,[,2283,61,22,],14,19,30,38,42,[,1,0,],33,358,[,50,204,0,74,22,4,4,],28,9,45.727,4.944,201,1987,2020,FR,,BRON,,074800-99999_fig2.png
https://bioclimatic.github.io/predilection/psych/074810-99999_fig2.png,74810,99999,4,GsVt,98466,19.4,56.5,34,[,2461,44,15,],14,19,29,38,41,[,1,0,],34,363,[,60,211,0,69,17,4,2,],22,7,45.726,5.091,250,1987,2020,FR,,SAINT EXUPERY,,074810-99999_fig2.png
https://bioclimatic.github.io/predilection/psych/074820-99999_fig2.png,74820,99999,4,GsVt,98826,19.4,56.3,30,[,2565,27,15,],7,15,26,35,39,[,1,0,],31,349,[,67,207,0,59,13,2,1,],14,7,45.987,5.328,251,1987,2020,FR,,AMBERIEU,,074820-99999_fig2.png
https://bioclimatic.github.io/predilection/psych/074850-99999_fig2.png,74850,99999,4,GsVt,98814,19.4,56.3,5,[,2454,28,72,],2,14,25,35,39,[,1,0,],4,337,[,67,181,0,65,21,1,2,],19,19,45.167,5.767,212,1987,1991,FR,,GRENOBLE,,074850-99999_fig2.png
https://bioclimatic.github.io/predilection/psych/074860-99999_fig2.png,74860,99999,4,GsVt,96770,19.4,57.1,33,[,2738,19,9,],7,14,28,36,39,[,0,0,],33,363,[,73,214,0,62,12,1,1,],12,4,45.363,5.329,397,1987,2020,FR,,SAINT GEOIRS,,074860-99999_fig2.png
https://bioclimatic.github.io/predilection/psych/074870-99999_fig2.png,74870,99999,4,GsVt,99180,19.4,56.2,15,[,2475,24,49,],7,14,27,37,41,[,4,0,],14,358,[,65,198,0,75,18,0,2,],16,15,45.22,5.85,220,2006,2020,FR,,GRENONBLE LVD,,074870-99999_fig2.png
https://bioclimatic.github.io/predilection/psych/074900-99999_fig2.png,74900,99999,4,GsVt,95899,19.4,57.5,12,[,2534,16,6,],10,0,26,34,35,[,0,0,],11,328,[,72,189,0,57,9,0,1,],10,3,45.929,6.099,464,2009,2020,FR,,MEYTHET,,074900-99999_fig2.png
https://bioclimatic.github.io/predilection/psych/074910-99999_fig2.png,74910,99999,4,GsVt,98525,19.4,56.4,30,[,2644,16,24,],6,14,27,36,39,[,1,0,],30,363,[,64,216,0,68,14,0,1,],12,10,45.638,5.88,237,1987,2020,FR,,AIX LES BAINS,,074910-99999_fig2.png
https://bioclimatic.github.io/predilection/psych/074940-99999_fig2.png,74940,99999,3,Gs__,95885,19.4,57.5,5,[,344,1,0,],2,0,3,4,4,[,0,0,],25,44,[,10,25,0,8,1,0,0,],1,0,45.933,6.1,463,2008,2012,FR,,ANNECY / MEYTHET,,074940-99999_fig2.png
https://bioclimatic.github.io/predilection/psych/074970-99999_fig2.png,74970,99999,5,Gs__,91788,19.4,59.2,34,[,3306,4,0,],0,NaN,NaN,NaN,NaN,[,0,0,],34,361,[,78,228,0,51,4,0,0,],4,0,45.617,6.767,868,1987,2020,FR,,BOURG ST-MAURICE,,074970-99999_fig2.png
https://bioclimatic.github.io/predilection/psych/075000-99999_fig2.png,75000,99999,3,GsVt,101200,19.4,55.4,25,[,1317,13,45,],7,11,18,24,31,[,1,0,],31,282,[,12,187,0,65,17,0,1,],8,17,44.633,-1.25,10,1987,2020,FR,,CAP FERRET,,075000-99999_fig2.png
https://bioclimatic.github.io/predilection/psych/075020-99999_fig2.png,75020,99999,3,GsVt,101049,19.4,55.5,32,[,1960,16,45,],4,12,23,34,41,[,3,0,],32,358,[,26,244,0,72,15,0,1,],10,13,44.533,-1.125,26,1987,2020,FR,,CAZAUX,,075020-99999_fig2.png
https://bioclimatic.github.io/predilection/psych/075030-99999_fig2.png,75030,99999,3,GsVt,101356,19.4,55.4,27,[,1335,14,48,],6,11,17,25,31,[,2,0,],33,281,[,12,189,0,64,15,0,1,],8,13,44.433,-1.25,39,1987,2020,FR,,BISCAROSSE/PARENTIS,,075030-99999_fig2.png
https://bioclimatic.github.io/predilection/psych/075100-99999_fig2.png,75100,99999,3,GsVt,100608,19.4,55.7,33,[,1969,29,48,],7,13,26,36,42,[,4,0,],33,364,[,26,240,0,77,17,1,3,],16,14,44.828,-0.716,49,1987,2020,FR,,MERIGNAC,,075100-99999_fig2.png
https://bioclimatic.github.io/predilection/psych/075240-99999_fig2.png,75240,99999,4,GsVt,100579,19.4,55.7,34,[,2113,26,63,],5,13,25,36,41,[,5,0,],34,363,[,36,230,0,75,20,0,2,],17,18,44.175,0.591,62,1987,2020,FR,,LA GARENNE,,075240-99999_fig2.png
https://bioclimatic.github.io/predilection/psych/075300-99999_fig2.png,75300,99999,4,GsVt,100723,19.4,55.6,30,[,2212,19,46,],3,12,25,36,41,[,4,0,],30,362,[,40,235,0,70,16,0,1,],12,14,44.825,0.519,52,1989,2020,FR,,ROUMANIERE,,075300-99999_fig2.png
https://bioclimatic.github.io/predilection/psych/075350-99999_fig2.png,75350,99999,4,GsVt,98734,19.4,56.4,32,[,2328,28,22,],8,15,27,37,42,[,3,0,],32,362,[,41,240,0,64,13,2,2,],14,8,44.75,1.4,261,1987,2020,FR,,GOURDON,,075350-99999_fig2.png
https://bioclimatic.github.io/predilection/psych/075400-99999_fig2.png,75400,99999,3,GsVt,100560,19.4,55.7,18,[,1940,48,50,],9,15,27,36,41,[,5,0,],19,343,[,32,209,0,76,21,1,4,],25,15,44.026,1.378,107,2002,2020,FR,,MONTAUBAN,,075400-99999_fig2.png
https://bioclimatic.github.io/predilection/psych/075490-99999_fig2.png,75490,99999,4,Gs__,93923,19.4,58.3,32,[,2967,6,1,],3,5,24,32,32,[,0,0,],33,351,[,68,237,0,41,4,1,0,],4,1,44.891,2.422,639,1987,2020,FR,,AURILLAC,,075490-99999_fig2.png
https://bioclimatic.github.io/predilection/psych/075520-99999_fig2.png,75520,99999,4,Gs__,94545,19.4,58,22,[,2293,13,2,],6,0,20,27,28,[,0,0,],25,294,[,52,193,0,42,6,1,0,],7,1,44.408,2.483,582,1999,2020,FR,,MARCILLAC,,075520-99999_fig2.png
https://bioclimatic.github.io/predilection/psych/075540-99999_fig2.png,75540,99999,3,Gs__,91143,19.4,59.5,15,[,1476,1,0,],0,0,0,0,0,[,0,0,],31,160,[,37,103,0,19,1,0,0,],1,0,44.533,3.45,716,1987,2020,FR,,MENDE,,075540-99999_fig2.png
https://bioclimatic.github.io/predilection/psych/075550-99999_fig2.png,75550,99999,3,Gs__,90007,19.4,60,11,[,1900,1,0,],0,0,0,0,0,[,0,0,],18,185,[,51,119,0,15,0,0,0,],1,0,44.178,2.515,617,1991,2008,FR,,CASSAGNES BEGONHES,,075550-99999_fig2.png
https://bioclimatic.github.io/predilection/psych/075580-99999_fig2.png,75580,99999,4,Gs__,93530,19.4,58.5,28,[,2885,10,1,],5,13,26,36,37,[,0,0,],28,359,[,61,239,0,52,6,1,0,],7,1,44.117,3.017,720,1987,2020,FR,,MILLAU,,075580-99999_fig2.png
https://bioclimatic.github.io/predilection/psych/075600-99999_fig2.png,75600,99999,6,Gs__,84388,19.4,62.8,28,[,4597,0,0,],0,NaN,NaN,NaN,NaN,[,0,0,],25,361,[,143,209,0,9,0,0,0,],0,0,44.117,3.583,1565,1990,2020,FR,,MONT AIGOUAL,,075600-99999_fig2.png
https://bioclimatic.github.io/predilection/psych/075630-99999_fig2.png,75630,99999,3,GsVt,101163,19.4,55.5,15,[,1837,89,64,],9,16,29,39,44,[,7,0,],15,362,[,19,211,0,83,39,3,7,],47,20,43.9,4.9,48,2006,2020,FR,,AVIGNON,,075630-99999_fig2.png
https://bioclimatic.github.io/predilection/psych/075700-99999_fig2.png,75700,99999,3,GsVt,98578,19.4,56.4,21,[,1476,44,9,],9,5,19,25,28,[,1,0,],28,246,[,14,157,0,51,19,3,2,],23,4,44.533,4.367,280,1990,2020,FR,,LANAS SYN,,075700-99999_fig2.png
https://bioclimatic.github.io/predilection/psych/075770-99999_fig2.png,75770,99999,3,GsVt,100889,19.4,55.6,33,[,1967,61,47,],10,15,27,36,41,[,3,0,],34,352,[,26,214,0,75,31,2,4,],35,16,44.583,4.733,74,1987,2020,FR,,MONTELIMAR/ANCONE,,075770-99999_fig2.png
https://bioclimatic.github.io/predilection/psych/075790-99999_fig2.png,75790,99999,3,GsVt,100666,19.4,55.6,31,[,1929,83,70,],8,16,28,38,43,[,6,0,],31,362,[,22,217,0,78,36,3,6,],42,19,44.14,4.867,60,1987,2020,FR,,CARITAT,,075790-99999_fig2.png
https://bioclimatic.github.io/predilection/psych/075795-99999_fig2.png,75795,99999,3,GsAc,99866,19.4,55.9,6,[,2016,157,71,],13,23,33,40,45,[,5,0,],6,359,[,32,207,0,67,30,7,16,],53,20,44.922,4.97,160,2015,2020,FR,,CHABEUIL,,075795-99999_fig2.png
https://bioclimatic.github.io/predilection/psych/075860-99999_fig2.png,75860,99999,3,GsVt,100296,19.4,55.8,26,[,1538,61,35,],7,10,23,31,34,[,6,0,],32,280,[,21,163,0,63,27,2,4,],32,12,44.083,5.05,105,1987,2019,FR,,CARPENTRAS,,075860-99999_fig2.png
https://bioclimatic.github.io/predilection/psych/075880-99999_fig2.png,75880,99999,4,GsVt,96302,19.4,57.3,34,[,2351,33,5,],8,15,31,40,41,[,0,0,],34,360,[,24,239,0,73,22,2,0,],24,2,44.067,6,461,1987,2020,FR,,ST-AUBAN-SUR-DURANC,,075880-99999_fig2.png
https://bioclimatic.github.io/predilection/psych/075910-99999_fig2.png,75910,99999,4,Gs__,91689,19.4,59.3,34,[,3021,7,0,],0,NaN,NaN,NaN,NaN,[,0,0,],34,362,[,36,260,0,59,7,0,0,],7,0,44.567,6.5,876,1987,2020,FR,,EMBRUN,,075910-99999_fig2.png
https://bioclimatic.github.io/predilection/psych/076000-99999_fig2.png,76000,99999,3,HpVt,101413,19.4,55.4,32,[,1414,9,94,],4,11,18,27,37,[,2,0,],32,336,[,9,226,0,76,25,0,0,],7,24,43.4,-1.683,25,1990,2020,FR,,SOCOA,,076000-99999_fig2.png
https://bioclimatic.github.io/predilection/psych/076020-99999_fig2.png,76020,99999,3,GsVt,100487,19.4,55.7,33,[,1689,12,80,],3,12,21,31,39,[,3,0,],33,363,[,14,247,0,79,22,0,1,],8,21,43.468,-1.523,75,1987,2020,FR,,ANGLET,,076020-99999_fig2.png
https://bioclimatic.github.io/predilection/psych/076030-99999_fig2.png,76030,99999,3,GsVt,101282,19.4,55.4,27,[,1417,16,78,],4,9,18,26,31,[,5,0,],31,276,[,18,178,0,59,19,0,2,],10,18,43.683,-1.067,33,1987,2020,FR,,DAX SEYRESSE,,076030-99999_fig2.png
https://bioclimatic.github.io/predilection/psych/076070-99999_fig2.png,76070,99999,4,GsVt,100628,19.4,55.6,30,[,2097,22,66,],4,13,24,35,41,[,5,0,],30,362,[,36,233,0,72,19,0,2,],13,18,43.912,-0.508,62,1987,2020,FR,,MONT DE MARSAN,,076070-99999_fig2.png
https://bioclimatic.github.io/predilection/psych/076100-99999_fig2.png,76100,99999,3,GsVt,99150,19.4,56.2,32,[,2050,16,64,],3,11,23,33,40,[,3,0,],32,364,[,28,247,0,70,18,0,1,],11,17,43.38,-0.419,188,1987,2020,FR,,PAU PYRENEES,,076100-99999_fig2.png
https://bioclimatic.github.io/predilection/psych/076210-99999_fig2.png,76210,99999,4,GsVt,97039,19.4,57,33,[,2303,13,37,],3,11,23,34,40,[,1,0,],33,363,[,37,250,0,61,14,0,1,],8,12,43.179,-0.006,384,1987,2020,FR,,LOURDES,,076210-99999_fig2.png
https://bioclimatic.github.io/predilection/psych/076220-99999_fig2.png,76220,99999,4,GsVt,100324,19.4,55.8,34,[,2204,21,49,],5,14,25,36,41,[,4,0,],34,362,[,39,232,0,72,17,0,2,],14,15,43.688,0.602,125,1987,2020,FR,,LAMOTHE,,076220-99999_fig2.png
https://bioclimatic.github.io/predilection/psych/076230-99999_fig2.png,76230,99999,4,GsVt,99737,19.4,56,2,[,2263,25,52,],0,9,24,35,44,[,4,0,],1,345,[,51,213,0,59,19,0,3,],15,16,43.633,0.6,133,1987,1987,FR,,AUCH-IN-ARMAGNAC,,076230-99999_fig2.png
https://bioclimatic.github.io/predilection/psych/076270-99999_fig2.png,76270,99999,4,GsVt,96999,19.4,57,33,[,2399,10,23,],4,11,24,35,39,[,1,0,],33,362,[,38,254,0,59,11,0,0,],7,9,43.008,1.103,417,1987,2020,FR,,ANTICHAN,,076270-99999_fig2.png
https://bioclimatic.github.io/predilection/psych/076280-99999_fig2.png,76280,99999,3,GsVt,99609,19.4,56,10,[,2001,28,56,],6,16,26,36,41,[,5,0,],9,359,[,29,228,0,80,19,0,3,],18,16,43.45,1.25,189,2011,2020,FR,,MURET-LHERM,,076280-99999_fig2.png
https://bioclimatic.github.io/predilection/psych/076293-99999_fig2.png,76293,99999,3,GsEv,99068,19.4,56.2,7,[,1579,78,81,],5,15,24,30,36,[,3,0,],7,308,[,18,192,0,64,24,2,8,],30,21,43.449,1.263,190,2014,2020,FR,,LHERM,,076293-99999_fig2.png
https://bioclimatic.github.io/predilection/psych/076300-99999_fig2.png,76300,99999,3,GsVt,99499,19.4,56.1,34,[,2017,44,48,],9,16,27,36,42,[,3,0,],34,363,[,29,229,0,78,23,1,3,],25,15,43.629,1.364,152,1987,2020,FR,,BLAGNAC,,076300-99999_fig2.png
https://bioclimatic.github.io/predilection/psych/076303-99999_fig2.png,76303,99999,3,GsVt,100011,19.4,55.9,6,[,1968,14,26,],9,16,24,33,40,[,1,0,],4,340,[,27,226,0,73,13,0,1,],10,8,44.017,1.383,110,1999,2002,FR,,MONTAUBAN,,076303-99999_fig2.png
https://bioclimatic.github.io/predilection/psych/076310-99999_fig2.png,76310,99999,3,GsVt,99794,19.4,56,27,[,1508,38,47,],8,12,21,28,33,[,3,0,],27,276,[,23,169,0,61,19,1,3,],21,13,43.546,1.368,163,1999,2020,FR,,FRANCAZAL,,076310-99999_fig2.png
https://bioclimatic.github.io/predilection/psych/076320-99999_fig2.png,76320,99999,4,GsVt,99797,19.4,56,28,[,2164,50,35,],11,16,29,38,43,[,4,0,],28,363,[,36,226,0,73,22,2,3,],26,13,43.914,2.113,172,1990,2020,FR,,LE SEQUESTRE,,076320-99999_fig2.png
https://bioclimatic.github.io/predilection/psych/076350-99999_fig2.png,76350,99999,3,GsVt,99784,19.4,56,33,[,1949,38,73,],6,15,24,34,41,[,3,0,],33,363,[,24,230,0,78,28,1,3,],25,20,43.216,2.306,132,1987,2020,FR,,SALVAZA,,076350-99999_fig2.png
https://bioclimatic.github.io/predilection/psych/076380-99999_fig2.png,76380,99999,3,HpVt,101592,19.4,55.3,15,[,1635,60,127,],6,14,22,31,41,[,2,0,],15,363,[,8,222,0,87,41,1,3,],37,26,43.317,3.35,16,2006,2020,FR,,BEZIERS VIAS,,076380-99999_fig2.png
https://bioclimatic.github.io/predilection/psych/076410-99999_fig2.png,76410,99999,3,HpVt,100838,19.4,55.6,25,[,1104,50,134,],5,10,15,20,29,[,1,0,],33,262,[,2,162,0,59,33,2,4,],27,24,43.4,3.7,81,1987,2020,FR,,SETE,,076410-99999_fig2.png
https://bioclimatic.github.io/predilection/psych/076415-99999_fig2.png,76415,99999,3,HpVt,101120,19.4,55.5,20,[,992,35,70,],2,7,12,16,21,[,1,0,],21,217,[,5,134,0,51,24,1,2,],21,15,43.324,3.354,17,2006,2020,FR,,VIAS,,076415-99999_fig2.png
https://bioclimatic.github.io/predilection/psych/076430-99999_fig2.png,76430,99999,3,HpVt,101243,19.4,55.4,34,[,1644,76,178,],4,12,22,30,41,[,3,0,],34,364,[,8,221,0,80,46,3,6,],42,34,43.576,3.963,5,1987,2020,FR,,MEDITERRANEE,,076430-99999_fig2.png
https://bioclimatic.github.io/predilection/psych/076450-99999_fig2.png,76450,99999,3,HpEv,100999,19.4,55.5,34,[,1744,98,84,],8,14,26,36,43,[,5,0,],34,362,[,9,221,0,80,39,6,7,],48,22,43.867,4.4,62,1987,2020,FR,,NIMES/COURBESSAC,,076450-99999_fig2.png
https://bioclimatic.github.io/predilection/psych/076460-99999_fig2.png,76460,99999,3,GsEv,100169,19.4,55.8,33,[,1757,91,123,],6,13,25,34,42,[,4,0,],33,363,[,10,224,0,78,40,4,7,],47,26,43.757,4.416,94,1987,2020,FR,,GARONS,,076460-99999_fig2.png
https://bioclimatic.github.io/predilection/psych/076470-99999_fig2.png,76470,99999,3,HpEv,101044,19.4,55.5,30,[,1467,83,110,],6,13,22,30,37,[,4,0,],32,316,[,7,190,0,71,38,3,7,],43,25,43.523,4.924,25,1987,2020,FR,,LE TUBE,,076470-99999_fig2.png
https://bioclimatic.github.io/predilection/psych/076480-99999_fig2.png,76480,99999,3,GsVt,100580,19.4,55.7,27,[,1491,52,49,],5,11,22,30,34,[,3,0,],27,295,[,13,178,0,70,29,2,3,],32,15,43.606,5.109,59,1990,2020,FR,,SALON,,076480-99999_fig2.png
https://bioclimatic.github.io/predilection/psych/076490-99999_fig2.png,76490,99999,3,GsVt,100311,19.4,55.8,9,[,805,18,11,],2,2,12,16,18,[,1,0,],9,149,[,11,87,0,39,10,1,1,],11,4,43.506,5.368,112,1990,2000,FR,,AIX LES MILLES,,076490-99999_fig2.png
https://bioclimatic.github.io/predilection/psych/076500-99999_fig2.png,76500,99999,3,GsEv,100924,19.4,55.5,34,[,1633,99,119,],10,16,27,35,42,[,3,0,],34,363,[,13,209,0,86,44,3,8,],52,29,43.436,5.214,23,1987,2020,FR,,PROVENCE,,076500-99999_fig2.png
https://bioclimatic.github.io/predilection/psych/076520-99999_fig2.png,76520,99999,3,HpVt,100490,19.4,55.7,5,[,1467,32,270,],6,13,20,27,35,[,0,0,],4,362,[,6,227,0,75,53,0,1,],30,50,43.267,5.3,70,1987,1991,FR,,CAP POMEGUES,,076520-99999_fig2.png
https://bioclimatic.github.io/predilection/psych/076530-99999_fig2.png,76530,99999,3,HpVt,101000,19.4,55.5,5,[,537,23,106,],0,3,6,8,12,[,2,0,],17,129,[,2,80,0,22,24,0,1,],14,27,43.333,5.05,27,1987,2006,FR,,CAP COURONNE,,076530-99999_fig2.png
https://bioclimatic.github.io/predilection/psych/076560-99999_fig2.png,76560,99999,3,HpVt,97598,19.4,56.8,5,[,479,13,53,],1,4,6,8,11,[,0,0,],16,103,[,1,69,0,19,13,0,1,],9,10,43.183,5.583,315,1987,1991,FR,,BEC DE LAIGLE,,076560-99999_fig2.png
https://bioclimatic.github.io/predilection/psych/076600-99999_fig2.png,76600,99999,3,HpVt,101366,19.4,55.4,25,[,1033,52,206,],6,11,17,24,31,[,4,0,],28,282,[,1,169,0,66,42,1,3,],34,37,43.1,5.933,25,1987,2016,FR,,TOULON,,076600-99999_fig2.png
https://bioclimatic.github.io/predilection/psych/076610-99999_fig2.png,76610,99999,3,HpVt,99882,19.4,55.9,32,[,1443,48,228,],6,13,21,29,38,[,1,0,],31,356,[,2,226,0,77,47,1,3,],35,39,43.083,5.933,134,1987,2019,FR,,CAP CEPET,,076610-99999_fig2.png
https://bioclimatic.github.io/predilection/psych/076660-99999_fig2.png,76660,99999,3,HpVt,101251,19.4,55.4,18,[,1420,56,204,],7,14,19,26,39,[,1,0,],18,359,[,2,222,0,83,47,2,3,],32,36,42.917,3.067,50,2002,2020,FR,,LEUCATE,,076660-99999_fig2.png
https://bioclimatic.github.io/predilection/psych/076670-99999_fig2.png,76670,99999,3,HpVt,101277,19.4,55.4,32,[,1373,66,227,],2,11,22,29,40,[,1,0,],32,363,[,1,222,0,83,51,2,4,],42,43,43.097,6.146,2,1987,2020,FR,,LE PALYVESTRE,,076670-99999_fig2.png
https://bioclimatic.github.io/predilection/psych/076700-99999_fig2.png,76700,99999,3,HpVt,99570,19.4,56,23,[,991,33,273,],3,8,14,20,26,[,2,0,],19,261,[,1,165,0,53,39,0,3,],24,37,43,6.233,147,1987,2012,FR,,PORQUEROLLES,,076700-99999_fig2.png
https://bioclimatic.github.io/predilection/psych/076750-99999_fig2.png,76750,99999,3,GsEv,100339,19.4,55.8,33,[,1678,114,79,],7,14,28,37,44,[,7,0,],29,354,[,15,208,0,77,40,6,8,],53,23,43.385,6.387,81,1990,2020,FR,,LE CANNET,,076750-99999_fig2.png
https://bioclimatic.github.io/predilection/psych/076770-99999_fig2.png,76770,99999,3,HpVt,99987,19.4,55.9,5,[,426,26,173,],1,4,7,9,14,[,1,0,],11,119,[,1,74,0,19,23,0,2,],17,23,43.2,6.683,112,1987,1991,FR,,CAPE CAMARAT,,076770-99999_fig2.png
https://bioclimatic.github.io/predilection/psych/076780-99999_fig2.png,76780,99999,3,HpVt,100095,19.4,55.8,25,[,856,37,227,],5,9,14,19,26,[,2,0,],30,244,[,0,152,0,51,38,0,3,],26,36,43.033,6.467,131,1987,2020,FR,,TOULON/ILE DU LEVAN,,076780-99999_fig2.png
https://bioclimatic.github.io/predilection/psych/076800-99999_fig2.png,76800,99999,3,HpAc,101440,19.4,55.3,7,[,1463,91,422,],0,13,22,28,42,[,5,0,],6,346,[,4,214,0,63,53,1,11,],48,57,43.417,6.75,6,1987,1994,FR,,SAINT-RAPHAEL,,076800-99999_fig2.png
https://bioclimatic.github.io/predilection/psych/076840-99999_fig2.png,76840,99999,3,HpVt,101215,19.4,55.4,33,[,1489,57,219,],6,13,22,29,39,[,1,0,],29,357,[,3,221,0,81,47,1,4,],38,43,43.542,6.953,4,1989,2020,FR,,MANDELIEU,,076840-99999_fig2.png
https://bioclimatic.github.io/predilection/psych/076880-99999_fig2.png,76880,99999,3,HpVt,100344,19.4,55.8,5,[,515,41,200,],2,5,9,11,16,[,0,0,],12,138,[,0,86,0,24,24,0,4,],22,27,43.567,7.133,82,1987,1991,FR,,LA GAROUPE,,076880-99999_fig2.png
https://bioclimatic.github.io/predilection/psych/076900-99999_fig2.png,76900,99999,3,HpVt,100997,19.4,55.5,34,[,1418,66,299,],10,15,22,28,38,[,1,0,],34,363,[,1,223,0,78,56,0,5,],45,54,43.658,7.216,4,1987,2020,FR,,COTE D AZUR,,076900-99999_fig2.png
https://bioclimatic.github.io/predilection/psych/076950-99999_fig2.png,76950,99999,3,HpVt,99847,19.4,55.9,11,[,704,29,216,],4,7,10,13,19,[,1,0,],19,194,[,1,120,0,39,31,0,3,],20,31,43.683,7.333,144,1987,2007,FR,,CAP FERRAT,,076950-99999_fig2.png
https://bioclimatic.github.io/predilection/psych/077470-99999_fig2.png,77470,99999,3,HpEv,100771,19.4,55.6,33,[,1473,95,150,],6,14,24,32,41,[,3,0,],33,363,[,4,221,0,82,45,5,7,],48,31,42.74,2.871,44,1987,2020,FR,,RIVESALTES,,077470-99999_fig2.png
https://bioclimatic.github.io/predilection/psych/077490-99999_fig2.png,77490,99999,3,HpVt,100709,19.4,55.6,32,[,1335,47,181,],7,14,21,27,37,[,0,0,],32,354,[,2,222,0,81,45,1,3,],31,37,42.517,3.133,86,1987,2020,FR,,CAP BEAR,,077490-99999_fig2.png
https://bioclimatic.github.io/predilection/psych/077520-99999_fig2.png,77520,99999,3,HpVt,100845,19.4,55.6,12,[,486,47,228,],1,5,10,13,18,[,3,0,],22,157,[,0,89,0,34,30,0,4,],26,33,41.917,8.617,40,1987,2009,FR,,LA PARATA,,077520-99999_fig2.png
https://bioclimatic.github.io/predilection/psych/077530-99999_fig2.png,77530,99999,3,HpVt,99873,19.4,55.9,24,[,897,53,191,],9,13,17,22,30,[,0,0,],30,272,[,1,160,0,66,41,1,3,],34,36,42.633,8.917,153,1989,2020,FR,,ILE ROUSSE,,077530-99999_fig2.png
https://bioclimatic.github.io/predilection/psych/077540-99999_fig2.png,77540,99999,3,HpEv,100591,19.4,55.7,34,[,1302,108,163,],6,14,25,33,42,[,3,0,],34,362,[,1,216,0,85,48,4,8,],54,36,42.531,8.793,64,1987,2020,FR,,SAINT CATHERINE,,077540-99999_fig2.png
https://bioclimatic.github.io/predilection/psych/077560-99999_fig2.png,77560,99999,3,HpVt,97749,19.4,56.7,2,[,1635,26,381,],4,11,18,25,35,[,0,0,],1,359,[,7,233,0,47,72,0,0,],29,66,42.517,8.683,302,1987,1987,FR,,CAPE CAVALLO,,077560-99999_fig2.png
https://bioclimatic.github.io/predilection/psych/077610-99999_fig2.png,77610,99999,3,HpVt,101185,19.4,55.4,34,[,1456,44,189,],4,12,23,31,40,[,2,0,],33,364,[,1,227,0,87,47,0,2,],34,44,41.924,8.803,6,1987,2020,FR,,CAMPO DELL ORO,,077610-99999_fig2.png
https://bioclimatic.github.io/predilection/psych/077650-99999_fig2.png,77650,99999,3,HpVt,101038,19.4,55.5,32,[,1285,97,259,],8,14,24,31,40,[,2,0,],28,358,[,1,214,0,78,57,1,7,],56,50,41.924,9.406,8,1992,2020,FR,,SOLENZARA,,077650-99999_fig2.png
https://bioclimatic.github.io/predilection/psych/077680-99999_fig2.png,77680,99999,3,HpVt,100510,19.4,55.7,12,[,406,57,239,],0,4,7,9,14,[,4,0,],29,136,[,0,77,0,23,28,0,7,],27,34,41.6,9.367,68,1987,2020,FR,,LA CHIAPPA,,077680-99999_fig2.png
https://bioclimatic.github.io/predilection/psych/077700-99999_fig2.png,77700,99999,3,HpVt,100270,19.4,55.8,30,[,1187,49,501,],6,13,19,26,37,[,6,0,],30,360,[,1,220,0,67,67,0,5,],36,70,41.367,9.167,116,1987,2020,FR,,CAP PERTUSATO,,077700-99999_fig2.png
https://bioclimatic.github.io/predilection/psych/077750-99999_fig2.png,77750,99999,3,HpAc,100758,19.4,55.6,18,[,1137,111,408,],8,15,23,29,40,[,3,0,],18,360,[,1,209,0,76,62,1,11,],61,62,42.267,9.533,74,2002,2020,FR,,ALISTRO,,077750-99999_fig2.png
https://bioclimatic.github.io/predilection/psych/077800-99999_fig2.png,77800,99999,3,HpAc,100991,19.4,55.5,30,[,1211,143,291,],1,15,25,33,41,[,10,0,],31,351,[,2,202,0,79,48,2,18,],61,52,41.501,9.098,26,1987,2020,FR,,SUD CORSE,,077800-99999_fig2.png
https://bioclimatic.github.io/predilection/psych/077850-99999_fig2.png,77850,99999,3,HpAc,100322,19.4,55.8,30,[,979,106,366,],8,15,21,27,36,[,4,0,],31,322,[,0,184,0,71,56,1,10,],55,57,43,9.367,113,1987,2020,FR,,CAP CORSE,,077850-99999_fig2.png
https://bioclimatic.github.io/predilection/psych/077900-99999_fig2.png,77900,99999,3,HpVt,101145,19.4,55.5,32,[,1340,77,325,],4,11,21,29,37,[,3,0,],33,353,[,1,216,0,71,59,0,5,],50,56,42.553,9.484,8,1987,2020,FR,,PORETTA,,077900-99999_fig2.png
https://bioclimatic.github.io/predilection/psych/077910-99999_fig2.png,77910,99999,3,HpVt,99890,19.4,55.9,13,[,471,34,193,],1,5,8,10,14,[,1,0,],29,143,[,0,86,0,27,28,0,3,],22,29,42.8,9.483,120,1987,2020,FR,,CAPE SAGRO,,077910-99999_fig2.png
https://bioclimatic.github.io/predilection/psych/995870-99999_fig2.png,995870,99999,3,Hp__,101289,19.4,55.4,3,[,126,0,0,],0,0,0,0,0,[,0,0,],14,23,[,0,22,0,1,0,0,0,],0,0,48.5,-5.6,3,2004,2004,FR,,DATA BUOY 62052,,995870-99999_fig2.png
https://bioclimatic.github.io/predilection/psych/996080-99999_fig2.png,996080,99999,3,HpVt,101289,19.4,55.4,0,[,282,13,0,],0,0,0,0,0,[,0,0,],11,93,[,0,57,0,18,18,0,0,],9,19,43.4,7.8,3,2002,2008,FR,,NICE BUOY 61001,,996080-99999_fig2.png
https://bioclimatic.github.io/predilection/psych/996170-99999_fig2.png,996170,99999,3,HpVt,101289,19.4,55.4,1,[,184,3,25,],0,1,1,1,2,[,0,0,],15,60,[,0,40,0,8,11,0,0,],3,13,42.1,4.7,3,2002,2008,FR,,LION BUOY 61002,,996170-99999_fig2.png
https://bioclimatic.github.io/predilection/psych/996290-99999_fig2.png,996290,99999,3,__Ac,101289,19.4,55.4,3,[,0,231,1229,],0,3,3,3,5,[,13,0,],16,83,[,0,0,0,0,35,0,48,],83,82,15.9,-57.9,3,2002,2008,FR,,BUOY 41100 / LESSER ANTILLES,,996290-99999_fig2.png
