URL,WMOstn,WBANo,Acz,HVAC,meanPa,WBref,hBASE,dpy,[,avHDD,avCDD,avChD,],low,min,ave,max,best,[,WsD,YsD,],yrs,dys,[,Icy,Hea,Hum,Pas,Vtn,EvC,DX,],24Cd,67Fd,latitude,longitude,elev,base,stop,CC,ST,Placename,,psychrometric_chart_image
https://bioclimatic.github.io/predilection/psych/646000-99999_fig2.png,646000,99999,2,__Ac,94539,19.4,58,34,[,0,253,2915,],0,9,18,29,41,[,82,0,],11,339,[,0,1,0,29,289,0,20,],177,303,4.222,15.786,588,1994,2020,CT,,BERBERATI,,646000-99999_fig2.png
https://bioclimatic.github.io/predilection/psych/646010-99999_fig2.png,646010,99999,2,__Vt,89973,19.4,60,31,[,0,131,504,],3,12,18,27,37,[,1,0,],8,292,[,0,0,1,84,197,7,3,],93,160,5.967,15.633,1020,2009,2018,CT,,BOUAR,,646010-99999_fig2.png
https://bioclimatic.github.io/predilection/psych/646050-99999_fig2.png,646050,99999,3,__Ac,93553,19.4,58.4,22,[,0,78,337,],0,2,4,5,8,[,10,0,],6,54,[,0,0,0,5,38,1,10,],32,44,5.267,17.633,674,1994,1994,CT,,BOSSEMBELE,,646050-99999_fig2.png
https://bioclimatic.github.io/predilection/psych/646100-99999_fig2.png,646100,99999,3,__Ac,95862,19.4,57.5,24,[,0,401,1525,],0,5,11,16,24,[,90,4,],4,154,[,0,0,0,12,83,5,54,],133,122,6.483,17.433,465,1993,2009,CT,,BOSSANGOA,,646100-99999_fig2.png
https://bioclimatic.github.io/predilection/psych/646500-99999_fig2.png,646500,99999,1,__Ac,96901,19.4,57.1,34,[,0,730,4233,],1,10,20,29,43,[,201,5,],26,349,[,0,0,0,11,234,3,101,],299,321,4.398,18.519,368,1992,2020,CT,,BANGUI M POKO,,646500-99999_fig2.png
https://bioclimatic.github.io/predilection/psych/646550-99999_fig2.png,646550,99999,2,__Ac,94505,19.4,58,26,[,2,374,2369,],0,10,20,31,46,[,113,1,],3,318,[,0,1,0,46,221,6,44,],188,249,6.533,21.983,584,2009,2012,CT,,BRIA,,646550-99999_fig2.png
https://bioclimatic.github.io/predilection/psych/646560-99999_fig2.png,646560,99999,2,__Ac,95424,19.4,57.7,24,[,0,338,2602,],0,7,14,22,33,[,110,1,],4,259,[,0,0,0,17,200,1,41,],178,237,4.733,22.833,500,2009,2012,CT,,BANGASSOU,,646560-99999_fig2.png
https://bioclimatic.github.io/predilection/psych/646600-99999_fig2.png,646600,99999,2,__Ac,95612,19.4,57.6,22,[,0,450,2317,],1,8,15,23,33,[,97,3,],4,234,[,0,0,0,11,162,5,56,],186,204,5.85,20.65,475,1993,2012,CT,,BAMBARI,,646600-99999_fig2.png
