URL,WMOstn,WBANo,Acz,HVAC,meanPa,WBref,hBASE,dpy,[,avHDD,avCDD,avChD,],low,min,ave,max,best,[,WsD,YsD,],yrs,dys,[,Icy,Hea,Hum,Pas,Vtn,EvC,DX,],24Cd,67Fd,latitude,longitude,elev,base,stop,CC,ST,Placename,,psychrometric_chart_image
https://bioclimatic.github.io/predilection/psych/150000-99999_fig2.png,150000,99999,4,GsVt,98716,19.4,56.4,5,[,2120,12,15,],1,3,6,8,9,[,0,0,],13,220,[,31,137,0,35,17,0,0,],8,14,48.2,26.583,260,1988,2020,RO,,DARABANI,,150000-99999_fig2.png
https://bioclimatic.github.io/predilection/psych/150001-99999_fig2.png,150001,99999,4,GsEv,100094,19.4,55.8,12,[,2689,102,55,],11,16,31,37,42,[,1,0,],12,356,[,74,158,0,75,36,6,7,],48,17,45.21,26.97,103,2009,2020,RO,,BOBOC AIR BASE,,150001-99999_fig2.png
https://bioclimatic.github.io/predilection/psych/150002-99999_fig2.png,150002,99999,3,GsEv,100678,19.4,55.6,10,[,1870,89,60,],6,11,21,27,31,[,3,0,],7,254,[,59,102,0,56,26,5,7,],37,15,44.383,27.717,54,2009,2020,RO,,BORCEA FETESTI AIR BASE,,150002-99999_fig2.png
https://bioclimatic.github.io/predilection/psych/150010-99999_fig2.png,150010,99999,5,GsVt,98762,19.4,56.3,1,[,3615,17,89,],0,8,21,30,36,[,1,0,],1,351,[,142,155,0,40,14,0,0,],9,17,48.017,26.95,240,1987,1997,RO,,AVRAMENI,,150010-99999_fig2.png
https://bioclimatic.github.io/predilection/psych/150040-99999_fig2.png,150040,99999,4,Gs__,98519,19.4,56.4,27,[,2646,7,12,],5,2,19,26,28,[,0,0,],31,281,[,81,147,0,46,7,0,0,],6,4,47.933,23.9,276,1987,2020,RO,,SIGHETUL MARMATIEI,,150040-99999_fig2.png
https://bioclimatic.github.io/predilection/psych/150070-99999_fig2.png,150070,99999,4,Gs__,97143,19.4,57,10,[,2416,3,4,],2,1,10,14,15,[,0,0,],17,231,[,49,144,0,33,5,0,0,],2,4,47.833,25.9,391,1987,2020,RO,,RADAUTI,,150070-99999_fig2.png
https://bioclimatic.github.io/predilection/psych/150090-99999_fig2.png,150090,99999,5,____,98638,19.4,56.4,0,[,3439,23,NaN,],NaN,NaN,NaN,NaN,NaN,[,NaN,NaN,],11,343,[,NaN,261,NaN,62,21,NaN,NaN,],11,17,47.967,26.4,241,1987,1998,RO,,DOROHOI,,150090-99999_fig2.png
https://bioclimatic.github.io/predilection/psych/150100-99999_fig2.png,150100,99999,5,GsVt,99842,19.4,55.9,33,[,3135,28,47,],4,11,26,36,40,[,2,0,],33,364,[,101,177,0,66,18,0,2,],17,14,47.703,22.886,126,1987,2020,RO,,SATU MARE,,150100-99999_fig2.png
https://bioclimatic.github.io/predilection/psych/150110-99999_fig2.png,150110,99999,5,____,NaN,19.4,NaN,2,[,3093,28,NaN,],NaN,NaN,NaN,NaN,NaN,[,NaN,NaN,],4,342,[,NaN,264,NaN,43,35,NaN,NaN,],14,32,NaN,NaN,0,1987,1990,RO,,BOGUS ROMANIAN,,150110-99999_fig2.png
https://bioclimatic.github.io/predilection/psych/150140-99999_fig2.png,150140,99999,4,GsVt,98947,19.4,56.3,22,[,3078,28,45,],8,13,27,36,40,[,1,0,],22,358,[,93,181,0,62,18,1,2,],16,15,47.658,23.47,184,1987,2020,RO,,TAUTII MAGHERAUS,,150140-99999_fig2.png
https://bioclimatic.github.io/predilection/psych/150150-99999_fig2.png,150150,99999,5,Gs__,95828,19.4,57.5,20,[,3468,7,3,],5,NaN,26,35,36,[,0,0,],17,356,[,91,211,0,47,7,0,0,],5,5,47.733,23.95,503,1987,2020,RO,,OCNA SUGATAG,,150150-99999_fig2.png
https://bioclimatic.github.io/predilection/psych/150200-99999_fig2.png,150200,99999,5,GsVt,99810,19.4,55.9,28,[,3305,22,49,],6,11,26,35,41,[,3,0,],28,364,[,95,184,0,67,17,0,2,],14,13,47.733,26.65,163,1987,2020,RO,,BOTOSANI,,150200-99999_fig2.png
https://bioclimatic.github.io/predilection/psych/150230-99999_fig2.png,150230,99999,5,GsVt,97194,19.4,57,23,[,3564,11,21,],8,11,26,34,36,[,0,0,],23,359,[,111,181,0,54,11,0,1,],8,7,47.688,26.354,419,1987,2020,RO,,STEFAN CEL MARE,,150230-99999_fig2.png
https://bioclimatic.github.io/predilection/psych/150250-99999_fig2.png,150250,99999,3,GsVt,100395,19.4,55.7,10,[,1854,20,28,],2,4,9,12,14,[,1,0,],17,205,[,39,109,0,37,18,1,1,],11,16,47.833,27.217,110,1987,2020,RO,,STANCA STEFANESTI,,150250-99999_fig2.png
https://bioclimatic.github.io/predilection/psych/150330-99999_fig2.png,150330,99999,5,Gs__,82013,19.4,64.1,9,[,3733,0,0,],0,0,0,0,0,[,0,0,],16,228,[,65,162,0,1,0,0,0,],0,0,47.6,24.65,1786,1987,2020,RO,,IEZER,,150330-99999_fig2.png
https://bioclimatic.github.io/predilection/psych/150400-99999_fig2.png,150400,99999,5,Gs__,93785,19.4,58.3,2,[,4011,5,0,],0,NaN,NaN,NaN,NaN,[,0,0,],1,346,[,129,193,0,19,4,0,0,],3,5,47.533,25.567,660,1987,1998,RO,,CIMPULUNG MOLDOVENE,,150400-99999_fig2.png
https://bioclimatic.github.io/predilection/psych/150410-99999_fig2.png,150410,99999,5,GsVt,100758,19.4,55.6,2,[,3404,25,66,],0,9,24,33,41,[,1,0,],1,349,[,123,161,0,42,22,0,1,],13,27,47.567,27.2,61,1987,1998,RO,,RAUSENI,,150410-99999_fig2.png
https://bioclimatic.github.io/predilection/psych/150420-99999_fig2.png,150420,99999,3,GsVt,100242,19.4,55.8,12,[,1856,34,45,],2,6,12,16,18,[,2,0,],18,226,[,39,126,0,41,16,1,3,],15,14,47.35,22.1,113,1987,2020,RO,,SACUIENI,,150420-99999_fig2.png
https://bioclimatic.github.io/predilection/psych/150440-99999_fig2.png,150440,99999,3,Gs__,99848,19.4,55.9,11,[,1914,12,7,],5,3,13,16,17,[,0,0,],18,218,[,34,135,0,40,9,0,0,],7,5,47.45,22.783,161,1987,2020,RO,,SUPURU DE JOS,,150440-99999_fig2.png
https://bioclimatic.github.io/predilection/psych/150470-99999_fig2.png,150470,99999,3,Gs__,97474,19.4,56.8,11,[,2006,2,7,],1,1,9,14,15,[,0,0,],17,201,[,48,120,0,27,5,0,0,],2,4,47.433,23.867,365,1988,2020,RO,,TARGU LAPUS,,150470-99999_fig2.png
https://bioclimatic.github.io/predilection/psych/150520-99999_fig2.png,150520,99999,7,____,83902,19.4,63,2,[,5728,0,NaN,],NaN,NaN,NaN,NaN,NaN,[,NaN,NaN,],13,357,[,NaN,351,NaN,6,0,NaN,NaN,],0,0,47.45,25.567,1574,1987,1999,RO,,RARAU,,150520-99999_fig2.png
https://bioclimatic.github.io/predilection/psych/150540-99999_fig2.png,150540,99999,5,____,NaN,19.4,NaN,1,[,3168,17,NaN,],NaN,NaN,NaN,NaN,NaN,[,NaN,NaN,],6,334,[,NaN,250,NaN,52,31,NaN,NaN,],10,27,NaN,NaN,0,1989,1997,RO,,BOGUS ROMANIAN,,150540-99999_fig2.png
https://bioclimatic.github.io/predilection/psych/150550-99999_fig2.png,150550,99999,5,____,98803,19.4,56.3,1,[,3564,11,NaN,],NaN,NaN,NaN,NaN,NaN,[,NaN,NaN,],7,346,[,NaN,261,NaN,66,19,NaN,NaN,],8,13,47.467,26.25,230,1987,1997,RO,,RADASENI,,150550-99999_fig2.png
https://bioclimatic.github.io/predilection/psych/150560-99999_fig2.png,150560,99999,4,GsVt,98273,19.4,56.5,11,[,2103,22,18,],5,8,12,15,17,[,0,0,],18,231,[,38,135,0,41,14,1,1,],12,10,47.367,26.933,289,1987,2020,RO,,COTNARI,,150560-99999_fig2.png
https://bioclimatic.github.io/predilection/psych/150620-99999_fig2.png,150620,99999,4,____,NaN,19.4,NaN,0,[,3010,49,NaN,],NaN,NaN,NaN,NaN,NaN,[,NaN,NaN,],5,341,[,NaN,249,NaN,49,43,NaN,NaN,],20,42,NaN,NaN,0,1992,1997,RO,,BOGUS ROMANIAN,,150620-99999_fig2.png
https://bioclimatic.github.io/predilection/psych/150630-99999_fig2.png,150630,99999,4,GsVt,98237,19.4,56.5,19,[,2071,16,11,],6,5,16,21,23,[,0,0,],26,239,[,53,133,0,42,10,1,1,],9,6,47.183,23.05,294,1987,2020,RO,,ZALAU,,150630-99999_fig2.png
https://bioclimatic.github.io/predilection/psych/150690-99999_fig2.png,150690,99999,4,Gs__,91083,19.4,59.5,9,[,2957,0,0,],0,0,0,0,0,[,0,0,],16,226,[,66,149,0,9,1,0,0,],0,1,47.317,25.133,920,1987,2020,RO,,POIANA STAMPEI,,150690-99999_fig2.png
https://bioclimatic.github.io/predilection/psych/150700-99999_fig2.png,150700,99999,6,____,NaN,19.4,NaN,0,[,4248,0,NaN,],NaN,NaN,NaN,NaN,NaN,[,NaN,NaN,],8,337,[,NaN,307,NaN,19,10,NaN,NaN,],0,7,NaN,NaN,0,1989,1997,RO,,BOGUS ROMANIAN,,150700-99999_fig2.png
https://bioclimatic.github.io/predilection/psych/150730-99999_fig2.png,150730,99999,4,Gs__,97174,19.4,57,10,[,2207,7,5,],3,2,9,12,14,[,0,0,],16,227,[,37,144,0,38,8,0,0,],5,6,47.217,26.383,388,1987,2020,RO,,TARGU NEAMT,,150730-99999_fig2.png
https://bioclimatic.github.io/predilection/psych/150740-99999_fig2.png,150740,99999,5,GsVt,NaN,19.4,NaN,1,[,3488,10,0,],0,NaN,NaN,NaN,NaN,[,1,1,],1,340,[,121,168,0,36,16,0,0,],6,20,NaN,NaN,0,1987,1997,RO,,BOGUS ROMANIAN,,150740-99999_fig2.png
https://bioclimatic.github.io/predilection/psych/150750-99999_fig2.png,150750,99999,5,GsVt,100524,19.4,55.7,1,[,3149,37,179,],0,7,21,30,36,[,4,1,],1,342,[,115,160,0,43,21,0,4,],16,28,47.217,27.267,90,1987,1992,RO,,PODUL ILOAIEI,,150750-99999_fig2.png
https://bioclimatic.github.io/predilection/psych/150800-99999_fig2.png,150800,99999,4,GsVt,99653,19.4,56,31,[,2917,47,62,],6,11,27,36,41,[,3,0,],31,364,[,89,177,0,69,23,2,4,],24,18,47.025,21.903,142,1987,2020,RO,,ORADEA,,150800-99999_fig2.png
https://bioclimatic.github.io/predilection/psych/150830-99999_fig2.png,150830,99999,4,Gs__,98968,19.4,56.3,9,[,2220,6,11,],2,2,9,13,14,[,1,0,],16,230,[,43,139,0,39,9,0,0,],4,8,47.133,23.9,236,1987,2020,RO,,DEJ,,150830-99999_fig2.png
https://bioclimatic.github.io/predilection/psych/150840-99999_fig2.png,150840,99999,4,____,NaN,19.4,NaN,4,[,2853,7,NaN,],NaN,NaN,NaN,NaN,NaN,[,NaN,NaN,],1,321,[,NaN,247,NaN,43,31,NaN,NaN,],7,32,NaN,NaN,0,1990,1990,RO,,BOGUS ROMANIAN,,150840-99999_fig2.png
https://bioclimatic.github.io/predilection/psych/150850-99999_fig2.png,150850,99999,4,Gs__,97383,19.4,56.9,17,[,2343,5,8,],3,0,13,19,21,[,0,0,],24,239,[,65,127,0,41,5,0,0,],4,4,47.15,24.517,367,1987,2020,RO,,BISTRITA,,150850-99999_fig2.png
https://bioclimatic.github.io/predilection/psych/150880-99999_fig2.png,150880,99999,5,Gs__,79624,19.4,65.5,10,[,3572,0,0,],0,0,0,0,0,[,0,0,],17,201,[,87,114,0,0,0,0,0,],0,0,47.1,25.25,2021,1991,2020,RO,,CALIMANI RETITIS,,150880-99999_fig2.png
https://bioclimatic.github.io/predilection/psych/150890-99999_fig2.png,150890,99999,5,____,95134,19.4,57.8,0,[,3658,6,NaN,],NaN,NaN,NaN,NaN,NaN,[,NaN,NaN,],8,347,[,NaN,284,NaN,48,14,NaN,NaN,],4,11,47.05,25.967,554,1987,1997,RO,,CEAHLAU,,150890-99999_fig2.png
https://bioclimatic.github.io/predilection/psych/150900-99999_fig2.png,150900,99999,5,GsVt,100082,19.4,55.8,30,[,3202,40,49,],5,14,26,36,41,[,4,0,],30,364,[,101,165,0,71,23,1,3,],23,15,47.178,27.621,121,1987,2020,RO,,IASI,,150900-99999_fig2.png
https://bioclimatic.github.io/predilection/psych/150910-99999_fig2.png,150910,99999,4,____,NaN,19.4,NaN,0,[,2547,14,NaN,],NaN,NaN,NaN,NaN,NaN,[,NaN,NaN,],1,309,[,NaN,253,NaN,39,17,NaN,NaN,],9,16,NaN,NaN,0,1989,1989,RO,,BOGUS ROMANIAN,,150910-99999_fig2.png
https://bioclimatic.github.io/predilection/psych/150920-99999_fig2.png,150920,99999,5,GsVt,NaN,19.4,NaN,1,[,3352,25,0,],0,NaN,NaN,NaN,NaN,[,4,1,],1,331,[,118,159,0,31,20,0,2,],12,29,NaN,NaN,0,1987,1997,RO,,BOGUS ROMANIAN,,150920-99999_fig2.png
https://bioclimatic.github.io/predilection/psych/150940-99999_fig2.png,150940,99999,4,GsVt,97115,19.4,57,7,[,2730,22,45,],7,11,20,28,31,[,1,0,],7,308,[,82,150,0,61,13,0,2,],11,10,47.017,27.583,400,2015,2020,RO,,BARNOVA,,150940-99999_fig2.png
https://bioclimatic.github.io/predilection/psych/150950-99999_fig2.png,150950,99999,4,Gs__,97802,19.4,56.7,11,[,2094,8,12,],2,1,11,15,17,[,0,0,],18,231,[,42,143,0,36,10,0,0,],6,7,46.983,22.6,317,1987,2020,RO,,BOROD,,150950-99999_fig2.png
https://bioclimatic.github.io/predilection/psych/150980-99999_fig2.png,150980,99999,5,____,NaN,19.4,NaN,0,[,3360,12,NaN,],NaN,NaN,NaN,NaN,NaN,[,NaN,NaN,],8,334,[,NaN,277,NaN,36,21,NaN,NaN,],6,18,NaN,NaN,0,1989,1997,RO,,BOGUS ROMANIAN,,150980-99999_fig2.png
https://bioclimatic.github.io/predilection/psych/150990-99999_fig2.png,150990,99999,4,Gs__,95205,19.4,57.8,11,[,2253,10,11,],4,1,11,14,15,[,0,0,],17,227,[,45,140,0,33,8,0,1,],6,6,46.85,23.033,561,1987,2020,RO,,HUEDIN,,150990-99999_fig2.png
https://bioclimatic.github.io/predilection/psych/151070-99999_fig2.png,151070,99999,4,Gs__,93812,19.4,58.3,8,[,2702,1,0,],0,0,0,0,0,[,0,0,],15,223,[,54,146,0,22,1,0,0,],1,2,46.933,25.367,688,1987,2020,RO,,TOPLITA,,151070-99999_fig2.png
https://bioclimatic.github.io/predilection/psych/151080-99999_fig2.png,151080,99999,7,Gs__,80877,19.4,64.7,19,[,6187,0,0,],0,NaN,NaN,NaN,NaN,[,0,0,],19,364,[,197,166,0,1,0,0,0,],0,0,46.983,25.95,1898,1987,2020,RO,,CEAHLAU TOACA,,151080-99999_fig2.png
https://bioclimatic.github.io/predilection/psych/151090-99999_fig2.png,151090,99999,4,Gs__,97466,19.4,56.8,9,[,2189,6,4,],4,1,9,13,14,[,0,0,],16,230,[,34,147,0,41,8,0,0,],4,6,46.917,26.383,361,1987,2020,RO,,PIATRA NEAMT,,151090-99999_fig2.png
https://bioclimatic.github.io/predilection/psych/151110-99999_fig2.png,151110,99999,4,Gs__,99097,19.4,56.2,17,[,2283,8,20,],3,4,13,18,21,[,1,0,],24,239,[,68,117,0,45,9,0,0,],6,7,46.967,26.917,217,1987,2020,RO,,ROMAN,,151110-99999_fig2.png
https://bioclimatic.github.io/predilection/psych/151130-99999_fig2.png,151130,99999,4,GsVt,100135,19.4,55.8,11,[,2097,16,15,],3,2,10,15,17,[,1,0,],17,227,[,44,124,0,44,13,1,1,],9,11,46.85,27.45,131,1987,2020,RO,,NEGRESTI,,151130-99999_fig2.png
https://bioclimatic.github.io/predilection/psych/151160-99999_fig2.png,151160,99999,4,GsVt,NaN,19.4,NaN,1,[,2874,50,0,],0,NaN,NaN,NaN,NaN,[,10,3,],1,341,[,109,161,0,38,27,0,6,],22,41,NaN,NaN,0,1987,1997,RO,,BOGUS ROMANIAN,,151160-99999_fig2.png
https://bioclimatic.github.io/predilection/psych/151170-99999_fig2.png,151170,99999,3,GsVt,99797,19.4,56,10,[,1915,22,41,],2,4,10,15,17,[,2,0,],17,231,[,36,136,0,39,18,0,2,],11,17,46.783,22.117,165,1987,2020,RO,,HOLOD,,151170-99999_fig2.png
https://bioclimatic.github.io/predilection/psych/151180-99999_fig2.png,151180,99999,5,Gs__,89140,19.4,60.4,10,[,3073,0,0,],0,0,0,0,0,[,0,0,],17,225,[,75,144,0,5,1,0,0,],0,1,46.683,22.617,1116,1987,2020,RO,,STANA DE VALE,,151180-99999_fig2.png
https://bioclimatic.github.io/predilection/psych/151190-99999_fig2.png,151190,99999,5,Gs__,81479,19.4,64.4,8,[,3770,0,0,],0,0,0,0,0,[,0,0,],15,228,[,74,153,0,1,0,0,0,],0,0,46.767,22.8,1837,1987,2020,RO,,VLADEASA 1800,,151190-99999_fig2.png
https://bioclimatic.github.io/predilection/psych/151200-99999_fig2.png,151200,99999,5,GsVt,96465,19.4,57.2,33,[,3415,10,15,],5,NaN,25,35,38,[,0,0,],33,364,[,106,185,0,63,10,0,0,],8,6,46.785,23.686,316,1987,2020,RO,,CLUJ NAPOCA,,151200-99999_fig2.png
https://bioclimatic.github.io/predilection/psych/151230-99999_fig2.png,151230,99999,4,GsVt,97095,19.4,57,10,[,2137,9,7,],4,2,11,15,16,[,0,0,],17,227,[,42,134,0,40,10,0,0,],7,6,46.75,24.167,398,1987,2020,RO,,SARMASU,,151230-99999_fig2.png
https://bioclimatic.github.io/predilection/psych/151240-99999_fig2.png,151240,99999,3,GsVt,96502,19.4,57.2,9,[,1877,8,2,],3,0,8,10,11,[,0,0,],15,203,[,35,122,0,36,10,0,0,],6,8,46.883,24.65,448,1988,2020,RO,,BATOS,,151240-99999_fig2.png
https://bioclimatic.github.io/predilection/psych/151270-99999_fig2.png,151270,99999,4,Gs__,93067,19.4,58.7,9,[,2859,1,0,],0,0,0,0,0,[,0,0,],16,230,[,58,154,0,17,1,0,0,],1,1,46.7,25.517,751,1987,2020,RO,,JOSENI,,151270-99999_fig2.png
https://bioclimatic.github.io/predilection/psych/151320-99999_fig2.png,151320,99999,5,GsVt,98527,19.4,56.4,2,[,3419,16,80,],4,11,23,32,37,[,0,0,],2,348,[,117,173,0,42,16,0,1,],9,18,46.683,27.233,251,1987,1998,RO,,PLOPANA,,151320-99999_fig2.png
https://bioclimatic.github.io/predilection/psych/151340-99999_fig2.png,151340,99999,5,GsVt,100480,19.4,55.7,1,[,3148,59,153,],2,10,22,32,39,[,5,1,],1,344,[,120,149,0,49,24,0,3,],25,31,46.683,28.067,98,1987,1997,RO,,HUSI,,151340-99999_fig2.png
https://bioclimatic.github.io/predilection/psych/151360-99999_fig2.png,151360,99999,3,GsVt,100596,19.4,55.7,11,[,1894,31,41,],2,5,11,16,18,[,2,0,],18,229,[,43,126,0,41,18,0,2,],15,16,46.533,21.533,96,1987,2020,RO,,CHISINEU-CRIS,,151360-99999_fig2.png
https://bioclimatic.github.io/predilection/psych/151380-99999_fig2.png,151380,99999,3,GsVt,94864,19.4,57.9,12,[,2025,26,11,],5,9,13,16,19,[,0,0,],19,231,[,41,140,0,36,12,2,1,],12,8,46.633,22.167,586,1987,2020,RO,,DUMBRAVITA DE CODRU,,151380-99999_fig2.png
https://bioclimatic.github.io/predilection/psych/151400-99999_fig2.png,151400,99999,6,Gs__,88155,19.4,60.9,6,[,4206,0,0,],0,NaN,NaN,NaN,NaN,[,0,0,],1,304,[,117,181,0,6,0,0,0,],0,0,46.533,22.45,500,1996,1996,RO,,STEIU,,151400-99999_fig2.png
https://bioclimatic.github.io/predilection/psych/151430-99999_fig2.png,151430,99999,4,Gs__,96745,19.4,57.1,8,[,2104,8,5,],3,1,8,12,13,[,0,0,],15,226,[,37,138,0,42,9,0,0,],6,6,46.583,23.783,428,1987,2020,RO,,TURDA,,151430-99999_fig2.png
https://bioclimatic.github.io/predilection/psych/151450-99999_fig2.png,151450,99999,5,GsVt,97678,19.4,56.8,34,[,3372,13,17,],5,9,27,37,39,[,1,0,],34,364,[,109,177,0,67,11,0,1,],9,7,46.468,24.413,294,1987,2020,RO,,VIDRASAU,,151450-99999_fig2.png
https://bioclimatic.github.io/predilection/psych/151480-99999_fig2.png,151480,99999,5,Gs__,87097,19.4,61.4,10,[,3217,0,0,],0,0,0,0,0,[,0,0,],17,229,[,68,155,0,7,0,0,0,],0,0,46.65,25.3,1279,1987,2020,RO,,BUCIN,,151480-99999_fig2.png
https://bioclimatic.github.io/predilection/psych/151500-99999_fig2.png,151500,99999,5,GsVt,99061,19.4,56.2,30,[,3215,24,68,],2,10,25,35,40,[,3,0,],30,364,[,104,165,0,71,21,0,2,],16,17,46.522,26.91,185,1987,2020,RO,,BACAU,,151500-99999_fig2.png
https://bioclimatic.github.io/predilection/psych/151520-99999_fig2.png,151520,99999,5,____,NaN,19.4,NaN,0,[,3855,5,NaN,],NaN,NaN,NaN,NaN,NaN,[,NaN,NaN,],8,336,[,NaN,300,NaN,26,10,NaN,NaN,],2,9,NaN,NaN,0,1987,1997,RO,,BOGUS ROMANIAN,,151520-99999_fig2.png
https://bioclimatic.github.io/predilection/psych/151540-99999_fig2.png,151540,99999,4,GsVt,100319,19.4,55.8,12,[,2092,19,19,],3,2,12,17,19,[,1,0,],19,230,[,53,118,0,43,15,0,1,],11,11,46.65,27.717,117,1987,2020,RO,,VASLUI,,151540-99999_fig2.png
https://bioclimatic.github.io/predilection/psych/151580-99999_fig2.png,151580,99999,4,____,100349,19.4,55.7,0,[,2811,56,NaN,],NaN,NaN,NaN,NaN,NaN,[,NaN,NaN,],11,346,[,NaN,244,NaN,73,29,NaN,NaN,],22,25,46.4,21.65,112,1987,1997,RO,,ZARAND,,151580-99999_fig2.png
https://bioclimatic.github.io/predilection/psych/151590-99999_fig2.png,151590,99999,5,____,93657,19.4,58.4,0,[,3662,9,NaN,],NaN,NaN,NaN,NaN,NaN,[,NaN,NaN,],4,349,[,NaN,304,NaN,39,7,NaN,NaN,],5,6,46.383,21.817,697,1987,1990,RO,,MOCREA,,151590-99999_fig2.png
https://bioclimatic.github.io/predilection/psych/151600-99999_fig2.png,151600,99999,3,GsVt,98397,19.4,56.5,9,[,1924,12,10,],2,1,9,14,15,[,0,0,],16,226,[,31,144,0,40,11,0,0,],7,9,46.533,22.467,279,1987,2020,RO,,STEI,,151600-99999_fig2.png
https://bioclimatic.github.io/predilection/psych/151620-99999_fig2.png,151620,99999,4,Gs__,94621,19.4,58,10,[,2286,1,0,],1,0,2,6,6,[,0,0,],16,219,[,49,142,0,25,2,0,0,],1,2,46.367,23.05,611,1987,2020,RO,,CAMPENI,,151620-99999_fig2.png
https://bioclimatic.github.io/predilection/psych/151630-99999_fig2.png,151630,99999,4,Gs__,86505,19.4,61.7,10,[,2942,0,0,],1,2,2,2,2,[,0,0,],17,229,[,52,167,0,9,1,0,0,],0,1,46.533,23.317,1356,1987,2020,RO,,BAISOARA,,151630-99999_fig2.png
https://bioclimatic.github.io/predilection/psych/151650-99999_fig2.png,151650,99999,3,Gs__,95598,19.4,57.6,9,[,1962,8,3,],5,1,9,11,12,[,0,0,],15,212,[,33,131,0,40,8,0,0,],6,4,46.367,24.233,524,1988,2020,RO,,TARNAVENI,,151650-99999_fig2.png
https://bioclimatic.github.io/predilection/psych/151680-99999_fig2.png,151680,99999,4,Gs__,95616,19.4,57.6,8,[,2279,4,0,],4,0,7,13,13,[,0,0,],15,226,[,37,150,0,36,3,0,0,],2,3,46.3,25.3,525,1987,2020,RO,,ODORHEIUL SECUIESC,,151680-99999_fig2.png
https://bioclimatic.github.io/predilection/psych/151700-99999_fig2.png,151700,99999,6,Gs__,94030,19.4,58.2,28,[,4418,0,0,],0,NaN,31,41,41,[,0,0,],26,361,[,142,193,0,26,0,0,0,],0,0,46.367,25.733,662,1987,2020,RO,,MIERCUREA CIUC,,151700-99999_fig2.png
https://bioclimatic.github.io/predilection/psych/151740-99999_fig2.png,151740,99999,5,____,99089,19.4,56.2,0,[,3350,28,NaN,],NaN,NaN,NaN,NaN,NaN,[,NaN,NaN,],10,343,[,NaN,248,NaN,67,28,NaN,NaN,],13,23,46.467,27.25,204,1987,1997,RO,,ONCESTI,,151740-99999_fig2.png
https://bioclimatic.github.io/predilection/psych/151790-99999_fig2.png,151790,99999,3,GsVt,96172,19.4,57.4,9,[,1895,32,7,],6,6,12,15,17,[,0,0,],17,225,[,32,136,0,39,13,3,1,],14,8,46.25,21.65,473,1987,2020,RO,,SIRIA,,151790-99999_fig2.png
https://bioclimatic.github.io/predilection/psych/151820-99999_fig2.png,151820,99999,3,GsVt,99636,19.4,56,11,[,1908,14,22,],2,3,10,15,17,[,2,0,],17,226,[,38,134,0,39,14,0,0,],9,12,46.267,22.333,177,1987,2020,RO,,GURAHONT,,151820-99999_fig2.png
https://bioclimatic.github.io/predilection/psych/151840-99999_fig2.png,151840,99999,4,Gs__,88208,19.4,60.9,10,[,2797,0,0,],0,0,0,0,0,[,0,0,],17,227,[,58,152,0,15,1,0,0,],0,1,46.317,23.133,1193,1987,2020,RO,,ROSIA MONTANA,,151840-99999_fig2.png
https://bioclimatic.github.io/predilection/psych/151860-99999_fig2.png,151860,99999,5,____,NaN,19.4,NaN,0,[,3303,18,NaN,],NaN,NaN,NaN,NaN,NaN,[,NaN,NaN,],10,346,[,NaN,262,NaN,57,27,NaN,NaN,],10,22,NaN,NaN,0,1987,1997,RO,,BOGUS ROMANIAN,,151860-99999_fig2.png
https://bioclimatic.github.io/predilection/psych/151890-99999_fig2.png,151890,99999,4,Gs__,97970,19.4,56.6,10,[,2231,5,9,],1,0,9,14,16,[,0,0,],17,230,[,48,137,0,36,9,0,0,],3,8,46.233,24.6,319,1987,2020,RO,,DUMBRAVENI,,151890-99999_fig2.png
https://bioclimatic.github.io/predilection/psych/151940-99999_fig2.png,151940,99999,3,GsVt,98862,19.4,56.3,12,[,1990,12,18,],3,4,11,16,17,[,0,0,],18,225,[,41,129,0,41,14,0,0,],7,12,46.267,26.65,243,1987,2020,RO,,TARGU OCNA,,151940-99999_fig2.png
https://bioclimatic.github.io/predilection/psych/151970-99999_fig2.png,151970,99999,4,GsVt,99702,19.4,56,13,[,2125,24,33,],2,5,12,17,20,[,1,0,],20,239,[,54,119,0,45,20,0,1,],14,15,46.233,27.65,173,1987,2020,RO,,BARLAD,,151970-99999_fig2.png
https://bioclimatic.github.io/predilection/psych/151990-99999_fig2.png,151990,99999,3,GsVt,100580,19.4,55.7,10,[,1856,40,58,],1,4,10,14,17,[,2,0,],17,230,[,39,125,0,41,21,1,3,],18,20,46.067,20.6,86,1987,2020,RO,,SANNICOLAU MARE,,151990-99999_fig2.png
https://bioclimatic.github.io/predilection/psych/152000-99999_fig2.png,152000,99999,4,GsVt,99926,19.4,55.9,33,[,2892,50,61,],6,12,28,37,42,[,4,0,],33,364,[,91,173,0,71,23,2,4,],25,17,46.177,21.262,107,1987,2020,RO,,ARAD,,152000-99999_fig2.png
https://bioclimatic.github.io/predilection/psych/152005-99999_fig2.png,152005,99999,4,GsVt,100034,19.4,55.9,4,[,2842,30,28,],12,17,29,38,41,[,2,0,],4,344,[,88,180,0,61,12,1,2,],15,7,46.167,21.317,108,1987,1990,RO,,ARAD,,152005-99999_fig2.png
https://bioclimatic.github.io/predilection/psych/152040-99999_fig2.png,152040,99999,3,GsVt,99994,19.4,55.9,10,[,1970,10,16,],0,1,9,13,15,[,2,0,],16,222,[,39,132,0,38,12,0,0,],6,11,46.017,22.15,157,1987,2020,RO,,VARADIA DE MURES,,152040-99999_fig2.png
https://bioclimatic.github.io/predilection/psych/152060-99999_fig2.png,152060,99999,4,Gs__,98552,19.4,56.4,11,[,2082,7,7,],2,1,10,15,16,[,0,0,],17,226,[,43,138,0,37,8,0,0,],4,7,46.167,22.726,264,1987,2020,RO,,TEBEA,,152060-99999_fig2.png
https://bioclimatic.github.io/predilection/psych/152080-99999_fig2.png,152080,99999,3,GsVt,98845,19.4,56.3,10,[,1898,23,36,],3,5,11,15,17,[,2,0,],17,221,[,38,125,0,43,12,0,3,],11,12,46.067,23.567,247,1987,2020,RO,,ALBA IULIA,,152080-99999_fig2.png
https://bioclimatic.github.io/predilection/psych/152090-99999_fig2.png,152090,99999,4,Gs__,97775,19.4,56.7,17,[,2198,8,12,],4,4,16,21,23,[,1,0,],24,239,[,61,126,0,43,7,0,1,],6,5,46.183,23.933,334,1987,2020,RO,,BLAJ,,152090-99999_fig2.png
https://bioclimatic.github.io/predilection/psych/152120-99999_fig2.png,152120,99999,5,GsVt,96316,19.4,57.3,3,[,3605,9,78,],0,NaN,18,30,38,[,2,0,],1,349,[,132,171,0,33,12,0,0,],7,15,46.05,25.267,451,1987,1997,RO,,HOMOROD,,152120-99999_fig2.png
https://bioclimatic.github.io/predilection/psych/152150-99999_fig2.png,152150,99999,3,Gs__,95831,19.4,57.5,10,[,1694,3,0,],0,0,0,0,0,[,0,0,],17,170,[,34,106,0,28,2,0,0,],2,2,46.083,25.6,509,1987,2020,RO,,BARAOLT,,152150-99999_fig2.png
https://bioclimatic.github.io/predilection/psych/152170-99999_fig2.png,152170,99999,4,Gs__,95125,19.4,57.8,10,[,2422,2,0,],0,0,0,0,0,[,0,0,],16,222,[,46,143,0,31,2,0,0,],1,2,46,26.133,569,1987,2020,RO,,TARGU SECUIESC,,152170-99999_fig2.png
https://bioclimatic.github.io/predilection/psych/152190-99999_fig2.png,152190,99999,4,GsVt,100427,19.4,55.7,7,[,2054,19,18,],2,3,7,10,12,[,1,0,],14,230,[,31,130,0,44,24,0,1,],12,19,46.1,27.167,102,1987,2020,RO,,ADJUD,,152190-99999_fig2.png
https://bioclimatic.github.io/predilection/psych/152210-99999_fig2.png,152210,99999,5,____,98999,19.4,56.3,0,[,3243,41,NaN,],NaN,NaN,NaN,NaN,NaN,[,NaN,NaN,],10,342,[,NaN,246,NaN,65,31,NaN,NaN,],19,26,46.033,27.917,214,1987,1997,RO,,BALINTESTI,,152210-99999_fig2.png
https://bioclimatic.github.io/predilection/psych/152300-99999_fig2.png,152300,99999,5,GsVt,98945,19.4,56.3,32,[,3104,16,24,],7,12,26,36,40,[,2,0,],30,362,[,96,185,0,67,13,0,1,],11,9,45.867,22.9,231,1987,2020,RO,,DEVA,,152300-99999_fig2.png
https://bioclimatic.github.io/predilection/psych/152310-99999_fig2.png,152310,99999,4,GsVt,98589,19.4,56.4,8,[,2076,12,9,],1,1,8,12,13,[,0,0,],15,231,[,36,138,0,46,12,0,0,],7,8,45.967,23.533,272,1987,2020,RO,,SEBES ALBA,,152310-99999_fig2.png
https://bioclimatic.github.io/predilection/psych/152350-99999_fig2.png,152350,99999,4,Gs__,96743,19.4,57.1,14,[,2375,2,8,],0,0,11,16,17,[,0,0,],20,235,[,68,125,0,36,5,0,0,],2,4,45.833,24.933,429,1987,2020,RO,,FAGARAS,,152350-99999_fig2.png
https://bioclimatic.github.io/predilection/psych/152370-99999_fig2.png,152370,99999,4,____,NaN,19.4,NaN,1,[,2725,17,NaN,],NaN,NaN,NaN,NaN,NaN,[,NaN,NaN,],1,308,[,NaN,221,NaN,33,53,NaN,NaN,],14,50,NaN,NaN,0,1994,1994,RO,,BOGUS ROMANIAN,,152370-99999_fig2.png
https://bioclimatic.github.io/predilection/psych/152380-99999_fig2.png,152380,99999,4,Gs__,95646,19.4,57.6,11,[,2459,2,0,],2,0,8,13,13,[,0,0,],18,231,[,58,139,0,31,3,0,0,],2,3,45.867,25.817,526,1987,2020,RO,,SFANTU GHEORGHE GOVASNA,,152380-99999_fig2.png
https://bioclimatic.github.io/predilection/psych/152390-99999_fig2.png,152390,99999,5,____,NaN,19.4,NaN,0,[,3149,5,NaN,],NaN,NaN,NaN,NaN,NaN,[,NaN,NaN,],2,315,[,NaN,267,NaN,31,17,NaN,NaN,],4,17,NaN,NaN,0,1989,1990,RO,,BOGUS ROMANIAN,,152390-99999_fig2.png
https://bioclimatic.github.io/predilection/psych/152410-99999_fig2.png,152410,99999,5,____,94869,19.4,57.9,2,[,3470,9,NaN,],NaN,NaN,NaN,NaN,NaN,[,NaN,NaN,],12,344,[,NaN,279,NaN,51,13,NaN,NaN,],5,11,45.917,26.667,563,1987,1998,RO,,TULNICI,,152410-99999_fig2.png
https://bioclimatic.github.io/predilection/psych/152450-99999_fig2.png,152450,99999,3,GsVt,100810,19.4,55.6,9,[,1569,37,32,],2,2,9,12,14,[,1,0,],15,202,[,30,111,0,38,20,1,1,],17,19,45.783,20.7,80,1987,2020,RO,,JIMBOLIA,,152450-99999_fig2.png
https://bioclimatic.github.io/predilection/psych/152470-99999_fig2.png,152470,99999,4,GsVt,100272,19.4,55.8,34,[,2852,46,57,],7,11,27,37,42,[,4,0,],34,364,[,91,172,0,72,24,2,3,],25,16,45.81,21.338,106,1987,2020,RO,,TRAIAN VUIA,,152470-99999_fig2.png
https://bioclimatic.github.io/predilection/psych/152540-99999_fig2.png,152540,99999,5,Gs__,85456,19.4,62.2,10,[,3079,0,0,],0,0,0,0,0,[,0,0,],17,230,[,59,163,0,7,1,0,0,],0,0,45.65,23.933,1454,1987,2020,RO,,PALTINIS SIBIU,,152540-99999_fig2.png
https://bioclimatic.github.io/predilection/psych/152590-99999_fig2.png,152590,99999,7,____,81651,19.4,64.3,1,[,5968,0,NaN,],NaN,NaN,NaN,NaN,NaN,[,NaN,NaN,],2,350,[,NaN,350,NaN,0,0,NaN,NaN,],0,0,45.567,25.55,1784,1996,1997,RO,,POSTAVARU,,152590-99999_fig2.png
https://bioclimatic.github.io/predilection/psych/152600-99999_fig2.png,152600,99999,5,Gs__,96121,19.4,57.4,24,[,3403,10,9,],6,NaN,24,35,37,[,0,0,],24,364,[,105,187,0,64,9,0,0,],7,5,45.786,24.091,456,1987,2020,RO,,SIBIU,,152600-99999_fig2.png
https://bioclimatic.github.io/predilection/psych/152610-99999_fig2.png,152610,99999,4,Gs__,93700,19.4,58.4,16,[,2751,1,2,],0,3,8,11,12,[,0,0,],23,239,[,81,137,0,20,1,0,0,],0,1,45.683,26.017,710,1987,2020,RO,,INTORSURA BUZAULUI,,152610-99999_fig2.png
https://bioclimatic.github.io/predilection/psych/152620-99999_fig2.png,152620,99999,5,Gs__,82097,19.4,64,6,[,3676,0,0,],0,0,0,0,0,[,0,0,],13,223,[,57,165,0,1,0,0,0,],0,0,45.817,26.383,1785,1987,2020,RO,,LACAUTI,,152620-99999_fig2.png
https://bioclimatic.github.io/predilection/psych/152640-99999_fig2.png,152640,99999,3,GsVt,101120,19.4,55.5,8,[,1861,37,23,],3,4,10,13,14,[,2,0,],15,224,[,28,121,0,46,26,1,2,],20,19,45.7,27.2,59,1987,2020,RO,,FOCSANI,,152640-99999_fig2.png
https://bioclimatic.github.io/predilection/psych/152650-99999_fig2.png,152650,99999,3,GsVt,101028,19.4,55.5,10,[,2005,27,29,],2,4,11,15,17,[,1,0,],17,231,[,40,121,0,47,20,1,1,],16,16,45.85,27.417,61,1987,2020,RO,,TECUCI,,152650-99999_fig2.png
https://bioclimatic.github.io/predilection/psych/152670-99999_fig2.png,152670,99999,4,____,100730,19.4,55.6,0,[,2948,57,NaN,],NaN,NaN,NaN,NaN,NaN,[,NaN,NaN,],4,352,[,NaN,259,NaN,59,34,NaN,NaN,],22,28,45.667,20.933,80,1987,1990,RO,,RAUTI,,152670-99999_fig2.png
https://bioclimatic.github.io/predilection/psych/152700-99999_fig2.png,152700,99999,3,GsVt,100330,19.4,55.8,10,[,1849,23,49,],1,5,10,14,17,[,2,0,],17,230,[,35,133,0,40,20,0,2,],12,18,45.683,21.933,123,1987,2020,RO,,LUGOJ,,152700-99999_fig2.png
https://bioclimatic.github.io/predilection/psych/152730-99999_fig2.png,152730,99999,5,____,97148,19.4,57,1,[,3239,24,NaN,],NaN,NaN,NaN,NaN,NaN,[,NaN,NaN,],9,347,[,NaN,268,NaN,59,20,NaN,NaN,],11,17,45.567,22.883,381,1987,1997,RO,,PICLISA,,152730-99999_fig2.png
https://bioclimatic.github.io/predilection/psych/152770-99999_fig2.png,152770,99999,3,Gs__,95531,19.4,57.6,7,[,2041,6,1,],3,0,5,10,10,[,0,0,],14,221,[,29,145,0,39,8,0,0,],4,6,45.65,24.267,519,1987,2020,RO,,BOITA,,152770-99999_fig2.png
https://bioclimatic.github.io/predilection/psych/152780-99999_fig2.png,152780,99999,5,Gs__,NaN,19.4,NaN,5,[,3913,0,0,],0,NaN,NaN,NaN,NaN,[,0,0,],1,329,[,130,187,0,11,2,0,0,],0,2,NaN,NaN,0,1988,1996,RO,,BOGUS ROMANIAN,,152780-99999_fig2.png
https://bioclimatic.github.io/predilection/psych/152790-99999_fig2.png,152790,99999,5,Gs__,79363,19.4,65.6,9,[,3557,0,0,],0,0,0,0,0,[,0,0,],15,207,[,71,136,0,0,0,0,0,],0,0,45.6,24.617,2038,1988,2020,RO,,BALEA LAC,,152790-99999_fig2.png
https://bioclimatic.github.io/predilection/psych/152800-99999_fig2.png,152800,99999,8,Gs__,75049,19.4,68.3,20,[,7296,0,0,],0,NaN,NaN,NaN,NaN,[,0,0,],20,363,[,238,125,0,0,0,0,0,],0,0,45.45,25.45,2509,1987,2020,RO,,VARFU OMU,,152800-99999_fig2.png
https://bioclimatic.github.io/predilection/psych/152810-99999_fig2.png,152810,99999,7,____,NaN,19.4,NaN,0,[,6215,0,NaN,],NaN,NaN,NaN,NaN,NaN,[,NaN,NaN,],2,338,[,NaN,338,NaN,0,0,NaN,NaN,],0,0,NaN,NaN,0,1987,1988,RO,,BOGUS ROMANIAN,,152810-99999_fig2.png
https://bioclimatic.github.io/predilection/psych/152820-99999_fig2.png,152820,99999,5,Gs__,89793,19.4,60.1,3,[,4047,1,0,],0,NaN,NaN,NaN,NaN,[,0,0,],1,338,[,104,212,0,19,3,0,0,],1,2,45.6,25.55,1028,1988,2001,RO,,POIANA BRASOV,,152820-99999_fig2.png
https://bioclimatic.github.io/predilection/psych/152830-99999_fig2.png,152830,99999,5,____,NaN,19.4,NaN,0,[,3985,2,NaN,],NaN,NaN,NaN,NaN,NaN,[,NaN,NaN,],10,334,[,NaN,305,NaN,18,11,NaN,NaN,],1,9,NaN,NaN,0,1987,1997,RO,,BOGUS ROMANIAN,,152830-99999_fig2.png
https://bioclimatic.github.io/predilection/psych/152840-99999_fig2.png,152840,99999,5,Gs__,83549,19.4,63.2,9,[,3210,0,0,],0,0,0,0,0,[,0,0,],16,209,[,71,137,0,1,0,0,0,],0,0,45.6,26.417,1626,1989,2020,RO,,PENTELEU,,152840-99999_fig2.png
https://bioclimatic.github.io/predilection/psych/152850-99999_fig2.png,152850,99999,4,Gs__,91877,19.4,59.2,10,[,2267,2,0,],1,0,2,3,3,[,0,0,],16,215,[,30,155,0,27,2,0,0,],1,2,45.55,26.7,833,1987,2020,RO,,BISOCA,,152850-99999_fig2.png
https://bioclimatic.github.io/predilection/psych/152870-99999_fig2.png,152870,99999,5,____,101459,19.4,55.3,0,[,3104,70,NaN,],NaN,NaN,NaN,NaN,NaN,[,NaN,NaN,],7,354,[,NaN,226,NaN,80,48,NaN,NaN,],30,38,45.5,27.5,18,1987,1997,RO,,MAICANESTI,,152870-99999_fig2.png
https://bioclimatic.github.io/predilection/psych/152890-99999_fig2.png,152890,99999,3,GsVt,100784,19.4,55.6,11,[,1832,33,33,],2,2,12,16,18,[,2,0,],18,231,[,39,129,0,42,17,1,2,],16,16,45.383,21.133,83,1987,2020,RO,,BANLOC,,152890-99999_fig2.png
https://bioclimatic.github.io/predilection/psych/152900-99999_fig2.png,152900,99999,4,GsVt,102592,19.4,54.9,1,[,2891,45,15,],6,14,26,37,41,[,1,0,],1,346,[,106,171,0,50,20,0,0,],19,22,0,0,-1000,1987,1997,RO,,BOGUS ROMANIAN,,152900-99999_fig2.png
https://bioclimatic.github.io/predilection/psych/152920-99999_fig2.png,152920,99999,4,GsVt,98916,19.4,56.3,32,[,2908,33,49,],5,14,26,36,40,[,2,0,],32,364,[,85,189,0,67,20,1,2,],18,15,45.42,22.253,264,1987,2020,RO,,CARANSEBES,,152920-99999_fig2.png
https://bioclimatic.github.io/predilection/psych/152960-99999_fig2.png,152960,99999,4,Gs__,94697,19.4,58,18,[,2405,2,6,],0,0,12,17,17,[,0,0,],25,238,[,72,136,0,27,3,0,0,],1,3,45.417,23.383,599,1987,2020,RO,,PETROSANI,,152960-99999_fig2.png
https://bioclimatic.github.io/predilection/psych/152970-99999_fig2.png,152970,99999,4,Gs__,86618,19.4,61.6,11,[,2934,0,0,],0,0,0,0,0,[,0,0,],16,204,[,59,144,0,1,0,0,0,],0,0,45.433,23.633,1350,1987,2020,RO,,OBARSIA LOTRULUI,,152970-99999_fig2.png
https://bioclimatic.github.io/predilection/psych/152980-99999_fig2.png,152980,99999,7,Gs__,83114,19.4,63.5,2,[,5203,0,0,],0,NaN,NaN,NaN,NaN,[,0,0,],1,346,[,121,221,0,3,1,0,0,],0,1,45.25,24.25,1640,1987,2001,RO,,COZIA PASS (AUT),,152980-99999_fig2.png
https://bioclimatic.github.io/predilection/psych/152990-99999_fig2.png,152990,99999,5,____,94765,19.4,57.9,0,[,3372,6,NaN,],NaN,NaN,NaN,NaN,NaN,[,NaN,NaN,],7,347,[,NaN,281,NaN,51,15,NaN,NaN,],5,11,45.4,25.167,581,1987,1997,RO,,RUCAR,,152990-99999_fig2.png
https://bioclimatic.github.io/predilection/psych/153000-99999_fig2.png,153000,99999,4,Gs__,95498,19.4,57.6,10,[,2386,2,0,],2,0,9,12,12,[,0,0,],17,230,[,51,142,0,34,3,0,0,],2,3,45.7,25.533,538,1987,2020,RO,,BRASOV-GHIMBAV,,153000-99999_fig2.png
https://bioclimatic.github.io/predilection/psych/153010-99999_fig2.png,153010,99999,5,Gs__,86332,19.4,61.8,10,[,3068,0,0,],0,0,0,0,0,[,0,0,],17,230,[,61,159,0,9,1,0,0,],0,1,45.433,25.267,1383,1987,2020,RO,,FUNDATA,,153010-99999_fig2.png
https://bioclimatic.github.io/predilection/psych/153020-99999_fig2.png,153020,99999,4,Gs__,89321,19.4,60.3,11,[,3044,0,0,],0,0,0,0,0,[,0,0,],18,238,[,71,156,0,11,0,0,0,],0,0,45.5,25.583,1093,1987,2020,RO,,PREDEAL,,153020-99999_fig2.png
https://bioclimatic.github.io/predilection/psych/153030-99999_fig2.png,153030,99999,5,____,NaN,19.4,NaN,0,[,3547,2,NaN,],NaN,NaN,NaN,NaN,NaN,[,NaN,NaN,],5,333,[,NaN,292,NaN,30,11,NaN,NaN,],2,9,NaN,NaN,0,1988,1992,RO,,BOGUS ROMANIAN,,153030-99999_fig2.png
https://bioclimatic.github.io/predilection/psych/153040-99999_fig2.png,153040,99999,5,____,NaN,19.4,NaN,0,[,3930,0,NaN,],NaN,NaN,NaN,NaN,NaN,[,NaN,NaN,],2,342,[,NaN,331,NaN,10,1,NaN,NaN,],0,1,NaN,NaN,0,1989,1990,RO,,BOGUS ROMANIAN,,153040-99999_fig2.png
https://bioclimatic.github.io/predilection/psych/153070-99999_fig2.png,153070,99999,3,GsVt,99868,19.4,55.9,10,[,1873,39,54,],3,5,11,14,17,[,2,0,],17,230,[,30,128,0,46,22,1,3,],19,18,45.383,27.05,154,1987,2020,RO,,RAMNICU SARAT,,153070-99999_fig2.png
https://bioclimatic.github.io/predilection/psych/153100-99999_fig2.png,153100,99999,4,GsVt,100872,19.4,55.6,34,[,2929,76,104,],7,15,27,36,42,[,5,0,],34,364,[,92,159,0,70,34,2,7,],38,24,45.483,28.033,71,1987,2020,RO,,GALATI,,153100-99999_fig2.png
https://bioclimatic.github.io/predilection/psych/153110-99999_fig2.png,153110,99999,4,____,NaN,19.4,NaN,0,[,2889,46,NaN,],NaN,NaN,NaN,NaN,NaN,[,NaN,NaN,],8,345,[,NaN,225,NaN,62,59,NaN,NaN,],25,54,NaN,NaN,0,1987,1997,RO,,BOGUS ROMANIAN,,153110-99999_fig2.png
https://bioclimatic.github.io/predilection/psych/153140-99999_fig2.png,153140,99999,3,GsVt,98432,19.4,56.5,11,[,1833,17,14,],3,2,11,16,18,[,0,0,],18,224,[,39,132,0,39,14,0,0,],10,11,45.3,21.917,286,1987,2020,RO,,RESITA,,153140-99999_fig2.png
https://bioclimatic.github.io/predilection/psych/153150-99999_fig2.png,153150,99999,5,Gs__,85775,19.4,62.1,10,[,3229,0,0,],0,0,0,0,0,[,0,0,],17,231,[,68,157,0,6,0,0,0,],0,0,45.183,22.05,1433,1987,2020,RO,,SEMENIC,,153150-99999_fig2.png
https://bioclimatic.github.io/predilection/psych/153160-99999_fig2.png,153160,99999,4,Gs__,85404,19.4,62.3,8,[,2940,0,0,],0,0,0,0,0,[,0,0,],15,222,[,47,168,0,7,0,0,0,],0,0,45.3,22.517,1450,1987,2020,RO,,CUNTU,,153160-99999_fig2.png
https://bioclimatic.github.io/predilection/psych/153170-99999_fig2.png,153170,99999,6,Gs__,78165,19.4,66.3,10,[,4191,0,0,],0,0,0,0,0,[,0,0,],17,230,[,91,139,0,0,0,0,0,],0,0,45.283,22.533,2186,1987,2020,RO,,TARCU,,153170-99999_fig2.png
https://bioclimatic.github.io/predilection/psych/153190-99999_fig2.png,153190,99999,4,Gs__,95088,19.4,57.8,9,[,2061,1,0,],0,0,0,0,0,[,0,0,],16,200,[,32,143,0,23,2,0,0,],1,2,45.417,23.967,575,1987,2020,RO,,VOINEASA,,153190-99999_fig2.png
https://bioclimatic.github.io/predilection/psych/153200-99999_fig2.png,153200,99999,5,Gs__,84481,19.4,62.7,9,[,3225,0,0,],0,0,0,0,0,[,0,0,],16,230,[,62,163,0,5,0,0,0,],0,0,45.383,23.467,1550,1987,2020,RO,,PARANG,,153200-99999_fig2.png
https://bioclimatic.github.io/predilection/psych/153210-99999_fig2.png,153210,99999,4,Hp__,89906,19.4,60.1,0,[,2110,5,0,],0,0,0,0,0,[,0,0,],2,240,[,0,187,0,45,7,0,0,],3,5,45.35,23.517,2075,1989,1997,RO,,PARING (AUT),,153210-99999_fig2.png
https://bioclimatic.github.io/predilection/psych/153220-99999_fig2.png,153220,99999,7,Gs__,NaN,19.4,NaN,3,[,5546,0,0,],0,NaN,NaN,NaN,NaN,[,0,0,],1,334,[,178,156,0,0,0,0,0,],0,0,NaN,NaN,0,1990,2001,RO,,BOGUS ROMANIAN,,153220-99999_fig2.png
https://bioclimatic.github.io/predilection/psych/153240-99999_fig2.png,153240,99999,4,Gs__,93804,19.4,58.3,10,[,2268,4,3,],1,0,6,8,9,[,0,0,],17,229,[,34,159,0,31,4,0,0,],3,4,45.283,25.033,680,1987,2020,RO,,CAMPULUNG MUSCEL,,153240-99999_fig2.png
https://bioclimatic.github.io/predilection/psych/153250-99999_fig2.png,153250,99999,5,Gs__,84821,19.4,62.6,9,[,3208,0,0,],0,0,0,0,0,[,0,0,],16,230,[,58,167,0,6,0,0,0,],0,0,45.35,25.5,1510,1987,2020,RO,,SINAIA-1500,,153250-99999_fig2.png
https://bioclimatic.github.io/predilection/psych/153280-99999_fig2.png,153280,99999,3,GsVt,98293,19.4,56.5,10,[,1870,13,12,],2,4,10,13,15,[,0,0,],16,221,[,23,141,0,42,13,0,1,],8,12,45.317,26.367,291,1987,2020,RO,,PATARLAGELE,,153280-99999_fig2.png
https://bioclimatic.github.io/predilection/psych/153330-99999_fig2.png,153330,99999,3,GsVt,101550,19.4,55.3,11,[,1849,36,43,],3,4,12,17,19,[,3,0,],18,226,[,41,114,0,45,23,0,3,],19,17,45.2,27.917,15,1987,2020,RO,,BRAILA,,153330-99999_fig2.png
https://bioclimatic.github.io/predilection/psych/153350-99999_fig2.png,153350,99999,4,GsVt,101272,19.4,55.4,32,[,2785,70,166,],2,13,25,34,41,[,6,0,],32,363,[,86,162,0,71,37,1,7,],36,33,45.062,28.714,61,1987,2020,RO,,CATALOI,,153350-99999_fig2.png
https://bioclimatic.github.io/predilection/psych/153360-99999_fig2.png,153360,99999,3,GsVt,101679,19.4,55.3,10,[,1685,28,84,],1,5,9,12,15,[,2,0,],16,220,[,29,119,0,38,32,0,2,],18,32,45.183,29.167,4,1988,2020,RO,,GORGOVA,,153360-99999_fig2.png
https://bioclimatic.github.io/predilection/psych/153370-99999_fig2.png,153370,99999,3,GsVt,99680,19.4,56,10,[,1426,22,36,],2,6,9,12,15,[,0,0,],16,179,[,31,89,0,38,20,0,1,],14,13,45.083,29.067,173,1994,2020,RO,,MAHMUDIA,,153370-99999_fig2.png
https://bioclimatic.github.io/predilection/psych/153380-99999_fig2.png,153380,99999,3,GsVt,98093,19.4,56.6,17,[,1841,42,22,],4,8,16,21,24,[,0,0,],24,239,[,43,131,0,45,14,3,2,],18,10,45.033,21.683,310,1987,2020,RO,,ORAVITA,,153380-99999_fig2.png
https://bioclimatic.github.io/predilection/psych/153400-99999_fig2.png,153400,99999,3,GsVt,99313,19.4,56.1,19,[,2004,20,29,],3,5,16,22,24,[,1,0,],26,239,[,56,117,0,48,15,1,1,],13,10,45.033,23.267,206,1987,2020,RO,,TARGU JIU,,153400-99999_fig2.png
https://bioclimatic.github.io/predilection/psych/153410-99999_fig2.png,153410,99999,3,GsVt,98650,19.4,56.4,11,[,1968,14,54,],0,3,9,14,16,[,3,0,],17,223,[,42,126,0,40,14,0,1,],8,14,45,22.867,251,1987,2020,RO,,APA NEAGRA,,153410-99999_fig2.png
https://bioclimatic.github.io/predilection/psych/153440-99999_fig2.png,153440,99999,3,Gs__,95515,19.4,57.6,11,[,1745,11,2,],4,0,9,12,12,[,0,0,],16,199,[,27,122,0,39,10,0,0,],7,8,45.183,23.817,532,1987,2020,RO,,POLOVRAGI,,153440-99999_fig2.png
https://bioclimatic.github.io/predilection/psych/153450-99999_fig2.png,153450,99999,3,GsVt,95300,19.4,57.7,11,[,1944,13,3,],3,0,8,10,11,[,0,0,],16,217,[,26,139,0,41,9,1,1,],7,7,45,24.533,550,1987,2020,RO,,MORARESTI,,153450-99999_fig2.png
https://bioclimatic.github.io/predilection/psych/153460-99999_fig2.png,153460,99999,4,GsVt,98904,19.4,56.3,31,[,2891,36,38,],9,13,28,37,41,[,2,0,],31,364,[,81,180,0,78,21,1,2,],22,12,45.1,24.367,239,1987,2020,RO,,RAMNICU VALCEA,,153460-99999_fig2.png
https://bioclimatic.github.io/predilection/psych/153470-99999_fig2.png,153470,99999,3,Gs__,96426,19.4,57.3,11,[,2027,10,4,],2,1,10,14,14,[,0,0,],18,222,[,38,135,0,39,9,1,0,],6,7,45.167,24.667,449,1987,2020,RO,,CURTEA DE ARGES,,153470-99999_fig2.png
https://bioclimatic.github.io/predilection/psych/153480-99999_fig2.png,153480,99999,5,____,NaN,19.4,NaN,2,[,3198,15,NaN,],NaN,NaN,NaN,NaN,NaN,[,NaN,NaN,],1,313,[,NaN,247,NaN,36,31,NaN,NaN,],10,27,NaN,NaN,0,1996,1996,RO,,BOGUS ROMANIAN,,153480-99999_fig2.png
https://bioclimatic.github.io/predilection/psych/153490-99999_fig2.png,153490,99999,4,Gs__,96276,19.4,57.3,11,[,2080,5,2,],2,0,8,10,11,[,0,0,],17,227,[,33,146,0,42,7,0,0,],4,5,45.144,25.75,463,1987,2020,RO,,CAMPINA,,153490-99999_fig2.png
https://bioclimatic.github.io/predilection/psych/153500-99999_fig2.png,153500,99999,4,GsVt,100604,19.4,55.7,32,[,2882,73,106,],6,14,27,36,41,[,4,0,],32,364,[,84,165,0,72,35,3,5,],37,26,45.15,26.817,97,1987,2020,RO,,BUZAU,,153500-99999_fig2.png
https://bioclimatic.github.io/predilection/psych/153550-99999_fig2.png,153550,99999,4,____,100871,19.4,55.6,1,[,3009,56,NaN,],NaN,NaN,NaN,NaN,NaN,[,NaN,NaN,],11,348,[,NaN,229,NaN,82,37,NaN,NaN,],26,27,45.067,27.233,53,1987,1998,RO,,FAUREI/=694514 KQYB,,153550-99999_fig2.png
https://bioclimatic.github.io/predilection/psych/153560-99999_fig2.png,153560,99999,4,____,101269,19.4,55.4,0,[,2945,71,NaN,],NaN,NaN,NaN,NaN,NaN,[,NaN,NaN,],10,342,[,NaN,226,NaN,72,44,NaN,NaN,],32,35,45.017,27.7,20,1987,1997,RO,,VIZIRU,,153560-99999_fig2.png
https://bioclimatic.github.io/predilection/psych/153580-99999_fig2.png,153580,99999,4,____,NaN,19.4,NaN,1,[,2885,41,NaN,],NaN,NaN,NaN,NaN,NaN,[,NaN,NaN,],7,337,[,NaN,237,NaN,59,41,NaN,NaN,],20,39,NaN,NaN,0,1989,1997,RO,,BOGUS ROMANIAN,,153580-99999_fig2.png
https://bioclimatic.github.io/predilection/psych/153600-99999_fig2.png,153600,99999,4,GsVt,101544,19.4,55.3,34,[,2643,43,411,],4,14,19,24,33,[,2,0,],34,361,[,84,162,0,57,53,0,5,],31,57,45.167,29.733,9,1987,2020,RO,,SULINA,,153600-99999_fig2.png
https://bioclimatic.github.io/predilection/psych/153640-99999_fig2.png,153640,99999,3,Gs__,98829,19.4,56.3,10,[,1556,8,8,],1,0,8,12,13,[,1,0,],16,179,[,39,99,0,32,9,0,0,],5,6,44.917,22,252,1987,2020,RO,,BOZOVICI,,153640-99999_fig2.png
https://bioclimatic.github.io/predilection/psych/153660-99999_fig2.png,153660,99999,3,GsVt,99462,19.4,56.1,10,[,1343,19,15,],3,3,10,14,16,[,2,0,],16,178,[,27,100,0,36,13,1,1,],11,9,44.883,22.417,176,1987,2020,RO,,BAILE HERCULANE,,153660-99999_fig2.png
https://bioclimatic.github.io/predilection/psych/153690-99999_fig2.png,153690,99999,3,GsVt,98599,19.4,56.4,11,[,2002,14,20,],1,2,11,15,17,[,1,0,],18,225,[,44,128,0,40,13,0,0,],8,12,44.883,23.7,265,1987,2020,RO,,TARGU LOGRESTI,,153690-99999_fig2.png
https://bioclimatic.github.io/predilection/psych/153730-99999_fig2.png,153730,99999,3,GsVt,97901,19.4,56.7,10,[,1934,18,9,],4,2,11,15,17,[,0,0,],17,229,[,33,133,0,46,16,0,1,],11,11,44.85,24.817,315,1987,2020,RO,,PITESTI,,153730-99999_fig2.png
https://bioclimatic.github.io/predilection/psych/153750-99999_fig2.png,153750,99999,3,GsVt,98204,19.4,56.6,18,[,2042,15,26,],3,4,15,20,22,[,1,0,],25,238,[,56,121,0,47,13,0,1,],10,9,44.933,25.433,298,1987,2020,RO,,TARGOVISTE,,153750-99999_fig2.png
https://bioclimatic.github.io/predilection/psych/153770-99999_fig2.png,153770,99999,3,GsVt,99586,19.4,56,20,[,2021,28,43,],2,7,16,22,25,[,2,0,],27,239,[,63,109,0,47,17,1,2,],16,13,44.95,26,177,1987,2020,RO,,PLOIESTI,,153770-99999_fig2.png
https://bioclimatic.github.io/predilection/psych/153870-99999_fig2.png,153870,99999,3,GsVt,101692,19.4,55.3,11,[,1745,17,116,],1,5,9,12,15,[,1,0,],17,226,[,31,122,0,38,33,0,1,],13,32,44.9,29.6,2,1987,2020,RO,,SFANTU GHEORGHE DELTA,,153870-99999_fig2.png
https://bioclimatic.github.io/predilection/psych/153880-99999_fig2.png,153880,99999,3,GsVt,100801,19.4,55.6,12,[,1709,52,42,],3,9,13,18,21,[,2,0,],19,230,[,37,124,0,43,19,2,4,],21,18,44.717,21.633,83,1987,2020,RO,,MOLDOVA VECHE,,153880-99999_fig2.png
https://bioclimatic.github.io/predilection/psych/153890-99999_fig2.png,153890,99999,4,____,101008,19.4,55.5,1,[,2824,34,NaN,],NaN,NaN,NaN,NaN,NaN,[,NaN,NaN,],11,346,[,NaN,240,NaN,74,32,NaN,NaN,],17,25,44.65,21.95,68,1987,1997,RO,,BERZASCA,,153890-99999_fig2.png
https://bioclimatic.github.io/predilection/psych/153950-99999_fig2.png,153950,99999,3,GsVt,98430,19.4,56.5,10,[,1686,36,23,],4,6,12,15,17,[,1,0,],17,214,[,31,116,0,42,22,1,2,],18,16,44.667,24.233,281,1987,2020,RO,,DRAGASANI,,153950-99999_fig2.png
https://bioclimatic.github.io/predilection/psych/154010-99999_fig2.png,154010,99999,4,____,NaN,19.4,NaN,0,[,2873,52,NaN,],NaN,NaN,NaN,NaN,NaN,[,NaN,NaN,],6,334,[,NaN,231,NaN,57,46,NaN,NaN,],24,43,NaN,NaN,0,1987,1992,RO,,BOGUS ROMANIAN,,154010-99999_fig2.png
https://bioclimatic.github.io/predilection/psych/154020-99999_fig2.png,154020,99999,3,GsVt,101010,19.4,55.5,11,[,1846,41,39,],3,5,11,15,17,[,2,0,],17,226,[,38,114,0,45,24,1,3,],20,19,44.717,26.65,61,1987,2020,RO,,URZICENI,,154020-99999_fig2.png
https://bioclimatic.github.io/predilection/psych/154050-99999_fig2.png,154050,99999,3,GsVt,101161,19.4,55.5,18,[,1976,38,69,],1,7,15,21,25,[,3,0,],25,239,[,61,105,0,47,23,0,3,],20,19,44.75,27.3,51,1987,2020,RO,,GRIVITA,,154050-99999_fig2.png
https://bioclimatic.github.io/predilection/psych/154060-99999_fig2.png,154060,99999,3,GsVt,101255,19.4,55.4,10,[,1819,38,35,],3,5,11,15,18,[,2,0,],17,226,[,38,114,0,45,25,1,2,],20,19,44.683,27.95,38,1987,2020,RO,,HARSOVA,,154060-99999_fig2.png
https://bioclimatic.github.io/predilection/psych/154080-99999_fig2.png,154080,99999,3,GsVt,99084,19.4,56.2,7,[,1984,23,31,],1,3,5,7,10,[,1,0,],13,227,[,26,132,0,48,21,0,1,],14,14,44.733,28.35,220,1987,2020,RO,,CORUGEA,,154080-99999_fig2.png
https://bioclimatic.github.io/predilection/psych/154090-99999_fig2.png,154090,99999,3,GsVt,101260,19.4,55.4,17,[,1835,25,57,],2,9,14,18,22,[,1,0,],23,232,[,48,114,0,48,21,1,1,],16,16,44.767,28.883,38,1987,2020,RO,,JURILOVCA,,154090-99999_fig2.png
https://bioclimatic.github.io/predilection/psych/154100-99999_fig2.png,154100,99999,4,GsEv,100836,19.4,55.6,34,[,2637,94,97,],9,15,29,38,43,[,8,0,],34,364,[,69,176,0,75,33,4,8,],42,23,44.633,22.633,80,1987,2020,RO,,DROBETA TURNU SEVERIN,,154100-99999_fig2.png
https://bioclimatic.github.io/predilection/psych/154120-99999_fig2.png,154120,99999,3,GsVt,98042,19.4,56.6,10,[,1913,28,3,],6,0,11,14,15,[,0,0,],16,226,[,28,132,0,45,18,1,1,],14,13,44.483,23.117,313,1987,2020,RO,,BACLES,,154120-99999_fig2.png
https://bioclimatic.github.io/predilection/psych/154140-99999_fig2.png,154140,99999,5,____,NaN,19.4,NaN,3,[,3087,50,NaN,],NaN,NaN,NaN,NaN,NaN,[,NaN,NaN,],6,346,[,NaN,243,NaN,56,46,NaN,NaN,],22,40,NaN,NaN,0,1987,1997,RO,,BOGUS ROMANIAN,,154140-99999_fig2.png
https://bioclimatic.github.io/predilection/psych/154160-99999_fig2.png,154160,99999,3,GsVt,99234,19.4,56.2,11,[,1848,27,18,],2,2,11,15,17,[,1,0,],17,218,[,42,113,0,43,18,1,1,],15,14,44.567,24.8,210,1987,2020,RO,,STOLNICI,,154160-99999_fig2.png
https://bioclimatic.github.io/predilection/psych/154190-99999_fig2.png,154190,99999,3,GsVt,99884,19.4,55.9,11,[,1958,27,39,],2,5,12,16,18,[,2,0,],18,230,[,46,117,0,46,20,0,2,],15,16,44.65,25.583,160,1987,2020,RO,,TITU,,154190-99999_fig2.png
https://bioclimatic.github.io/predilection/psych/154200-99999_fig2.png,154200,99999,4,GsVt,100241,19.4,55.8,34,[,2881,71,80,],3,12,28,37,42,[,5,0,],34,364,[,94,157,0,73,33,3,5,],36,22,44.503,26.102,90,1987,2020,RO,,AUREL VLAICU,,154200-99999_fig2.png
https://bioclimatic.github.io/predilection/psych/154210-99999_fig2.png,154210,99999,4,GsVt,100252,19.4,55.8,34,[,2970,57,82,],5,13,27,36,41,[,4,0,],34,364,[,99,155,0,74,30,2,5,],31,23,44.571,26.085,96,1987,2020,RO,,HENRI COANDA,,154210-99999_fig2.png
https://bioclimatic.github.io/predilection/psych/154215-99999_fig2.png,154215,99999,4,GsVt,97422,19.4,56.9,15,[,3069,24,18,],7,13,27,35,38,[,0,0,],15,357,[,98,164,0,77,17,1,1,],17,7,46.502,23.886,330,2006,2020,RO,,CAMPIA TURZII,,154215-99999_fig2.png
https://bioclimatic.github.io/predilection/psych/154220-99999_fig2.png,154220,99999,3,GsVt,100733,19.4,55.6,10,[,1664,54,41,],3,5,11,15,17,[,3,0,],18,216,[,30,114,0,40,26,2,4,],24,23,44.417,26.1,84,1987,2020,RO,,BUCURESTI FILARET,,154220-99999_fig2.png
https://bioclimatic.github.io/predilection/psych/154230-99999_fig2.png,154230,99999,4,HpVt,100887,19.4,55.6,1,[,2734,41,0,],0,0,0,0,0,[,0,0,],1,313,[,0,209,0,67,37,0,0,],21,30,44.45,26.967,51,1987,1998,RO,,DILGA,,154230-99999_fig2.png
https://bioclimatic.github.io/predilection/psych/154240-99999_fig2.png,154240,99999,3,HpVt,100910,19.4,55.5,5,[,1174,18,0,],0,0,0,0,0,[,0,0,],10,132,[,0,86,0,32,14,0,0,],9,9,44.467,26.517,67,1987,1997,RO,,FUNDULEA,,154240-99999_fig2.png
https://bioclimatic.github.io/predilection/psych/154250-99999_fig2.png,154250,99999,3,GsVt,101105,19.4,55.5,10,[,1766,41,29,],3,5,11,14,17,[,2,0,],18,217,[,37,110,0,43,25,1,2,],21,18,44.55,27.4,52,1987,2020,RO,,SLOBOZIA,,154250-99999_fig2.png
https://bioclimatic.github.io/predilection/psych/154280-99999_fig2.png,154280,99999,3,GsVt,101689,19.4,55.3,10,[,1591,28,138,],1,6,9,12,15,[,1,0,],18,211,[,30,110,0,34,35,0,2,],20,34,44.683,29,6,1987,2020,RO,,GURA PORTITEI,,154280-99999_fig2.png
https://bioclimatic.github.io/predilection/psych/154290-99999_fig2.png,154290,99999,4,HpVt,100717,19.4,55.6,2,[,2338,53,0,],0,0,0,0,0,[,0,0,],1,282,[,0,195,0,60,27,0,0,],21,21,44.417,26.65,88,1987,1990,RO,,SARULESTI,,154290-99999_fig2.png
https://bioclimatic.github.io/predilection/psych/154340-99999_fig2.png,154340,99999,3,GsVt,99685,19.4,56,10,[,1746,38,31,],3,3,11,14,16,[,1,0,],18,217,[,36,115,0,39,26,1,1,],19,22,44.433,24.35,173,1987,2020,RO,,SLATINA,,154340-99999_fig2.png
https://bioclimatic.github.io/predilection/psych/154360-99999_fig2.png,154360,99999,3,HpVt,99452,19.4,56.1,0,[,1706,54,0,],0,0,0,0,0,[,0,0,],1,212,[,0,147,0,42,23,0,0,],20,27,0,0,159,1988,1989,RO,,BOGUS ROMANIAN,,154360-99999_fig2.png
https://bioclimatic.github.io/predilection/psych/154430-99999_fig2.png,154430,99999,4,HpVt,101143,19.4,55.5,0,[,2181,85,0,],0,0,0,0,0,[,0,0,],1,264,[,0,166,0,57,41,0,0,],34,36,44.45,26.917,40,1988,1997,RO,,DOR MARUNT,,154430-99999_fig2.png
https://bioclimatic.github.io/predilection/psych/154440-99999_fig2.png,154440,99999,3,GsVt,101023,19.4,55.5,13,[,1726,37,41,],1,6,12,16,19,[,2,0,],20,220,[,44,103,0,46,25,1,2,],21,17,44.367,27.85,61,1987,2020,RO,,FETESTI,,154440-99999_fig2.png
https://bioclimatic.github.io/predilection/psych/154450-99999_fig2.png,154450,99999,3,GsVt,100756,19.4,55.6,9,[,1416,39,52,],1,5,8,12,15,[,2,0,],17,190,[,28,97,0,37,26,1,2,],20,20,44.35,28.05,88,1988,2020,RO,,CERNAVODA,,154450-99999_fig2.png
https://bioclimatic.github.io/predilection/psych/154500-99999_fig2.png,154500,99999,4,GsVt,99001,19.4,56.3,22,[,2786,70,60,],9,14,27,36,41,[,3,0,],23,353,[,83,160,0,71,31,4,4,],34,22,44.318,23.889,191,1987,2020,RO,,CRAIOVA,,154500-99999_fig2.png
https://bioclimatic.github.io/predilection/psych/154550-99999_fig2.png,154550,99999,3,GsVt,100471,19.4,55.7,10,[,1719,48,36,],3,4,10,13,15,[,2,0,],17,211,[,32,109,0,42,24,1,3,],21,19,44.283,25.533,107,1987,2020,RO,,VIDELE,,154550-99999_fig2.png
https://bioclimatic.github.io/predilection/psych/154600-99999_fig2.png,154600,99999,4,GsVt,101494,19.4,55.3,32,[,2663,78,89,],6,13,27,36,42,[,6,0,],33,353,[,83,154,0,72,35,3,6,],39,23,44.2,27.35,20,1987,2020,RO,,CALARASI,,154600-99999_fig2.png
https://bioclimatic.github.io/predilection/psych/154620-99999_fig2.png,154620,99999,3,GsVt,100883,19.4,55.6,9,[,1696,32,28,],2,5,9,12,15,[,1,0,],17,218,[,28,116,0,45,26,1,1,],18,19,44.25,28.267,72,1987,2020,RO,,MEDGIDIA,,154620-99999_fig2.png
https://bioclimatic.github.io/predilection/psych/154630-99999_fig2.png,154630,99999,4,HpVt,101096,19.4,55.5,0,[,2539,29,0,],0,0,0,0,0,[,0,0,],1,302,[,0,204,0,60,38,0,0,],16,34,0,0,49,1987,1997,RO,,BOGUS ROMANIAN,,154630-99999_fig2.png
https://bioclimatic.github.io/predilection/psych/154650-99999_fig2.png,154650,99999,3,GsVt,101041,19.4,55.5,10,[,1662,52,37,],2,6,11,15,17,[,3,0,],18,214,[,36,108,0,41,23,1,4,],23,21,44.017,23.333,58,1987,2020,RO,,BAILESTI,,154650-99999_fig2.png
https://bioclimatic.github.io/predilection/psych/154690-99999_fig2.png,154690,99999,3,GsVt,100467,19.4,55.7,10,[,1667,54,27,],4,5,11,15,17,[,2,0,],18,212,[,37,105,0,39,26,2,3,],24,22,44.1,24.367,107,1987,2020,RO,,CARACAL,,154690-99999_fig2.png
https://bioclimatic.github.io/predilection/psych/154700-99999_fig2.png,154700,99999,4,GsEv,100486,19.4,55.7,27,[,2849,83,77,],8,14,28,36,42,[,5,0,],28,353,[,95,148,0,70,30,4,6,],38,21,44.1,24.983,103,1987,2020,RO,,ROSIORII DE VEDE,,154700-99999_fig2.png
https://bioclimatic.github.io/predilection/psych/154750-99999_fig2.png,154750,99999,3,GsVt,101534,19.4,55.3,11,[,1614,48,75,],1,4,10,14,16,[,4,0,],18,208,[,33,107,0,36,29,0,3,],22,29,44.067,26.633,16,1987,2020,RO,,OLTENITA,,154750-99999_fig2.png
https://bioclimatic.github.io/predilection/psych/154760-99999_fig2.png,154760,99999,4,____,101701,19.4,55.3,0,[,2371,33,NaN,],NaN,NaN,NaN,NaN,NaN,[,NaN,NaN,],4,328,[,NaN,219,NaN,51,57,NaN,NaN,],24,54,44.117,26.333,4,1987,1990,RO,,GREACA,,154760-99999_fig2.png
https://bioclimatic.github.io/predilection/psych/154770-99999_fig2.png,154770,99999,3,HpVt,101464,19.4,55.3,2,[,1223,18,94,],0,1,1,2,3,[,1,0,],11,177,[,6,110,0,29,28,0,3,],14,29,44.517,29.567,14,1988,2001,RO,,PLATFORMA GLORIA,,154770-99999_fig2.png
https://bioclimatic.github.io/predilection/psych/154790-99999_fig2.png,154790,99999,3,GsVt,99821,19.4,55.9,10,[,1668,33,17,],3,4,9,13,15,[,1,0,],17,211,[,30,115,0,42,21,1,1,],18,15,44.083,27.967,160,1987,2020,RO,,ADAMCLISI,,154790-99999_fig2.png
https://bioclimatic.github.io/predilection/psych/154800-99999_fig2.png,154800,99999,4,GsVt,101552,19.4,55.3,31,[,2490,51,298,],3,13,20,27,36,[,2,0,],32,354,[,71,167,0,63,48,0,5,],34,48,44.217,28.65,14,1987,2020,RO,,CONSTANTA,,154800-99999_fig2.png
https://bioclimatic.github.io/predilection/psych/154810-99999_fig2.png,154810,99999,4,GsVt,100110,19.4,55.8,32,[,2781,45,135,],2,11,21,31,40,[,3,0,],33,354,[,89,158,0,65,36,2,3,],26,30,44.362,28.488,108,1987,2020,RO,,MIHAIL KOGALNICEANU,,154810-99999_fig2.png
https://bioclimatic.github.io/predilection/psych/154820-99999_fig2.png,154820,99999,3,GsVt,101020,19.4,55.5,12,[,1667,60,86,],2,6,12,17,20,[,7,0,],20,226,[,33,112,0,43,30,1,7,],28,26,43.983,22.95,63,1987,2020,RO,,CALAFAT,,154820-99999_fig2.png
https://bioclimatic.github.io/predilection/psych/154830-99999_fig2.png,154830,99999,4,____,NaN,19.4,NaN,0,[,2256,76,NaN,],NaN,NaN,NaN,NaN,NaN,[,NaN,NaN,],1,302,[,NaN,234,NaN,20,48,NaN,NaN,],37,80,NaN,NaN,0,1988,1988,RO,,BOGUS ROMANIAN,,154830-99999_fig2.png
https://bioclimatic.github.io/predilection/psych/154890-99999_fig2.png,154890,99999,3,GsVt,100819,19.4,55.6,9,[,1747,53,34,],3,5,11,14,17,[,2,0,],18,217,[,37,108,0,42,24,2,3,],24,19,43.983,25.35,76,1987,2020,RO,,ALEXANDRIA,,154890-99999_fig2.png
https://bioclimatic.github.io/predilection/psych/154900-99999_fig2.png,154900,99999,3,GsVt,101366,19.4,55.4,17,[,1760,56,91,],3,7,15,21,24,[,6,1,],25,226,[,52,97,0,45,25,1,6,],26,22,43.75,24.883,31,1987,2020,RO,,TURNU-MAGURELE,,154900-99999_fig2.png
https://bioclimatic.github.io/predilection/psych/154910-99999_fig2.png,154910,99999,3,GsVt,101438,19.4,55.4,11,[,1755,58,70,],2,5,11,16,18,[,4,0,],19,225,[,40,105,0,42,33,1,5,],28,31,43.883,25.95,24,1987,2020,RO,,GIURGIU,,154910-99999_fig2.png
https://bioclimatic.github.io/predilection/psych/154931-99999_fig2.png,154931,99999,4,GsVt,100726,19.4,55.6,9,[,2375,61,229,],3,13,23,29,38,[,1,0,],9,353,[,65,164,0,69,51,1,3,],41,46,43.985,28.607,50,2012,2020,RO,,TUZLA,,154931-99999_fig2.png
https://bioclimatic.github.io/predilection/psych/154940-99999_fig2.png,154940,99999,3,GsVt,101310,19.4,55.4,10,[,1705,43,58,],1,4,10,14,17,[,5,0,],18,218,[,36,110,0,44,25,0,2,],21,24,43.783,23.95,40,1987,2020,RO,,BECHET,,154940-99999_fig2.png
https://bioclimatic.github.io/predilection/psych/154980-99999_fig2.png,154980,99999,3,GsVt,101306,19.4,55.4,10,[,1581,52,43,],2,5,10,13,15,[,3,0,],17,207,[,32,104,0,38,29,1,3,],24,26,43.667,25.35,34,1987,2020,RO,,ZIMNICEA,,154980-99999_fig2.png
https://bioclimatic.github.io/predilection/psych/154990-99999_fig2.png,154990,99999,3,GsVt,101612,19.4,55.3,21,[,1638,15,210,],0,6,11,15,22,[,1,0,],29,227,[,44,116,0,33,33,0,1,],14,34,43.817,28.583,9,1987,2020,RO,,MANGALIA,,154990-99999_fig2.png
