URL,WMOstn,WBANo,Acz,HVAC,meanPa,WBref,hBASE,dpy,[,avHDD,avCDD,avChD,],low,min,ave,max,best,[,WsD,YsD,],yrs,dys,[,Icy,Hea,Hum,Pas,Vtn,EvC,DX,],24Cd,67Fd,latitude,longitude,elev,base,stop,CC,ST,Placename,,psychrometric_chart_image
https://bioclimatic.github.io/predilection/psych/816150-99999_fig2.png,816150,99999,0,__Ac,100214,19.4,55.8,4,[,0,1376,4432,],8,16,24,32,41,[,255,0,],2,365,[,0,0,0,0,112,0,253,],362,365,2.805,-60.647,96,2017,2019,BR,,BOA VISTA,,816150-99999_fig2.png
https://bioclimatic.github.io/predilection/psych/816480-99999_fig2.png,816480,99999,1,____,100700,19.4,55.6,2,[,0,852,NaN,],NaN,NaN,NaN,NaN,NaN,[,NaN,NaN,],1,365,[,NaN,0,NaN,0,365,NaN,NaN,],358,365,-0.983,-62.917,18,2019,2019,BR,,BARCELOS,,816480-99999_fig2.png
https://bioclimatic.github.io/predilection/psych/816580-99999_fig2.png,816580,99999,0,__Ac,101040,19.4,55.5,4,[,0,1284,6367,],5,15,20,25,31,[,261,0,],3,360,[,0,0,0,0,66,0,294,],360,360,-0.817,-48.517,12,2017,2019,BR,,SOURE,,816580-99999_fig2.png
https://bioclimatic.github.io/predilection/psych/816600-99999_fig2.png,816600,99999,1,__Ac,100890,19.4,55.5,4,[,0,1067,5775,],5,14,19,24,30,[,173,0,],3,336,[,0,0,0,0,72,0,264,],335,336,-0.617,-47.35,22,2017,2019,BR,,SALINOPOLIS,,816600-99999_fig2.png
https://bioclimatic.github.io/predilection/psych/816800-99999_fig2.png,816800,99999,0,__Ac,100889,19.4,55.5,4,[,2,1052,6134,],2,11,18,28,35,[,335,0,],3,361,[,0,0,0,0,86,0,275,],360,360,-1.417,-48.433,26,2017,2020,BR,,BELEM,,816800-99999_fig2.png
https://bioclimatic.github.io/predilection/psych/816820-99999_fig2.png,816820,99999,1,__Ac,100630,19.4,55.6,4,[,0,914,5584,],7,12,19,28,35,[,296,0,],4,359,[,0,0,0,0,179,0,180,],356,359,-1.3,-47.95,66,2017,2020,BR,,CASTANHAL,,816820-99999_fig2.png
https://bioclimatic.github.io/predilection/psych/816850-99999_fig2.png,816850,99999,0,__Ac,100742,19.4,55.6,4,[,0,1052,6194,],5,11,18,27,33,[,320,0,],2,358,[,0,0,0,0,82,0,276,],356,358,-1.05,-46.783,34,2017,2018,BR,,BRAGANCA,,816850-99999_fig2.png
https://bioclimatic.github.io/predilection/psych/816870-99999_fig2.png,816870,99999,0,__Ac,100634,19.4,55.6,3,[,0,1008,6182,],6,13,18,25,36,[,268,0,],2,359,[,0,0,0,0,84,0,275,],356,359,-1.667,-45.367,42,2017,2018,BR,,TURIACU,,816870-99999_fig2.png
https://bioclimatic.github.io/predilection/psych/816990-99999_fig2.png,816990,99999,1,__Ac,100383,19.4,55.7,4,[,0,960,5810,],6,10,18,27,37,[,282,1,],4,347,[,0,0,0,0,142,0,205,],342,347,-2.056,-60.026,94,2017,2020,BR,,PRESIDENTE FIGUEIREDO,,816990-99999_fig2.png
https://bioclimatic.github.io/predilection/psych/817000-99999_fig2.png,817000,99999,1,__Ac,100575,19.4,55.7,4,[,0,725,5962,],5,9,16,26,35,[,276,4,],2,356,[,0,0,0,0,176,0,180,],348,356,-2.433,-59.567,60,2018,2019,BR,,RIO URUBU,,817000-99999_fig2.png
https://bioclimatic.github.io/predilection/psych/817020-99999_fig2.png,817020,99999,0,__Ac,100861,19.4,55.6,4,[,0,1270,6767,],4,11,19,27,35,[,315,10,],2,360,[,0,0,0,0,41,0,319,],359,360,-2.533,-57.75,18,2017,2019,BR,,URUCARA,,817020-99999_fig2.png
https://bioclimatic.github.io/predilection/psych/817030-99999_fig2.png,817030,99999,1,__Ac,100834,19.4,55.6,4,[,0,1120,5325,],5,14,20,26,38,[,231,0,],2,307,[,0,0,0,0,59,0,248,],307,307,-2.639,-56.756,36,2017,2018,BR,,PARINTINS,,817030-99999_fig2.png
https://bioclimatic.github.io/predilection/psych/817100-99999_fig2.png,817100,99999,0,__Ac,101086,19.4,55.5,3,[,0,1325,5556,],9,15,22,29,36,[,308,0,],2,344,[,0,0,0,0,77,0,267,],343,344,-2.25,-49.5,24,2017,2019,BR,,CAMETA,,817100-99999_fig2.png
https://bioclimatic.github.io/predilection/psych/817110-99999_fig2.png,817110,99999,1,__Ac,100651,19.4,55.6,3,[,0,838,4409,],6,11,19,28,40,[,239,0,],2,347,[,0,0,0,2,192,0,153,],340,300,-2.6,-48.367,40,2017,2019,BR,,TOME-ACU,,817110-99999_fig2.png
https://bioclimatic.github.io/predilection/psych/817150-99999_fig2.png,817150,99999,1,__Ac,100564,19.4,55.7,4,[,0,1003,6218,],6,12,17,24,31,[,256,0,],4,345,[,0,0,0,0,55,0,290,],344,345,-2.533,-44.217,58,2017,2020,BR,,SAO LUIS,,817150-99999_fig2.png
https://bioclimatic.github.io/predilection/psych/817160-99999_fig2.png,817160,99999,0,__Ac,101045,19.4,55.5,1,[,0,1313,6459,],4,16,20,25,33,[,239,0,],1,351,[,0,0,0,0,7,0,344,],351,346,-2.267,-43.617,10,2017,2018,BR,,SANTANA,,817160-99999_fig2.png
https://bioclimatic.github.io/predilection/psych/817170-99999_fig2.png,817170,99999,1,__Ac,101111,19.4,55.5,6,[,0,1042,5080,],0,17,20,25,32,[,97,0,],2,337,[,0,0,0,0,98,0,239,],336,337,-2.593,-42.707,2,2018,2019,BR,,PREGUICAS,,817170-99999_fig2.png
https://bioclimatic.github.io/predilection/psych/817290-99999_fig2.png,817290,99999,1,__Ac,100610,19.4,55.7,4,[,0,1113,5787,],6,13,19,27,35,[,261,0,],2,344,[,0,0,0,0,123,0,221,],343,344,-3.3,-60.633,20,2017,2018,BR,,PREGUICAS,,817290-99999_fig2.png
https://bioclimatic.github.io/predilection/psych/817300-99999_fig2.png,817300,99999,0,__Ac,100476,19.4,55.7,4,[,0,1399,5977,],5,15,21,28,40,[,302,0,],3,365,[,0,0,0,0,80,0,285,],365,365,-3.133,-59.95,68,2017,2020,BR,,MANAUS,,817300-99999_fig2.png
https://bioclimatic.github.io/predilection/psych/817320-99999_fig2.png,817320,99999,0,__Ac,100808,19.4,55.6,2,[,0,1118,6846,],3,11,18,27,37,[,322,9,],2,350,[,0,0,0,0,44,0,306,],349,349,-3.583,-59.129,30,2017,2020,BR,,AUTAZES,,817320-99999_fig2.png
https://bioclimatic.github.io/predilection/psych/817330-99999_fig2.png,817330,99999,1,__Ac,100656,19.4,55.6,4,[,0,1060,5907,],6,12,19,26,34,[,240,1,],2,333,[,0,0,0,0,94,0,239,],332,333,-3.133,-58.483,38,2017,2018,BR,,ITACOATIARA,,817330-99999_fig2.png
https://bioclimatic.github.io/predilection/psych/817340-99999_fig2.png,817340,99999,1,__Ac,100771,19.4,55.6,4,[,0,808,6093,],4,7,15,26,33,[,286,26,],1,315,[,0,0,0,0,45,0,270,],310,315,-3.4,-57.667,36,2017,2017,BR,,MAUES,,817340-99999_fig2.png
https://bioclimatic.github.io/predilection/psych/817370-99999_fig2.png,817370,99999,1,__Ac,99992,19.4,55.9,4,[,0,836,3712,],6,12,19,29,42,[,203,0,],3,350,[,0,0,2,5,227,30,86,],330,298,-3.867,-54.217,98,2017,2019,BR,,PLACAS,,817370-99999_fig2.png
https://bioclimatic.github.io/predilection/psych/817390-99999_fig2.png,817390,99999,1,__Ac,98236,19.4,56.5,4,[,0,734,3993,],5,13,20,28,41,[,147,0,],2,336,[,0,0,3,0,222,1,110,],317,320,-3.517,-52.967,252,2017,2020,BR,,MEDICILANDIA,,817390-99999_fig2.png
https://bioclimatic.github.io/predilection/psych/817420-99999_fig2.png,817420,99999,1,__Ac,100127,19.4,55.8,3,[,0,1236,4874,],4,14,22,30,40,[,262,0,],1,334,[,0,0,0,0,131,0,203,],327,334,-3.85,-50.633,110,2017,2017,BR,,PACAJA,,817420-99999_fig2.png
https://bioclimatic.github.io/predilection/psych/817430-99999_fig2.png,817430,99999,1,__Ac,99480,19.4,56.1,4,[,0,998,5044,],5,13,20,28,39,[,225,0,],2,350,[,0,0,0,0,155,0,195,],344,350,-3.817,-49.683,150,2017,2018,BR,,TUCURUI,,817430-99999_fig2.png
https://bioclimatic.github.io/predilection/psych/817450-99999_fig2.png,817450,99999,1,__Ac,99693,19.4,56,4,[,0,930,5291,],3,10,19,28,38,[,293,0,],3,340,[,0,0,0,0,136,0,204,],334,340,-3.017,-47.35,102,2017,2019,BR,,PARAGOMINAS,,817450-99999_fig2.png
https://bioclimatic.github.io/predilection/psych/817490-99999_fig2.png,817490,99999,0,__Ac,99973,19.4,55.9,4,[,0,1266,4917,],7,14,22,31,41,[,291,0,],2,358,[,0,0,0,0,112,0,246,],358,358,-3.75,-43.35,92,2018,2019,BR,,CHAPADINHA,,817490-99999_fig2.png
https://bioclimatic.github.io/predilection/psych/817510-99999_fig2.png,817510,99999,1,__Ac,100204,19.4,55.8,2,[,0,1125,3701,],6,12,23,34,46,[,294,3,],2,325,[,0,0,0,0,143,0,182,],323,325,-3.9,-42.267,66,2017,2018,BR,,ESPERANTINA,,817510-99999_fig2.png
https://bioclimatic.github.io/predilection/psych/817520-99999_fig2.png,817520,99999,1,__Ac,100534,19.4,55.7,4,[,0,1064,5620,],4,11,19,29,39,[,333,3,],3,348,[,0,0,0,0,75,0,273,],347,348,-3.067,-41.783,58,2017,2020,BR,,PARNAIBA,,817520-99999_fig2.png
https://bioclimatic.github.io/predilection/psych/817540-99999_fig2.png,817540,99999,0,__Ac,100091,19.4,55.8,1,[,0,1228,3963,],3,13,23,34,43,[,311,1,],1,359,[,0,0,0,0,81,0,278,],357,353,-3.75,-40.35,66,2017,2020,BR,,SOBRAL,,817540-99999_fig2.png
https://bioclimatic.github.io/predilection/psych/817550-99999_fig2.png,817550,99999,1,__Ac,100453,19.4,55.7,2,[,0,935,5108,],2,12,19,29,40,[,302,0,],2,360,[,0,0,0,0,144,0,216,],356,360,-3.117,-40.083,78,2017,2018,BR,,ACARAU,,817550-99999_fig2.png
https://bioclimatic.github.io/predilection/psych/817560-99999_fig2.png,817560,99999,1,__Ac,100019,19.4,55.9,2,[,0,1206,3875,],9,17,23,31,43,[,238,0,],1,327,[,0,0,0,0,62,0,265,],327,327,-3.483,-39.583,104,2017,2017,BR,,ITAPIPOCA,,817560-99999_fig2.png
https://bioclimatic.github.io/predilection/psych/817580-99999_fig2.png,817580,99999,0,__Ac,100937,19.4,55.5,4,[,0,1175,4859,],8,16,22,28,38,[,174,0,],3,362,[,0,0,0,0,122,0,240,],362,362,-3.8,-38.533,42,2017,2020,BR,,FORTALEZA,,817580-99999_fig2.png
https://bioclimatic.github.io/predilection/psych/817700-99999_fig2.png,817700,99999,1,__Ac,100643,19.4,55.6,4,[,0,1007,5924,],6,11,18,28,37,[,297,7,],2,337,[,0,0,0,0,87,0,250,],336,337,-4.1,-63.15,44,2017,2019,BR,,COARI,,817700-99999_fig2.png
https://bioclimatic.github.io/predilection/psych/817740-99999_fig2.png,817740,99999,0,__Ac,98573,19.4,56.4,4,[,0,1323,1612,],9,16,25,35,47,[,75,0,],4,357,[,0,0,0,2,139,85,132,],354,235,-6.836,-38.311,236,2017,2020,BR,,SAO GONCALO,,817740-99999_fig2.png
https://bioclimatic.github.io/predilection/psych/817780-99999_fig2.png,817780,99999,0,__Ac,100814,19.4,55.6,4,[,0,1217,5830,],7,14,20,28,36,[,303,0,],1,365,[,0,0,0,0,119,0,246,],364,365,-4.283,-56,14,2019,2019,BR,,ITAITUBA,,817780-99999_fig2.png
https://bioclimatic.github.io/predilection/psych/817840-99999_fig2.png,817840,99999,0,__Ac,100033,19.4,55.9,4,[,0,1011,3257,],8,14,22,30,39,[,176,0,],3,359,[,0,0,0,1,184,73,101,],353,239,-4.25,-49.933,114,2017,2020,BR,,NOVO REPARTIMENTO,,817840-99999_fig2.png
https://bioclimatic.github.io/predilection/psych/817860-99999_fig2.png,817860,99999,1,__Ac,98668,19.4,56.4,4,[,0,643,3507,],7,12,20,31,43,[,197,0,],3,339,[,0,0,0,1,293,0,45,],325,328,-4.783,-48.067,222,2017,2020,BR,,RONDON DO PARA,,817860-99999_fig2.png
https://bioclimatic.github.io/predilection/psych/817880-99999_fig2.png,817880,99999,0,__Ac,99096,19.4,56.2,3,[,0,993,3248,],9,15,23,32,43,[,134,0,],1,365,[,0,0,0,0,221,3,141,],361,350,-4.317,-46.45,176,2017,2017,BR,,BURITICUPU,,817880-99999_fig2.png
https://bioclimatic.github.io/predilection/psych/817900-99999_fig2.png,817900,99999,0,__Ac,100855,19.4,55.6,4,[,0,1129,4908,],6,13,21,30,42,[,277,6,],1,350,[,0,0,0,2,122,0,226,],337,346,-4.25,-44.8,30,2017,2017,BR,,BACABAL,,817900-99999_fig2.png
https://bioclimatic.github.io/predilection/psych/817920-99999_fig2.png,817920,99999,0,__Ac,100182,19.4,55.8,4,[,0,1124,4032,],6,12,22,33,44,[,301,0,],2,365,[,0,0,0,3,195,1,166,],359,355,-4.817,-43.35,78,2017,2019,BR,,CAXIAS,,817920-99999_fig2.png
https://bioclimatic.github.io/predilection/psych/817940-99999_fig2.png,817940,99999,0,__Ac,99295,19.4,56.1,4,[,0,1686,5381,],5,13,23,33,49,[,350,35,],2,360,[,0,0,0,0,15,0,345,],359,360,-4.283,-41.8,162,2018,2020,BR,,PIRIPIRI,,817940-99999_fig2.png
https://bioclimatic.github.io/predilection/psych/817970-99999_fig2.png,817970,99999,2,__Vt,91681,19.4,59.3,4,[,0,1,410,],6,11,16,26,34,[,0,0,],2,347,[,0,0,0,174,173,0,0,],2,173,-4.267,-38.933,872,2017,2018,BR,,GUARAMIRANGA,,817970-99999_fig2.png
https://bioclimatic.github.io/predilection/psych/817980-99999_fig2.png,817980,99999,0,__Ac,101056,19.4,55.5,4,[,0,1457,3919,],8,16,25,34,45,[,281,0,],2,355,[,0,0,0,0,77,0,278,],354,354,-4.783,-37.783,14,2017,2018,BR,,JUAGUARUANA,,817980-99999_fig2.png
https://bioclimatic.github.io/predilection/psych/818200-99999_fig2.png,818200,99999,0,__Ac,99829,19.4,55.9,4,[,0,954,4733,],6,12,20,29,42,[,263,0,],2,365,[,0,0,0,0,221,0,144,],360,359,-5.167,-49.383,118,2017,2019,BR,,MARABA,,818200-99999_fig2.png
https://bioclimatic.github.io/predilection/psych/818210-99999_fig2.png,818210,99999,1,__Ac,99622,19.4,56,4,[,0,1159,3126,],8,14,23,33,46,[,213,0,],1,320,[,0,0,0,0,112,24,184,],318,290,-5.65,-48.117,118,2017,2017,BR,,ARAGUATINS,,818210-99999_fig2.png
https://bioclimatic.github.io/predilection/psych/818220-99999_fig2.png,818220,99999,0,__Ac,99803,19.4,56,4,[,0,1193,3733,],8,14,23,32,47,[,265,0,],4,352,[,0,0,0,1,151,9,191,],348,332,-5.55,-47.467,128,2017,2020,BR,,IMPERATRIZ,,818220-99999_fig2.png
https://bioclimatic.github.io/predilection/psych/818230-99999_fig2.png,818230,99999,0,__Ac,98529,19.4,56.4,4,[,0,1256,2877,],11,16,24,32,46,[,127,0,],2,352,[,0,0,0,0,131,49,171,],350,293,-5.817,-46.167,232,2017,2020,BR,,GRAJAU,,818230-99999_fig2.png
https://bioclimatic.github.io/predilection/psych/818250-99999_fig2.png,818250,99999,0,__Ac,99380,19.4,56.1,4,[,0,1183,3537,],7,14,23,32,46,[,231,0,],4,358,[,0,0,0,1,179,15,164,],354,334,-5.5,-45.233,154,2017,2020,BR,,BARRA DO CORDA,,818250-99999_fig2.png
https://bioclimatic.github.io/predilection/psych/818270-99999_fig2.png,818270,99999,0,__Ac,100298,19.4,55.8,4,[,0,1586,4245,],8,15,24,32,45,[,273,0,],4,347,[,0,0,0,0,70,2,275,],346,342,-5.033,-42.8,76,2017,2020,BR,,TERESINA,,818270-99999_fig2.png
https://bioclimatic.github.io/predilection/psych/818280-99999_fig2.png,818280,99999,1,__Ac,97837,19.4,56.7,3,[,0,1132,2321,],6,14,23,33,49,[,89,0,],2,340,[,0,0,0,0,178,56,106,],333,264,-5.917,-42.717,288,2017,2018,BR,,SAO PEDRO DO PIAUI,,818280-99999_fig2.png
https://bioclimatic.github.io/predilection/psych/818290-99999_fig2.png,818290,99999,0,__Ac,98127,19.4,56.6,3,[,0,1125,1810,],7,13,24,35,49,[,122,0,],1,355,[,0,0,0,1,194,51,109,],339,279,-5.35,-41.517,288,2018,2018,BR,,CASTELO DO PIAUI,,818290-99999_fig2.png
https://bioclimatic.github.io/predilection/psych/818300-99999_fig2.png,818300,99999,0,__Ac,97858,19.4,56.7,4,[,0,1386,2385,],8,15,25,35,48,[,173,0,],3,362,[,0,0,0,0,128,49,185,],359,302,-5.186,-40.672,292,2017,2020,BR,,CRATEUS,,818300-99999_fig2.png
https://bioclimatic.github.io/predilection/psych/818310-99999_fig2.png,818310,99999,1,__Ac,98685,19.4,56.4,4,[,0,1201,1744,],10,18,27,36,47,[,99,0,],3,326,[,0,0,0,1,113,23,189,],323,287,-5.167,-39.283,220,2017,2019,BR,,QUIXERAMOBIM,,818310-99999_fig2.png
https://bioclimatic.github.io/predilection/psych/818320-99999_fig2.png,818320,99999,2,__Ac,100735,19.4,55.6,5,[,0,927,2824,],2,8,15,22,30,[,202,1,],6,239,[,0,0,0,0,35,3,201,],238,235,-5.133,-38.35,45,2017,2020,BR,,MORADA NOVA,,818320-99999_fig2.png
https://bioclimatic.github.io/predilection/psych/818330-99999_fig2.png,818330,99999,0,__Ac,99410,19.4,56.1,4,[,0,1781,2368,],10,18,28,38,48,[,243,0,],3,348,[,0,0,0,0,36,30,282,],348,318,-5.905,-38.628,186,2017,2019,BR,,JAGUARIBE,,818330-99999_fig2.png
https://bioclimatic.github.io/predilection/psych/818340-99999_fig2.png,818340,99999,0,__Ac,101251,19.4,55.4,4,[,0,1214,4390,],3,15,23,31,41,[,221,0,],2,359,[,0,0,0,0,104,0,255,],357,359,-5.083,-37.367,38,2017,2018,BR,,MOSSORO,,818340-99999_fig2.png
https://bioclimatic.github.io/predilection/psych/818350-99999_fig2.png,818350,99999,0,__Ac,99763,19.4,56,4,[,0,1440,3001,],5,16,25,35,45,[,234,0,],4,359,[,0,0,1,0,85,14,259,],358,339,-5.627,-37.832,152,2017,2020,BR,,APODI,,818350-99999_fig2.png
https://bioclimatic.github.io/predilection/psych/818360-99999_fig2.png,818360,99999,0,__Ac,101046,19.4,55.5,4,[,0,1274,3603,],7,15,24,33,44,[,231,0,],3,339,[,0,0,0,0,70,1,268,],338,337,-5.117,-36.717,6,2017,2019,BR,,APODI,,818360-99999_fig2.png
https://bioclimatic.github.io/predilection/psych/818380-99999_fig2.png,818380,99999,1,____,101131,19.4,55.5,1,[,0,1146,NaN,],NaN,NaN,NaN,NaN,NaN,[,NaN,NaN,],1,341,[,NaN,0,NaN,10,331,NaN,NaN,],338,94,-5.167,-35.483,18,2018,2018,BR,,CALCANHAR,,818380-99999_fig2.png
https://bioclimatic.github.io/predilection/psych/818390-99999_fig2.png,818390,99999,0,__Ac,100728,19.4,55.6,4,[,0,976,5624,],6,14,19,24,31,[,122,0,],4,363,[,0,0,0,0,163,0,200,],357,363,-5.833,-35.2,66,2017,2020,BR,,NATAL,,818390-99999_fig2.png
https://bioclimatic.github.io/predilection/psych/818460-99999_fig2.png,818460,99999,0,__Ac,98186,19.4,56.6,3,[,0,1194,1753,],7,13,23,33,48,[,97,0,],3,346,[,0,0,0,1,166,96,83,],332,216,-8.45,-43.867,272,2017,2019,BR,,ALVORADA DO GURGUEIA,,818460-99999_fig2.png
https://bioclimatic.github.io/predilection/psych/818470-99999_fig2.png,818470,99999,0,__Ac,97677,19.4,56.8,3,[,0,1231,1557,],6,14,24,33,47,[,70,0,],2,350,[,0,0,0,0,151,111,87,],346,197,-8.117,-42.983,310,2017,2019,BR,,CANTO DO BURITI,,818470-99999_fig2.png
https://bioclimatic.github.io/predilection/psych/818480-99999_fig2.png,818480,99999,3,__Ac,98531,19.4,56.4,5,[,0,497,401,],4,6,9,12,16,[,25,0,],6,101,[,0,0,0,0,21,36,44,],101,56,-8.365,-42.251,236,2017,2019,BR,,SAO JOAO DO PIAUI,,818480-99999_fig2.png
https://bioclimatic.github.io/predilection/psych/818600-99999_fig2.png,818600,99999,1,__Ev,93267,19.4,58.6,3,[,0,256,1572,],6,15,21,29,40,[,0,0,],2,358,[,0,0,0,3,343,8,4,],190,307,-6.083,-50.15,720,2017,2018,BR,,SERRA DE CARAJAS,,818600-99999_fig2.png
https://bioclimatic.github.io/predilection/psych/818630-99999_fig2.png,818630,99999,1,__Ac,99058,19.4,56.2,4,[,0,843,3482,],5,11,20,31,45,[,219,0,],4,349,[,0,0,0,5,239,10,95,],338,303,-6.65,-47.417,182,2017,2020,BR,,ESTREITO,,818630-99999_fig2.png
https://bioclimatic.github.io/predilection/psych/818660-99999_fig2.png,818660,99999,0,__Ac,99087,19.4,56.2,4,[,0,1212,2724,],8,15,24,34,48,[,192,0,],4,360,[,0,0,0,1,188,40,131,],352,300,-6.033,-44.233,180,2017,2020,BR,,COLINAS,,818660-99999_fig2.png
https://bioclimatic.github.io/predilection/psych/818680-99999_fig2.png,818680,99999,0,__Ac,99744,19.4,56,4,[,0,1676,3172,],8,16,25,34,51,[,217,0,],3,354,[,0,0,0,0,90,45,219,],352,308,-6.767,-43.017,125,2017,2019,BR,,FLORIANO,,818680-99999_fig2.png
https://bioclimatic.github.io/predilection/psych/818690-99999_fig2.png,818690,99999,0,__Ac,99411,19.4,56.1,4,[,0,1439,2743,],5,13,23,33,50,[,214,0,],3,359,[,0,0,0,3,132,64,159,],354,267,-6.967,-42.15,158,2017,2019,BR,,OEIRAS,,818690-99999_fig2.png
https://bioclimatic.github.io/predilection/psych/818700-99999_fig2.png,818700,99999,0,__Ac,97029,19.4,57,4,[,0,1271,2094,],6,13,23,34,49,[,141,0,],3,345,[,0,0,0,0,168,72,105,],338,247,-6.4,-41.733,302,2017,2020,BR,,VALENCA DO PIAUI,,818700-99999_fig2.png
https://bioclimatic.github.io/predilection/psych/818720-99999_fig2.png,818720,99999,0,__Ac,96595,19.4,57.2,4,[,0,1412,1516,],7,14,25,36,50,[,51,0,],1,365,[,0,0,0,0,179,60,126,],361,270,-6.017,-40.283,416,2019,2019,BR,,TAUA,,818720-99999_fig2.png
https://bioclimatic.github.io/predilection/psych/818730-99999_fig2.png,818730,99999,0,__Ac,98680,19.4,56.4,4,[,0,1331,2002,],8,15,24,34,48,[,89,0,],3,343,[,0,0,0,0,148,66,129,],341,262,-6.4,-39.267,234,2017,2020,BR,,IGUATU,,818730-99999_fig2.png
https://bioclimatic.github.io/predilection/psych/818750-99999_fig2.png,818750,99999,0,__Ac,99318,19.4,56.1,4,[,0,1576,2193,],8,17,27,37,48,[,189,0,],3,327,[,0,0,0,0,52,24,251,],327,296,-6.467,-37.083,172,2017,2020,BR,,CAICO,,818750-99999_fig2.png
https://bioclimatic.github.io/predilection/psych/818760-99999_fig2.png,818760,99999,1,__Ac,98747,19.4,56.4,3,[,0,913,2201,],8,17,26,35,42,[,116,0,],3,351,[,0,0,0,2,200,0,149,],336,325,-6.233,-36.033,238,2017,2019,BR,,SANTA CRUZ,,818760-99999_fig2.png
https://bioclimatic.github.io/predilection/psych/818770-99999_fig2.png,818770,99999,2,__Vt,94878,19.4,57.9,4,[,0,52,1148,],7,13,19,29,37,[,1,0,],4,347,[,0,0,0,101,245,0,1,],67,246,-6.967,-35.683,576,2017,2020,BR,,AREIA,,818770-99999_fig2.png
https://bioclimatic.github.io/predilection/psych/818780-99999_fig2.png,818780,99999,2,__Ac,99837,19.4,55.9,3,[,0,391,3065,],7,12,19,28,36,[,49,0,],2,313,[,0,0,0,0,278,0,35,],242,313,-6.617,-35.133,138,2018,2019,BR,,CAMARATUBA,,818780-99999_fig2.png
https://bioclimatic.github.io/predilection/psych/818880-99999_fig2.png,818880,99999,1,__Ac,100407,19.4,55.7,4,[,0,932,5490,],6,11,19,28,41,[,283,0,],2,358,[,0,0,0,2,173,0,183,],350,354,-7.267,-64.783,66,2017,2020,BR,,LABREA,,818880-99999_fig2.png
https://bioclimatic.github.io/predilection/psych/818900-99999_fig2.png,818900,99999,1,__Ac,100506,19.4,55.7,4,[,0,783,4809,],6,11,19,29,40,[,267,0,],2,338,[,0,0,0,4,196,0,138,],325,334,-7.55,-63.067,74,2017,2018,BR,,HUMAITA,,818900-99999_fig2.png
https://bioclimatic.github.io/predilection/psych/819000-99999_fig2.png,819000,99999,1,__Ac,98540,19.4,56.4,4,[,0,590,3430,],3,9,19,30,44,[,207,0,],3,362,[,0,0,0,9,307,7,39,],331,315,-7.267,-48.2,228,2017,2019,BR,,ARAGUAINA,,819000-99999_fig2.png
https://bioclimatic.github.io/predilection/psych/819010-99999_fig2.png,819010,99999,0,__Ac,99043,19.4,56.2,4,[,0,1293,3887,],6,13,22,31,49,[,227,0,],3,363,[,0,0,0,0,139,38,186,],360,315,-7.333,-47.467,194,2017,2020,BR,,CAROLINA,,819010-99999_fig2.png
https://bioclimatic.github.io/predilection/psych/819030-99999_fig2.png,819030,99999,0,__Ac,98118,19.4,56.6,4,[,0,1009,2671,],7,13,22,32,48,[,171,0,],3,360,[,0,0,0,2,225,42,91,],342,275,-7.45,-46.033,226,2017,2019,BR,,BALSAS,,819030-99999_fig2.png
https://bioclimatic.github.io/predilection/psych/819050-99999_fig2.png,819050,99999,1,__Ac,96754,19.4,57.1,4,[,0,900,1923,],5,13,22,32,48,[,47,0,],4,352,[,0,0,0,1,240,63,48,],327,232,-7.467,-44.35,394,2017,2020,BR,,URUCUI,,819050-99999_fig2.png
https://bioclimatic.github.io/predilection/psych/819080-99999_fig2.png,819080,99999,0,__Ac,98549,19.4,56.4,4,[,0,1610,2223,],4,13,24,35,51,[,182,0,],3,351,[,0,0,0,0,92,68,191,],345,268,-7.071,-41.404,234,2017,2019,BR,,PICOS,,819080-99999_fig2.png
https://bioclimatic.github.io/predilection/psych/819090-99999_fig2.png,819090,99999,1,__Ac,94865,19.4,57.9,6,[,0,568,1816,],0,13,22,34,45,[,71,3,],2,336,[,0,0,0,31,232,15,58,],276,262,-7.083,-40.367,574,2018,2019,BR,,CAMPOS SALES,,819090-99999_fig2.png
https://bioclimatic.github.io/predilection/psych/819100-99999_fig2.png,819100,99999,0,__Ac,97676,19.4,56.8,4,[,0,1157,1163,],9,16,26,35,49,[,25,0,],4,359,[,0,0,0,19,175,71,94,],331,192,-7.533,-40.033,466,2017,2020,BR,,OURICURI,,819100-99999_fig2.png
https://bioclimatic.github.io/predilection/psych/819110-99999_fig2.png,819110,99999,0,__Ac,96644,19.4,57.2,4,[,0,996,1842,],7,15,24,33,47,[,52,0,],3,361,[,0,0,0,6,214,44,97,],351,245,-7.3,-39.267,410,2018,2020,BR,,BARBALHA,,819110-99999_fig2.png
https://bioclimatic.github.io/predilection/psych/819120-99999_fig2.png,819120,99999,1,__Ac,95703,19.4,57.5,4,[,0,767,506,],12,17,26,35,45,[,2,0,],4,353,[,0,0,0,53,184,91,25,],289,130,-7.95,-38.3,462,2017,2020,BR,,SERRA TALHADA,,819120-99999_fig2.png
https://bioclimatic.github.io/predilection/psych/819130-99999_fig2.png,819130,99999,0,__Ac,98300,19.4,56.5,4,[,0,1448,1326,],12,18,28,37,45,[,93,0,],4,355,[,0,0,0,0,97,124,134,],353,193,-7.083,-37.267,282,2017,2020,BR,,PATOS,,819130-99999_fig2.png
https://bioclimatic.github.io/predilection/psych/819140-99999_fig2.png,819140,99999,1,__Ac,94569,19.4,58,4,[,0,546,450,],12,17,26,36,44,[,1,0,],3,365,[,0,0,0,99,210,33,23,],254,132,-7.9,-37.117,606,2017,2020,BR,,MONTEIRO,,819140-99999_fig2.png
https://bioclimatic.github.io/predilection/psych/819150-99999_fig2.png,819150,99999,1,__Ac,96894,19.4,57.1,4,[,0,597,1249,],9,17,26,36,43,[,55,0,],2,355,[,0,0,0,55,215,0,84,],255,273,-7.483,-36.283,438,2017,2019,BR,,CABACEIRAS,,819150-99999_fig2.png
https://bioclimatic.github.io/predilection/psych/819160-99999_fig2.png,819160,99999,2,__Vt,95242,19.4,57.7,4,[,0,182,1620,],8,14,21,31,40,[,9,0,],3,362,[,0,0,0,68,293,0,1,],176,292,-7.233,-35.9,550,2017,2020,BR,,CAMPNA GRANDE,,819160-99999_fig2.png
https://bioclimatic.github.io/predilection/psych/819170-99999_fig2.png,819170,99999,1,__Ac,96622,19.4,57.2,4,[,0,447,1395,],10,16,24,33,42,[,19,0,],4,358,[,0,0,0,62,250,2,44,],225,279,-7.85,-35.783,420,2017,2020,BR,,SURUBIM,,819170-99999_fig2.png
https://bioclimatic.github.io/predilection/psych/819180-99999_fig2.png,819180,99999,1,__Ac,100989,19.4,55.5,4,[,0,860,4385,],7,15,21,27,34,[,106,0,],2,344,[,0,0,0,0,185,0,159,],327,344,-7.15,-34.85,46,2017,2019,BR,,JOAO PESSOA,,819180-99999_fig2.png
https://bioclimatic.github.io/predilection/psych/819210-99999_fig2.png,819210,99999,1,__Ac,98804,19.4,56.3,4,[,0,628,4520,],4,11,18,28,40,[,207,0,],2,338,[,0,0,0,8,244,0,86,],299,327,-8.267,-72.75,206,2018,2019,BR,,PORTO WALTER,,819210-99999_fig2.png
https://bioclimatic.github.io/predilection/psych/819240-99999_fig2.png,819240,99999,1,__Ac,99282,19.4,56.1,4,[,3,550,4677,],5,10,17,29,40,[,250,0,],3,362,[,0,2,0,12,282,0,66,],318,349,-8.142,-70.343,164,2018,2020,BR,,FEIJO,,819240-99999_fig2.png
https://bioclimatic.github.io/predilection/psych/819270-99999_fig2.png,819270,99999,1,__Ac,99876,19.4,55.9,4,[,0,782,5221,],2,10,18,28,41,[,274,2,],3,362,[,0,0,0,13,190,0,159,],337,346,-8.777,-67.332,112,2017,2019,BR,,BOCA DO ACRE,,819270-99999_fig2.png
https://bioclimatic.github.io/predilection/psych/819400-99999_fig2.png,819400,99999,1,__Ac,99203,19.4,56.2,3,[,0,810,3284,],7,12,20,30,46,[,175,0,],2,343,[,0,0,0,10,227,19,87,],322,282,-8.283,-49.267,182,2017,2019,BR,,CONCEICAO DO ARAGUAIA,,819400-99999_fig2.png
https://bioclimatic.github.io/predilection/psych/819410-99999_fig2.png,819410,99999,1,__Ac,99029,19.4,56.2,4,[,0,1101,3598,],6,13,21,32,48,[,240,1,],4,348,[,0,0,0,3,162,25,159,],342,303,-8.967,-48.183,190,2017,2020,BR,,PEDRO AFONSO,,819410-99999_fig2.png
https://bioclimatic.github.io/predilection/psych/819500-99999_fig2.png,819500,99999,2,__Ac,97004,19.4,57,5,[,0,845,702,],5,11,16,20,28,[,21,0,],7,203,[,0,0,0,0,71,56,76,],201,115,-8.133,-41.15,376,2017,2020,BR,,PAULISTANA,,819500-99999_fig2.png
https://bioclimatic.github.io/predilection/psych/819510-99999_fig2.png,819510,99999,0,__Ac,97491,19.4,56.8,4,[,0,1192,1495,],5,19,28,35,46,[,73,0,],4,352,[,0,0,0,14,140,87,111,],328,176,-8.5,-39.317,344,2017,2020,BR,,CABROBO,,819510-99999_fig2.png
https://bioclimatic.github.io/predilection/psych/819530-99999_fig2.png,819530,99999,2,__Ac,93799,19.4,58.3,4,[,1,254,392,],8,15,24,34,44,[,2,0,],4,350,[,0,2,0,144,187,5,12,],159,123,-8.433,-37.083,682,2017,2020,BR,,ARCO VERDE,,819530-99999_fig2.png
https://bioclimatic.github.io/predilection/psych/819540-99999_fig2.png,819540,99999,1,__Ac,96449,19.4,57.2,4,[,0,834,832,],11,17,28,37,47,[,31,0,],4,353,[,0,0,0,60,157,39,97,],280,197,-8.517,-37.717,450,2017,2020,BR,,IBIMIRIM,,819540-99999_fig2.png
https://bioclimatic.github.io/predilection/psych/819550-99999_fig2.png,819550,99999,2,HpVt,92295,19.4,59,2,[,9,43,167,],9,16,23,32,40,[,0,0,],2,338,[,0,20,0,170,140,1,7,],40,140,-8.9,-36.5,824,2017,2020,BR,,GARANHUS,,819550-99999_fig2.png
https://bioclimatic.github.io/predilection/psych/819560-99999_fig2.png,819560,99999,2,HpVt,92093,19.4,59.1,3,[,4,66,406,],8,12,19,29,37,[,0,0,],2,356,[,0,11,0,166,179,0,0,],64,171,-8.233,-35.983,552,2017,2020,BR,,CARUARU,,819560-99999_fig2.png
https://bioclimatic.github.io/predilection/psych/819570-99999_fig2.png,819570,99999,1,__Ac,99477,19.4,56.1,3,[,0,580,4262,],4,10,18,29,38,[,214,0,],1,366,[,0,0,0,1,252,0,113,],264,365,-8.667,-35.567,182,2020,2020,BR,,PALMARES,,819570-99999_fig2.png
https://bioclimatic.github.io/predilection/psych/819580-99999_fig2.png,819580,99999,1,__Ac,101262,19.4,55.4,4,[,0,744,4288,],7,13,20,27,34,[,123,0,],4,356,[,0,0,0,0,224,0,132,],316,356,-8.05,-34.95,12,2017,2020,BR,,RECIFE,,819580-99999_fig2.png
https://bioclimatic.github.io/predilection/psych/819630-99999_fig2.png,819630,99999,1,__Ac,99079,19.4,56.2,3,[,3,516,4255,],1,9,18,28,39,[,195,0,],3,333,[,0,3,0,14,250,0,66,],282,315,-9.367,-69.933,208,2017,2019,BR,,PARQUE ESTADUAL CHANDLESS,,819630-99999_fig2.png
https://bioclimatic.github.io/predilection/psych/819700-99999_fig2.png,819700,99999,1,__Ac,99629,19.4,56,4,[,0,707,4793,],5,10,18,28,42,[,250,2,],2,360,[,0,0,0,14,232,0,114,],330,338,-9.95,-62.967,142,2018,2019,BR,,ARIQUEMES,,819700-99999_fig2.png
https://bioclimatic.github.io/predilection/psych/819750-99999_fig2.png,819750,99999,1,__Ac,98228,19.4,56.5,4,[,0,486,3867,],5,10,18,29,43,[,217,0,],2,354,[,0,0,0,20,297,0,37,],299,319,-9.9,-58.567,262,2017,2018,BR,,COTRIGUACU,,819750-99999_fig2.png
https://bioclimatic.github.io/predilection/psych/819760-99999_fig2.png,819760,99999,1,__Ac,98709,19.4,56.4,4,[,0,1222,4711,],5,11,21,30,47,[,242,0,],3,341,[,0,0,0,4,132,3,202,],334,324,-9.567,-57.4,222,2017,2020,BR,,APIACAS,,819760-99999_fig2.png
https://bioclimatic.github.io/predilection/psych/819770-99999_fig2.png,819770,99999,1,__Ac,97869,19.4,56.7,4,[,0,474,3727,],4,9,18,30,43,[,242,1,],1,365,[,0,0,0,36,296,0,33,],305,307,-10.067,-56.75,296,2019,2019,BR,,ALTA FLORESTA,,819770-99999_fig2.png
https://bioclimatic.github.io/predilection/psych/819780-99999_fig2.png,819780,99999,1,__Ac,97813,19.4,56.7,4,[,0,523,2629,],6,12,20,30,44,[,48,0,],4,362,[,0,0,0,10,302,17,33,],294,290,-9.967,-55.833,302,2017,2020,BR,,CARLINDA,,819780-99999_fig2.png
https://bioclimatic.github.io/predilection/psych/819790-99999_fig2.png,819790,99999,1,__Ac,97975,19.4,56.6,3,[,0,630,3706,],4,10,19,30,45,[,230,0,],3,353,[,0,0,0,13,274,5,61,],319,308,-9.95,-54.883,322,2017,2019,BR,,GUARANTA DO NORTE,,819790-99999_fig2.png
https://bioclimatic.github.io/predilection/psych/819820-99999_fig2.png,819820,99999,1,__Ac,98959,19.4,56.3,4,[,0,1083,3373,],5,13,22,33,48,[,238,3,],2,341,[,0,0,0,0,175,31,135,],338,280,-9.333,-50.35,170,2019,2020,BR,,SANTANA DO ARAGUAIA,,819820-99999_fig2.png
https://bioclimatic.github.io/predilection/psych/819850-99999_fig2.png,819850,99999,0,__Ac,97963,19.4,56.7,4,[,0,1073,2508,],8,14,24,33,48,[,171,0,],4,361,[,0,0,0,11,195,40,115,],342,251,-9.1,-45.933,282,2017,2020,BR,,ALTO PARNAIBA,,819850-99999_fig2.png
https://bioclimatic.github.io/predilection/psych/819860-99999_fig2.png,819860,99999,0,__Ac,96398,19.4,57.3,4,[,0,1204,1753,],4,13,24,34,49,[,97,0,],1,365,[,0,0,0,1,203,83,78,],355,222,-9.867,-45.35,426,2019,2019,BR,,GILBUES,,819860-99999_fig2.png
https://bioclimatic.github.io/predilection/psych/819870-99999_fig2.png,819870,99999,0,__Ac,97819,19.4,56.7,4,[,0,1465,2007,],8,14,25,34,49,[,144,0,],3,361,[,0,0,0,1,140,99,121,],353,225,-9.083,-44.333,298,2017,2019,BR,,BOM JESUS DO PIAUI,,819870-99999_fig2.png
https://bioclimatic.github.io/predilection/psych/819880-99999_fig2.png,819880,99999,1,__Ac,95455,19.4,57.7,1,[,0,700,3022,],0,9,21,32,44,[,176,2,],1,352,[,0,0,0,20,198,0,135,],292,296,-9.283,-43.317,524,2017,2020,BR,,CARACOL,,819880-99999_fig2.png
https://bioclimatic.github.io/predilection/psych/819890-99999_fig2.png,819890,99999,0,__Ac,96915,19.4,57.1,4,[,0,1167,1970,],8,16,24,33,49,[,89,0,],3,353,[,0,0,0,18,140,59,136,],324,209,-9.033,-42.7,404,2017,2019,BR,,SAO RAIMUNDO NONATO,,819890-99999_fig2.png
https://bioclimatic.github.io/predilection/psych/819900-99999_fig2.png,819900,99999,0,__Ac,96786,19.4,57.1,4,[,0,1100,984,],10,18,27,35,47,[,6,0,],3,361,[,0,0,0,6,184,71,100,],350,195,-9.617,-42.083,402,2017,2020,BR,,REMANSO,,819900-99999_fig2.png
https://bioclimatic.github.io/predilection/psych/819910-99999_fig2.png,819910,99999,1,__Ac,97159,19.4,57,4,[,0,1142,925,],14,21,30,37,49,[,24,0,],2,341,[,0,0,0,19,124,65,132,],319,186,-9.383,-40.8,370,2019,2020,BR,,PETROLINA,,819910-99999_fig2.png
https://bioclimatic.github.io/predilection/psych/819920-99999_fig2.png,819920,99999,1,__Ac,96284,19.4,57.3,4,[,0,624,1359,],5,16,26,35,45,[,39,0,],4,350,[,0,0,0,65,191,2,92,],248,256,-9.833,-39.5,454,2017,2020,BR,,UAUA,,819920-99999_fig2.png
https://bioclimatic.github.io/predilection/psych/819940-99999_fig2.png,819940,99999,0,__Ac,101164,19.4,55.5,3,[,0,1257,3409,],3,16,24,33,43,[,218,15,],2,348,[,0,0,0,1,119,39,190,],312,318,-9.767,-37.45,20,2017,2019,BR,,PAO DE ACUCAR,,819940-99999_fig2.png
https://bioclimatic.github.io/predilection/psych/819950-99999_fig2.png,819950,99999,1,__Ac,98259,19.4,56.5,3,[,0,579,3044,],6,14,21,31,40,[,129,0,],2,362,[,0,0,0,4,274,0,84,],238,354,-9.417,-36.617,276,2017,2020,BR,,PALMEIRA DOS INDIOS,,819950-99999_fig2.png
https://bioclimatic.github.io/predilection/psych/819960-99999_fig2.png,819960,99999,1,__Ev,98769,19.4,56.3,5,[,0,454,78,],19,23,28,36,43,[,0,0,],1,365,[,0,0,0,143,175,40,7,],215,52,-9.8,-36.617,242,2017,2017,BR,,ARAPIRACA,,819960-99999_fig2.png
https://bioclimatic.github.io/predilection/psych/819970-99999_fig2.png,819970,99999,1,__Ac,101302,19.4,55.4,4,[,0,524,4238,],5,10,18,27,34,[,125,0,],3,346,[,0,0,0,0,278,0,68,],276,346,-9.283,-35.567,20,2017,2019,BR,,SAO LUIS DO QU,,819970-99999_fig2.png
https://bioclimatic.github.io/predilection/psych/819980-99999_fig2.png,819980,99999,1,__Ac,100534,19.4,55.7,4,[,0,589,3940,],7,13,20,27,34,[,79,0,],3,362,[,0,0,0,1,300,0,61,],297,361,-9.55,-35.767,66,2017,2019,BR,,MACEIO,,819980-99999_fig2.png
https://bioclimatic.github.io/predilection/psych/820170-99999_fig2.png,820170,99999,2,__Ac,101095,19.4,55.5,14,[,0,1042,3392,],2,7,10,11,16,[,118,4,],20,195,[,0,0,0,0,12,0,183,],195,195,3.855,-51.797,19,2008,2020,BR,,OIAPOQUE,,820170-99999_fig2.png
https://bioclimatic.github.io/predilection/psych/820220-99999_fig2.png,820220,99999,0,__Ac,100175,19.4,55.8,33,[,0,1482,5375,],5,15,23,30,40,[,281,5,],33,358,[,0,0,0,0,67,0,291,],356,358,2.846,-60.69,84,1987,2020,BR,,BOA VISTA,,820220-99999_fig2.png
https://bioclimatic.github.io/predilection/psych/820305-99999_fig2.png,820305,99999,3,__Ac,93792,19.4,58.3,12,[,11,202,214,],6,10,13,17,22,[,0,0,],2,182,[,0,7,0,69,85,9,12,],96,70,-22.197,-49.926,647,2014,2014,BR,,MARILIA,,820305-99999_fig2.png
https://bioclimatic.github.io/predilection/psych/820306-99999_fig2.png,820306,99999,3,HpVt,97517,19.4,56.8,10,[,172,56,195,],2,4,7,11,15,[,6,0,],3,107,[,0,37,0,33,32,1,5,],29,31,-28.282,-54.169,322,2020,2020,BR,,SANTO ANGELO,,820306-99999_fig2.png
https://bioclimatic.github.io/predilection/psych/820910-99999_fig2.png,820910,99999,2,__Ac,98871,19.4,56.3,12,[,0,830,5079,],1,6,12,18,24,[,227,3,],7,251,[,0,0,0,0,20,0,231,],248,251,-0.89,-52.602,206,2009,2013,BR,,MONTE DOURADO,,820910-99999_fig2.png
https://bioclimatic.github.io/predilection/psych/820980-99999_fig2.png,820980,99999,0,__Ac,101120,19.4,55.5,34,[,0,1322,7451,],2,10,17,26,32,[,331,40,],33,357,[,0,0,0,0,21,0,336,],356,357,0.051,-51.072,17,1987,2020,BR,,MACAPA,,820980-99999_fig2.png
https://bioclimatic.github.io/predilection/psych/820990-99999_fig2.png,820990,99999,3,__Ac,101133,19.4,55.5,12,[,0,218,1252,],0,2,3,5,6,[,60,0,],26,69,[,0,0,0,0,13,0,56,],68,69,0.05,-51.067,16,1991,1996,BR,,MACAPA-AEROPORTO,,820990-99999_fig2.png
https://bioclimatic.github.io/predilection/psych/821060-99999_fig2.png,821060,99999,3,__Ac,100248,19.4,55.8,6,[,0,163,740,],0,1,2,2,3,[,29,8,],11,32,[,0,0,0,0,1,0,31,],32,32,-0.133,-67.083,90,2008,2008,BR,,SAO GABRIEL DA CACH,,821060-99999_fig2.png
https://bioclimatic.github.io/predilection/psych/821070-99999_fig2.png,821070,99999,1,__Ac,100380,19.4,55.7,13,[,0,1386,6236,],3,10,16,21,30,[,237,38,],12,278,[,0,0,0,0,16,0,262,],275,278,-0.117,-66.967,79,2009,2020,BR,,SAO GABRIEL DA CACHOEIRA AERO,,821070-99999_fig2.png
https://bioclimatic.github.io/predilection/psych/821080-99999_fig2.png,821080,99999,3,__Ac,101252,19.4,55.4,8,[,0,298,1315,],1,4,4,5,7,[,27,0,],33,74,[,0,0,0,0,19,0,55,],72,74,-15.355,-38.999,6,2013,2019,BR,,HOTEL TRANSAMERICA,,821080-99999_fig2.png
https://bioclimatic.github.io/predilection/psych/821110-99999_fig2.png,821110,99999,0,__Ac,100370,19.4,55.7,33,[,0,1000,6597,],3,10,17,26,35,[,272,24,],33,364,[,0,0,0,0,110,0,254,],357,364,-3.039,-60.05,80,1987,2020,BR,,EDUARDO GOMES INTL,,821110-99999_fig2.png
https://bioclimatic.github.io/predilection/psych/821930-99999_fig2.png,821930,99999,0,__Ac,101019,19.4,55.5,34,[,0,1013,6875,],3,10,16,25,31,[,315,4,],34,362,[,0,0,0,0,65,0,297,],361,362,-1.379,-48.476,16,1987,2020,BR,,VAL DE CANS INTL,,821930-99999_fig2.png
https://bioclimatic.github.io/predilection/psych/822440-99999_fig2.png,822440,99999,0,__Ac,100588,19.4,55.7,32,[,0,1271,6824,],4,12,19,25,33,[,298,0,],32,360,[,0,0,0,0,53,0,307,],358,360,-2.422,-54.793,60,1987,2020,BR,,SANTAREM,,822440-99999_fig2.png
https://bioclimatic.github.io/predilection/psych/822810-99999_fig2.png,822810,99999,0,__Ac,100538,19.4,55.7,34,[,0,1247,6587,],3,13,19,26,32,[,281,2,],34,360,[,0,0,0,0,38,0,322,],360,360,-2.585,-44.234,54,1987,2020,BR,,MARECHAL CUNHA MACHADO INTL,,822810-99999_fig2.png
https://bioclimatic.github.io/predilection/psych/822880-99999_fig2.png,822880,99999,3,__Ac,101266,19.4,55.4,19,[,0,876,3215,],2,7,10,12,16,[,138,6,],25,151,[,0,0,0,0,1,0,150,],151,151,-2.894,-41.732,5,2000,2019,BR,,PARNAIBA PREFEITO DR JOAO SIL,,822880-99999_fig2.png
https://bioclimatic.github.io/predilection/psych/823170-99999_fig2.png,823170,99999,1,__Ac,100653,19.4,55.6,30,[,0,1390,7222,],0,6,16,23,30,[,304,56,],26,320,[,0,0,0,0,12,0,308,],318,319,-3.383,-64.724,56,1998,2020,BR,,TEFE,,823170-99999_fig2.png
https://bioclimatic.github.io/predilection/psych/823320-99999_fig2.png,823320,99999,0,__Ac,100287,19.4,55.8,34,[,0,1215,6844,],3,12,18,25,34,[,286,5,],34,358,[,0,0,0,0,55,0,303,],356,358,-3.146,-59.986,81,1987,2020,BR,,PONTA PELADA,,823320-99999_fig2.png
https://bioclimatic.github.io/predilection/psych/823366-99999_fig2.png,823366,99999,1,__Ac,98523,19.4,56.4,14,[,0,1052,3184,],6,13,20,28,44,[,133,0,],14,331,[,0,0,0,0,156,36,139,],326,270,-10.292,-48.357,236,2008,2020,BR,,TOCANTINS,,823366-99999_fig2.png
https://bioclimatic.github.io/predilection/psych/823530-99999_fig2.png,823530,99999,2,__Ac,99984,19.4,55.9,25,[,0,821,4701,],0,4,11,17,22,[,216,27,],20,224,[,0,0,0,0,10,0,214,],223,224,-3.254,-52.254,112,2008,2020,BR,,ALTAMIRA,,823530-99999_fig2.png
https://bioclimatic.github.io/predilection/psych/823610-99999_fig2.png,823610,99999,1,__Ac,98330,19.4,56.5,26,[,0,1136,6056,],0,6,15,22,29,[,272,36,],11,281,[,0,0,0,0,11,0,270,],279,281,-3.786,-49.72,253,1999,2013,BR,,TUCURUI,,823610-99999_fig2.png
https://bioclimatic.github.io/predilection/psych/823980-99999_fig2.png,823980,99999,0,__Ac,100949,19.4,55.5,34,[,0,1194,5806,],5,15,20,26,34,[,176,0,],33,363,[,0,0,0,0,87,0,276,],362,363,-3.776,-38.533,25,1987,2020,BR,,PINTO MARTINS INTL,,823980-99999_fig2.png
https://bioclimatic.github.io/predilection/psych/824000-99999_fig2.png,824000,99999,0,__Ac,100619,19.4,55.6,32,[,0,1167,6307,],3,14,19,23,31,[,131,1,],31,359,[,0,0,0,0,96,0,263,],358,359,-3.855,-32.423,59,1987,2020,BR,,FERNANDO DE NORONHA,,824000-99999_fig2.png
https://bioclimatic.github.io/predilection/psych/824110-99999_fig2.png,824110,99999,0,__Ac,100308,19.4,55.8,34,[,0,1257,6996,],1,10,18,23,34,[,240,6,],22,354,[,0,0,0,1,59,0,294,],346,352,-4.256,-69.936,85,1991,2020,BR,,TABATINGA,,824110-99999_fig2.png
https://bioclimatic.github.io/predilection/psych/824440-99999_fig2.png,824440,99999,1,__Ac,100923,19.4,55.5,24,[,0,1546,6663,],3,10,19,24,33,[,285,19,],23,316,[,0,0,0,0,12,0,304,],316,316,-4.242,-56.001,34,1994,2020,BR,,ITAITUBA,,824440-99999_fig2.png
https://bioclimatic.github.io/predilection/psych/825330-99999_fig2.png,825330,99999,3,__Ac,100690,19.4,55.6,18,[,0,859,3897,],0,4,10,13,19,[,159,10,],14,178,[,0,0,0,0,6,0,172,],177,178,-5.811,-61.278,53,2008,2014,BR,,MANICORE,,825330-99999_fig2.png
https://bioclimatic.github.io/predilection/psych/825620-99999_fig2.png,825620,99999,1,__Ac,100025,19.4,55.9,32,[,0,1287,6289,],2,9,17,26,38,[,314,50,],24,330,[,0,0,0,0,24,0,306,],329,330,-5.369,-49.138,109,1998,2020,BR,,MARABA,,825620-99999_fig2.png
https://bioclimatic.github.io/predilection/psych/825640-99999_fig2.png,825640,99999,1,__Ac,99756,19.4,56,29,[,0,1357,5099,],3,10,18,25,37,[,275,13,],20,299,[,0,0,0,0,25,0,274,],297,299,-5.531,-47.46,131,1998,2020,BR,,PREFEITO RENATO MOREIRA,,825640-99999_fig2.png
https://bioclimatic.github.io/predilection/psych/825660-99999_fig2.png,825660,99999,1,__Ac,99856,19.4,55.9,6,[,0,1307,4709,],0,11,23,30,42,[,246,0,],1,313,[,0,0,0,1,43,0,269,],310,312,-5.533,-47.5,123,1996,1996,BR,,IMPERATRIZ,,825660-99999_fig2.png
https://bioclimatic.github.io/predilection/psych/825670-99999_fig2.png,825670,99999,1,__Ac,94082,19.4,58.2,14,[,0,552,2765,],7,13,20,24,37,[,0,0,],15,338,[,0,0,0,0,287,9,42,],277,317,-6.118,-50.003,621,2006,2020,BR,,CARAJAS,,825670-99999_fig2.png
https://bioclimatic.github.io/predilection/psych/825790-99999_fig2.png,825790,99999,0,__Ac,100352,19.4,55.7,34,[,0,1764,5787,],3,14,23,32,44,[,344,32,],34,361,[,0,0,0,0,21,1,339,],361,360,-5.06,-42.823,67,1987,2020,BR,,SENADOR PETRONIO PORTELLA,,825790-99999_fig2.png
https://bioclimatic.github.io/predilection/psych/825910-99999_fig2.png,825910,99999,0,__Ac,101043,19.4,55.5,29,[,0,2079,4890,],6,17,23,27,35,[,266,26,],21,281,[,0,0,0,0,2,0,279,],281,281,-5.202,-37.364,24,1998,2020,BR,,DIX SEPT ROSADO,,825910-99999_fig2.png
https://bioclimatic.github.io/predilection/psych/825990-99999_fig2.png,825990,99999,1,__Ac,100685,19.4,55.6,34,[,0,924,5285,],5,13,19,26,33,[,152,0,],34,360,[,0,0,0,0,178,0,182,],349,360,-5.911,-35.248,52,1987,2020,BR,,AUGUSTO SEVERO,,825990-99999_fig2.png
https://bioclimatic.github.io/predilection/psych/825991-99999_fig2.png,825991,99999,2,HpAc,101259,19.4,55.4,12,[,121,232,1983,],3,10,16,21,32,[,28,2,],12,337,[,0,58,0,91,147,0,41,],115,190,-26.88,-48.651,6,2008,2020,BR,,MINISTRO VICTOR KONDER INTL,,825991-99999_fig2.png
https://bioclimatic.github.io/predilection/psych/826400-99999_fig2.png,826400,99999,3,__Ac,100144,19.4,55.8,23,[,0,709,3215,],0,3,6,8,13,[,114,47,],9,119,[,0,0,0,0,1,0,118,],119,119,-6.233,-57.777,99,2008,2010,BR,,JACAREACANGA,,826400-99999_fig2.png
https://bioclimatic.github.io/predilection/psych/827040-99999_fig2.png,827040,99999,1,__Ac,99014,19.4,56.2,29,[,1,1071,6109,],0,7,16,24,34,[,262,14,],23,330,[,0,1,0,3,74,0,252,],316,326,-7.6,-72.769,194,2000,2020,BR,,CRUZEIRO DO SUL,,827040-99999_fig2.png
https://bioclimatic.github.io/predilection/psych/827641-99999_fig2.png,827641,99999,3,__Ac,93903,19.4,58.3,1,[,0,144,629,],2,4,5,7,10,[,0,0,],4,92,[,0,0,0,0,77,3,12,],74,82,-6.117,-50,637,2008,2008,BR,,CARAJAS,,827641-99999_fig2.png
https://bioclimatic.github.io/predilection/psych/827950-99999_fig2.png,827950,99999,2,__Ac,95441,19.4,57.7,29,[,0,294,1733,],2,11,19,27,34,[,11,0,],18,316,[,0,0,0,26,277,0,13,],194,288,-7.27,-35.896,502,1999,2020,BR,,PRESIDENTE JOAO SUASSUNA,,827950-99999_fig2.png
https://bioclimatic.github.io/predilection/psych/827980-99999_fig2.png,827980,99999,1,__Ac,101196,19.4,55.4,30,[,0,644,4272,],5,12,18,25,32,[,75,0,],21,339,[,0,0,0,0,239,0,100,],301,339,-7.1,-34.867,7,1995,2020,BR,,JOAO PESSOA,,827980-99999_fig2.png
https://bioclimatic.github.io/predilection/psych/827981-99999_fig2.png,827981,99999,2,HpAc,101270,19.4,55.4,14,[,137,260,2097,],1,9,17,25,38,[,47,5,],12,354,[,0,63,0,93,150,0,49,],118,197,-26.224,-48.797,5,2009,2020,BR,,LAURO CARNEIRO DE LOYOLA,,827981-99999_fig2.png
https://bioclimatic.github.io/predilection/psych/828070-99999_fig2.png,828070,99999,3,__Ac,99063,19.4,56.2,9,[,0,161,824,],0,1,2,3,5,[,37,2,],8,44,[,0,0,0,1,6,0,37,],41,44,-8.167,-70.767,190,2008,2008,BR,,TARAUACA,,828070-99999_fig2.png
https://bioclimatic.github.io/predilection/psych/828080-99999_fig2.png,828080,99999,2,__Ac,98982,19.4,56.3,13,[,2,1095,5447,],0,6,15,21,31,[,237,7,],5,279,[,0,1,0,3,32,0,243,],269,274,-8.155,-70.783,197,2009,2014,BR,,TARAUACA,,828080-99999_fig2.png
https://bioclimatic.github.io/predilection/psych/828240-99999_fig2.png,828240,99999,1,__Ac,100078,19.4,55.8,33,[,0,926,5978,],3,10,17,27,40,[,283,12,],29,357,[,0,0,0,4,117,0,236,],343,351,-8.709,-63.902,90,1987,2020,BR,,GOVERNADOR JORGE TEIXEIRA DE,,828240-99999_fig2.png
https://bioclimatic.github.io/predilection/psych/828610-99999_fig2.png,828610,99999,2,__Ac,98957,19.4,56.3,30,[,0,1153,4004,],0,6,15,20,30,[,213,18,],9,233,[,0,0,0,0,22,2,209,],231,231,-8.348,-49.302,199,1998,2011,BR,,CONCEICAO DO ARAGUAIA,,828610-99999_fig2.png
https://bioclimatic.github.io/predilection/psych/828990-99999_fig2.png,828990,99999,0,__Ac,101248,19.4,55.4,34,[,0,1200,5719,],4,15,20,26,32,[,152,4,],34,363,[,0,0,0,0,129,0,234,],355,363,-8.126,-34.924,10,1987,2020,BR,,GUARARAPES GILBERTO FREYRE IN,,828990-99999_fig2.png
https://bioclimatic.github.io/predilection/psych/829170-99999_fig2.png,829170,99999,1,__Ac,98960,19.4,56.3,34,[,5,727,5229,],1,8,17,27,40,[,245,20,],30,360,[,0,3,0,14,180,0,163,],312,340,-9.869,-67.894,193,1991,2020,BR,,PRESIDENTE MEDICI,,829170-99999_fig2.png
https://bioclimatic.github.io/predilection/psych/829300-99999_fig2.png,829300,99999,3,__Ac,95037,19.4,57.8,13,[,0,332,997,],1,5,8,11,17,[,5,0,],32,131,[,0,0,0,1,79,13,38,],109,112,-9.334,-54.965,537,2009,2020,BR,,CACHIMBO,,829300-99999_fig2.png
https://bioclimatic.github.io/predilection/psych/829650-99999_fig2.png,829650,99999,0,__Ac,97906,19.4,56.7,31,[,0,1271,4332,],1,10,22,29,46,[,171,4,],23,345,[,0,0,0,2,129,14,200,],330,320,-9.866,-56.106,289,1991,2020,BR,,ALTA FLORESTA,,829650-99999_fig2.png
https://bioclimatic.github.io/predilection/psych/829654-99999_fig2.png,829654,99999,3,__Ac,94879,19.4,57.9,9,[,0,426,1200,],2,6,10,12,19,[,4,0,],7,163,[,0,0,0,1,101,11,50,],138,150,-9.333,-54.967,551,1999,2008,BR,,CACHIMBO,,829654-99999_fig2.png
https://bioclimatic.github.io/predilection/psych/829840-99999_fig2.png,829840,99999,0,__Ac,96782,19.4,57.1,31,[,0,1281,1656,],7,18,28,35,45,[,53,0,],26,339,[,0,0,0,6,116,25,192,],329,266,-9.362,-40.569,385,1987,2020,BR,,SENADOR NILO COELHO,,829840-99999_fig2.png
https://bioclimatic.github.io/predilection/psych/829860-99999_fig2.png,829860,99999,2,__Ac,98134,19.4,56.6,19,[,0,1309,2016,],3,12,20,23,30,[,97,0,],17,234,[,0,0,0,0,54,2,178,],227,230,-9.401,-38.251,269,1999,2018,BR,,PAULO AFONSO,,829860-99999_fig2.png
https://bioclimatic.github.io/predilection/psych/829930-99999_fig2.png,829930,99999,1,__Ac,100049,19.4,55.9,33,[,0,527,4480,],2,11,18,26,33,[,108,1,],33,360,[,0,0,0,2,276,0,82,],277,358,-9.511,-35.792,118,1987,2020,BR,,ZUMBI DOS PALMARES,,829930-99999_fig2.png
https://bioclimatic.github.io/predilection/psych/830630-99999_fig2.png,830630,99999,1,__Ac,98179,19.4,56.6,25,[,0,1453,3435,],2,10,21,27,42,[,162,3,],15,287,[,0,0,0,0,49,25,213,],283,259,-10.719,-48.4,265,1991,2010,BR,,PORTO NACIONAL,,830630-99999_fig2.png
https://bioclimatic.github.io/predilection/psych/830750-99999_fig2.png,830750,99999,3,HpVt,92639,19.4,58.8,14,[,242,39,471,],4,11,19,29,37,[,4,0,],15,339,[,0,108,0,122,108,0,1,],38,105,-23.432,-46.47,750,2006,2020,BR,,GUARULHOS,,830750-99999_fig2.png
https://bioclimatic.github.io/predilection/psych/830950-99999_fig2.png,830950,99999,1,__Ac,101238,19.4,55.4,30,[,0,984,5317,],3,14,19,23,31,[,99,1,],28,344,[,0,0,0,0,149,0,195,],336,344,-10.984,-37.07,7,1987,2020,BR,,SANTA MARIA,,830950-99999_fig2.png
https://bioclimatic.github.io/predilection/psych/831110-99999_fig2.png,831110,99999,2,__Ac,101289,19.4,55.4,27,[,1,642,3049,],1,9,16,21,34,[,87,13,],21,283,[,0,2,0,42,131,0,108,],186,236,-22.983,-43.367,3,1998,2020,BR,,RIO/JACAREPAGUA,,831110-99999_fig2.png
https://bioclimatic.github.io/predilection/psych/832080-99999_fig2.png,832080,99999,1,__Ac,94156,19.4,58.2,34,[,7,472,2797,],2,10,19,27,42,[,23,0,],29,342,[,0,4,0,24,260,7,47,],237,289,-12.694,-60.098,615,1989,2020,BR,,VILHENA,,832080-99999_fig2.png
https://bioclimatic.github.io/predilection/psych/832315-99999_fig2.png,832315,99999,3,__Ac,95337,19.4,57.7,8,[,0,572,875,],3,11,14,16,23,[,11,0,],4,152,[,0,0,0,14,53,9,75,],131,112,-12.482,-41.277,511,2017,2019,BR,,CHAPADA DIAMANTINA,,832315-99999_fig2.png
https://bioclimatic.github.io/predilection/psych/832480-99999_fig2.png,832480,99999,0,__Ac,101282,19.4,55.4,32,[,0,957,5525,],4,14,19,24,32,[,112,1,],32,363,[,0,0,0,2,178,0,183,],345,361,-12.911,-38.331,20,1987,2020,BR,,DEPUTADO LUIS EDUARDO MAGALHA,,832480-99999_fig2.png
https://bioclimatic.github.io/predilection/psych/832880-99999_fig2.png,832880,99999,2,__Ac,96113,19.4,57.4,23,[,0,1310,1698,],5,12,21,26,36,[,78,0,],11,255,[,0,0,0,0,52,45,158,],252,189,-13.262,-43.408,443,1999,2015,BR,,BOM JESUS DA LAPA,,832880-99999_fig2.png
https://bioclimatic.github.io/predilection/psych/832890-99999_fig2.png,832890,99999,1,__Ac,96138,19.4,57.4,11,[,0,1232,1624,],5,14,28,34,49,[,44,0,],7,318,[,0,0,0,6,112,47,153,],307,206,-13.267,-43.417,441,1988,1996,BR,,BOM JESUS DA LAPA AEROPORTO,,832890-99999_fig2.png
https://bioclimatic.github.io/predilection/psych/833440-99999_fig2.png,833440,99999,2,HpEv,90818,19.4,59.6,19,[,20,145,415,],1,12,19,25,34,[,0,0,],17,291,[,0,19,0,132,128,4,9,],93,108,-14.863,-40.863,914,1999,2018,BR,,VITORIA DA CONQUISTA,,833440-99999_fig2.png
https://bioclimatic.github.io/predilection/psych/833490-99999_fig2.png,833490,99999,1,__Ac,101286,19.4,55.4,34,[,0,617,4625,],3,11,18,23,32,[,74,0,],30,354,[,0,0,0,6,223,0,125,],272,348,-14.816,-39.033,5,1987,2020,BR,,ILHEUS,,833490-99999_fig2.png
https://bioclimatic.github.io/predilection/psych/833590-99999_fig2.png,833590,99999,1,__Ac,97195,19.4,57,29,[,0,1313,3090,],2,13,23,29,46,[,109,1,],20,324,[,0,0,0,10,108,34,172,],306,254,-15.861,-52.389,350,1993,2020,BR,,BARRA DO GARCAS,,833590-99999_fig2.png
https://bioclimatic.github.io/predilection/psych/833620-99999_fig2.png,833620,99999,0,__Ac,99042,19.4,56.2,31,[,14,1173,3612,],4,15,23,32,47,[,211,14,],28,355,[,0,7,0,25,126,16,181,],313,285,-15.653,-56.117,188,1987,2020,BR,,MARECHAL RONDON,,833620-99999_fig2.png
https://bioclimatic.github.io/predilection/psych/833780-99999_fig2.png,833780,99999,2,HpVt,89655,19.4,60.2,34,[,18,55,135,],8,13,22,31,38,[,0,0,],34,363,[,0,17,0,243,101,2,0,],53,64,-15.863,-47.913,1060,1987,2020,BR,,PRESIDENTE JUSCELINO KUBITSCH,,833780-99999_fig2.png
https://bioclimatic.github.io/predilection/psych/834190-99999_fig2.png,834190,99999,2,HpVt,88428,19.4,60.8,34,[,22,76,423,],4,12,20,29,38,[,0,0,],23,351,[,0,18,0,198,130,4,1,],58,101,-16.229,-48.964,1136,1987,2020,BR,,BASE AEREA,,834190-99999_fig2.png
https://bioclimatic.github.io/predilection/psych/834240-99999_fig2.png,834240,99999,1,__Ac,92682,19.4,58.8,34,[,4,354,1245,],7,13,22,32,43,[,19,0,],29,355,[,0,3,0,96,221,17,18,],201,195,-16.632,-49.221,747,1987,2020,BR,,SANTA GENOVEVA,,834240-99999_fig2.png
https://bioclimatic.github.io/predilection/psych/834370-99999_fig2.png,834370,99999,3,__Ac,93556,19.4,58.4,21,[,0,333,417,],4,9,16,22,30,[,2,0,],21,236,[,0,0,0,71,125,23,17,],146,92,-16.707,-43.819,668,2000,2020,BR,,MARIO RIBEIRO,,834370-99999_fig2.png
https://bioclimatic.github.io/predilection/psych/834600-99999_fig2.png,834600,99999,2,__Ac,100968,19.4,55.5,12,[,1,319,3097,],4,10,16,22,28,[,27,0,],13,331,[,0,0,0,25,269,0,37,],192,305,-16.439,-39.081,51,2009,2020,BR,,PORTO SEGURO,,834600-99999_fig2.png
https://bioclimatic.github.io/predilection/psych/834970-99999_fig2.png,834970,99999,1,__Ac,101190,19.4,55.4,22,[,0,740,4312,],0,11,19,24,34,[,93,1,],21,344,[,0,0,0,14,192,0,138,],266,329,-17.652,-39.253,11,1987,2007,BR,,CARAVELAS,,834970-99999_fig2.png
https://bioclimatic.github.io/predilection/psych/835250-99999_fig2.png,835250,99999,2,HpVt,90519,19.4,59.8,13,[,22,80,182,],7,12,19,26,33,[,0,0,],14,304,[,0,16,0,167,115,6,0,],62,79,-18.883,-48.22,943,2009,2020,BR,,UBERLANDIA AERO,,835250-99999_fig2.png
https://bioclimatic.github.io/predilection/psych/835253-99999_fig2.png,835253,99999,3,HpVt,90235,19.4,59.9,12,[,20,61,325,],3,8,12,18,24,[,0,0,],8,215,[,0,12,0,101,99,2,2,],41,87,-18.883,-48.217,967,1998,2008,BR,,UBERLANDIA,,835253-99999_fig2.png
https://bioclimatic.github.io/predilection/psych/835520-99999_fig2.png,835520,99999,0,HpAc,99649,19.4,56,30,[,45,1379,4142,],2,14,23,30,45,[,183,27,],22,358,[,0,18,0,35,75,11,219,],292,280,-19.012,-57.673,140,1998,2020,BR,,CORUMBA INTL,,835520-99999_fig2.png
https://bioclimatic.github.io/predilection/psych/835660-99999_fig2.png,835660,99999,2,HpVt,92323,19.4,59,19,[,50,58,317,],4,11,19,28,37,[,0,0,],15,321,[,0,41,0,173,104,2,1,],51,80,-19.617,-43.967,827,2002,2020,BR,,CONFINS (AERO),,835660-99999_fig2.png
https://bioclimatic.github.io/predilection/psych/835760-99999_fig2.png,835760,99999,2,HpEv,91981,19.4,59.1,31,[,27,205,503,],6,13,22,31,40,[,1,0,],29,340,[,0,13,0,136,172,12,7,],126,133,-19.765,-47.965,809,1987,2020,BR,,UBERABA,,835760-99999_fig2.png
https://bioclimatic.github.io/predilection/psych/835830-99999_fig2.png,835830,99999,2,HpVt,92219,19.4,59,31,[,28,135,315,],7,15,23,31,40,[,1,0,],27,337,[,0,25,0,174,129,3,6,],95,101,-19.851,-43.951,789,1987,2020,BR,,PAMPULHA CARLOS DRUMMOND DE A,,835830-99999_fig2.png
https://bioclimatic.github.io/predilection/psych/835870-99999_fig2.png,835870,99999,2,HpVt,91770,19.4,59.2,32,[,67,65,313,],5,12,22,31,39,[,0,0,],31,360,[,0,49,0,197,110,2,2,],58,89,-19.634,-43.969,828,1990,2020,BR,,TANCREDO NEVES INTL,,835870-99999_fig2.png
https://bioclimatic.github.io/predilection/psych/835880-99999_fig2.png,835880,99999,3,__Vt,91500,19.4,59.3,14,[,4,92,117,],3,5,9,12,16,[,0,0,],32,133,[,0,4,0,65,56,4,4,],51,40,-19.65,-43.883,852,2009,2020,BR,,LAGOA SANTA AIRPORT,,835880-99999_fig2.png
https://bioclimatic.github.io/predilection/psych/836120-99999_fig2.png,836120,99999,1,HpAc,94918,19.4,57.9,32,[,75,546,1922,],3,14,22,32,45,[,84,1,],32,364,[,0,25,0,76,183,13,68,],224,213,-20.469,-54.673,559,1987,2020,BR,,CAMPO GRANDE,,836120-99999_fig2.png
https://bioclimatic.github.io/predilection/psych/836310-99999_fig2.png,836310,99999,2,HpVt,92096,19.4,59.1,3,[,144,58,211,],7,13,21,32,41,[,0,0,],3,342,[,0,67,0,164,104,6,1,],38,88,-20.917,-47.117,820,2017,2019,BR,,S SEBASTIAO DO OARAISO,,836310-99999_fig2.png
https://bioclimatic.github.io/predilection/psych/836440-99999_fig2.png,836440,99999,3,HpAc,87073,19.4,61.4,10,[,30,150,510,],1,7,13,17,24,[,2,0,],12,205,[,0,19,0,79,91,4,11,],77,84,-21.843,-46.568,1260,2014,2020,BR,,POCOS DE CALDAS,,836440-99999_fig2.png
https://bioclimatic.github.io/predilection/psych/836490-99999_fig2.png,836490,99999,1,__Ac,101555,19.4,55.3,33,[,0,577,3644,],3,12,19,27,37,[,126,5,],33,359,[,0,0,0,45,205,0,109,],232,314,-20.258,-40.286,3,1987,2020,BR,,GOIABEIRAS,,836490-99999_fig2.png
https://bioclimatic.github.io/predilection/psych/836520-99999_fig2.png,836520,99999,2,HpAc,94902,19.4,57.9,14,[,27,368,1285,],6,12,21,30,41,[,44,0,],14,337,[,0,14,0,109,171,11,32,],177,174,-21.134,-47.774,549,2007,2020,BR,,LEITE LOPES,,836520-99999_fig2.png
https://bioclimatic.github.io/predilection/psych/836710-99999_fig2.png,836710,99999,2,HpAc,94324,19.4,58.1,31,[,62,264,991,],2,11,21,29,40,[,16,0,],27,318,[,0,34,0,114,139,4,27,],130,146,-21.985,-47.335,600,1989,2020,BR,,CAMPO FONTENELLE,,836710-99999_fig2.png
https://bioclimatic.github.io/predilection/psych/836724-99999_fig2.png,836724,99999,1,__Ac,90665,19.4,59.7,12,[,2,442,670,],5,15,26,32,44,[,1,0,],11,348,[,0,3,0,123,166,15,40,],193,152,-19.909,-43.991,928,2009,2020,BR,,CARLOS PRATES,,836724-99999_fig2.png
https://bioclimatic.github.io/predilection/psych/836725-99999_fig2.png,836725,99999,1,__Ac,93066,19.4,58.7,13,[,19,888,1452,],9,15,26,33,51,[,26,0,],1,361,[,0,9,0,86,137,36,93,],252,193,-21.812,-48.133,711,2014,2014,BR,,ARARAQUARA,,836725-99999_fig2.png
https://bioclimatic.github.io/predilection/psych/836726-99999_fig2.png,836726,99999,2,HpAc,92591,19.4,58.9,12,[,243,194,473,],5,16,24,31,42,[,1,0,],9,343,[,0,70,0,133,116,7,16,],98,102,-25,-53.501,754,2010,2019,BR,,CASCAVEL,,836726-99999_fig2.png
https://bioclimatic.github.io/predilection/psych/836727-99999_fig2.png,836727,99999,2,HpAc,100985,19.4,55.5,10,[,259,287,1317,],1,12,21,28,41,[,32,3,],8,353,[,0,91,0,105,114,0,42,],117,146,-28.733,-49.417,28,2009,2016,BR,,CRICIUM/FORQUILHINHA,,836727-99999_fig2.png
https://bioclimatic.github.io/predilection/psych/836728-99999_fig2.png,836728,99999,0,__Ac,99587,19.4,56,13,[,3,1602,5957,],4,13,22,27,42,[,236,5,],12,349,[,0,1,0,9,50,1,288,],331,333,-10.786,-65.285,146,2009,2020,BR,,GUAJARA MIRIM,,836728-99999_fig2.png
https://bioclimatic.github.io/predilection/psych/836793-99999_fig2.png,836793,99999,3,HpAc,94742,19.4,57.9,12,[,57,148,741,],4,10,15,22,32,[,14,0,],11,246,[,0,28,0,88,115,3,11,],84,113,-21.133,-47.767,563,1995,2008,BR,,LEITE LOPES,,836793-99999_fig2.png
https://bioclimatic.github.io/predilection/psych/836810-99999_fig2.png,836810,99999,3,HpVt,88252,19.4,60.8,19,[,82,31,45,],3,7,14,17,21,[,0,0,],14,195,[,0,43,0,115,36,1,0,],26,22,-21.917,-46.383,1150,1998,2012,BR,,CALDAS,,836810-99999_fig2.png
https://bioclimatic.github.io/predilection/psych/836890-99999_fig2.png,836890,99999,3,HpVt,88631,19.4,60.7,28,[,182,38,87,],3,12,21,27,33,[,0,0,],16,307,[,0,88,0,162,56,1,0,],36,38,-21.267,-43.761,1115,2000,2020,BR,,MAJOR BRIGADEIRO DOORGAL BORG,,836890-99999_fig2.png
https://bioclimatic.github.io/predilection/psych/836920-99999_fig2.png,836920,99999,3,HpVt,90849,19.4,59.6,16,[,79,80,288,],0,8,14,19,24,[,0,0,],17,207,[,0,42,0,88,69,1,7,],48,70,-21.792,-43.387,911,2000,2016,BR,,FRANCISCO DE ASSIS,,836920-99999_fig2.png
https://bioclimatic.github.io/predilection/psych/836980-99999_fig2.png,836980,99999,3,__Ac,101116,19.4,55.5,17,[,0,337,1621,],1,5,9,12,17,[,50,4,],30,157,[,0,0,0,19,80,0,58,],113,137,-21.698,-41.302,17,2008,2020,BR,,BARTOLOMEU LISANDRO,,836980-99999_fig2.png
https://bioclimatic.github.io/predilection/psych/836993-99999_fig2.png,836993,99999,3,__Ac,101289,19.4,55.4,4,[,2,206,548,],0,1,2,3,5,[,15,2,],7,177,[,0,4,0,35,119,0,19,],90,148,-22.333,-41.767,3,1991,2000,BR,,MACAE,,836993-99999_fig2.png
https://bioclimatic.github.io/predilection/psych/837030-99999_fig2.png,837030,99999,2,HpAc,93676,19.4,58.4,34,[,168,638,1435,],2,15,25,30,44,[,12,0,],26,353,[,0,46,0,73,137,18,79,],204,181,-22.55,-55.703,657,1987,2020,BR,,PONTA PORA,,837030-99999_fig2.png
https://bioclimatic.github.io/predilection/psych/837080-99999_fig2.png,837080,99999,2,HpAc,95040,19.4,57.8,29,[,36,386,958,],5,13,23,29,39,[,17,0,],22,313,[,0,21,0,117,119,7,49,],152,144,-22.792,-45.205,537,1990,2020,BR,,GUARATINGUETA,,837080-99999_fig2.png
https://bioclimatic.github.io/predilection/psych/837160-99999_fig2.png,837160,99999,2,HpAc,96032,19.4,57.4,29,[,68,374,1212,],5,13,21,30,42,[,43,0,],21,335,[,0,29,0,103,154,11,38,],169,156,-22.175,-51.425,450,1995,2020,BR,,PRESIDENTE PRUDENTE,,837160-99999_fig2.png
https://bioclimatic.github.io/predilection/psych/837210-99999_fig2.png,837210,99999,2,HpVt,93639,19.4,58.4,33,[,126,111,653,],4,12,21,31,41,[,6,0,],33,363,[,0,62,0,155,138,2,5,],80,129,-23.007,-47.135,661,1987,2020,BR,,VIRACOPOS,,837210-99999_fig2.png
https://bioclimatic.github.io/predilection/psych/837220-99999_fig2.png,837220,99999,2,HpAc,94130,19.4,58.2,33,[,76,276,1398,],3,11,19,28,41,[,37,0,],22,334,[,0,36,0,110,152,4,32,],130,166,-22.345,-49.054,617,1995,2020,BR,,BAURU,,837220-99999_fig2.png
https://bioclimatic.github.io/predilection/psych/837410-99999_fig2.png,837410,99999,2,__Ac,101290,19.4,55.4,28,[,9,331,1896,],3,11,17,24,35,[,66,5,],25,295,[,0,9,0,80,155,0,51,],136,202,-22.932,-43.719,3,1990,2020,BR,,SANTA CRUZ,,837410-99999_fig2.png
https://bioclimatic.github.io/predilection/psych/837460-99999_fig2.png,837460,99999,1,__Ac,101440,19.4,55.4,31,[,6,543,2863,],4,13,20,29,41,[,105,16,],31,364,[,0,7,0,87,174,0,96,],194,266,-22.809,-43.244,8,1987,2020,BR,,GALEAO ANTONIO CARLOS JOBIM,,837460-99999_fig2.png
https://bioclimatic.github.io/predilection/psych/837480-99999_fig2.png,837480,99999,1,__Ac,100923,19.4,55.5,34,[,8,681,2758,],2,14,22,30,42,[,106,20,],27,344,[,0,7,0,80,150,1,106,],203,249,-22.875,-43.385,34,1988,2020,BR,,CAMPO DELIO JARDIM DE MATTOS,,837480-99999_fig2.png
https://bioclimatic.github.io/predilection/psych/837550-99999_fig2.png,837550,99999,1,__Ac,101290,19.4,55.4,33,[,3,488,2968,],5,14,20,26,38,[,66,4,],33,358,[,0,4,0,73,199,0,82,],194,280,-22.91,-43.163,3,1987,2020,BR,,SANTOS DUMONT,,837550-99999_fig2.png
https://bioclimatic.github.io/predilection/psych/837590-99999_fig2.png,837590,99999,3,__Ac,101102,19.4,55.5,16,[,1,242,1085,],1,5,9,12,16,[,25,0,],26,156,[,0,1,0,36,82,0,38,],90,118,-22.813,-42.093,19,2008,2020,BR,,SAO PEDRO DA ALDEIA,,837590-99999_fig2.png
https://bioclimatic.github.io/predilection/psych/837670-99999_fig2.png,837670,99999,3,HpAc,94947,19.4,57.9,11,[,60,205,620,],1,6,10,14,21,[,12,0,],21,192,[,0,23,0,54,91,5,19,],90,95,-23.476,-52.016,545,2008,2020,BR,,REGIONAL DE MARINGA SILVIO NA,,837670-99999_fig2.png
https://bioclimatic.github.io/predilection/psych/837680-99999_fig2.png,837680,99999,2,HpAc,94674,19.4,58,33,[,132,229,1274,],3,11,20,30,42,[,27,0,],33,359,[,0,54,0,118,161,3,22,],128,165,-23.334,-51.13,569,1987,2020,BR,,LONDRINA,,837680-99999_fig2.png
https://bioclimatic.github.io/predilection/psych/837750-99999_fig2.png,837750,99999,3,HpVt,98592,19.4,56.4,2,[,154,10,38,],4,5,8,11,13,[,0,0,],3,122,[,0,45,0,63,14,0,0,],9,14,-24.083,-54.25,230,1987,1987,BR,,GUAIRA,,837750-99999_fig2.png
https://bioclimatic.github.io/predilection/psych/837753-99999_fig2.png,837753,99999,3,HpVt,92630,19.4,58.8,14,[,239,40,506,],2,9,16,24,31,[,6,0,],17,309,[,0,99,0,107,100,0,3,],33,101,-23.433,-46.467,768,1989,2008,BR,,GUARULHOS,,837753-99999_fig2.png
https://bioclimatic.github.io/predilection/psych/837780-99999_fig2.png,837780,99999,3,__Ac,100678,19.4,55.6,16,[,0,324,1617,],1,5,8,10,15,[,42,4,],28,142,[,0,0,0,14,73,0,55,],112,125,-22.922,-42.074,4,2010,2020,BR,,CABO FRIO,,837780-99999_fig2.png
https://bioclimatic.github.io/predilection/psych/837790-99999_fig2.png,837790,99999,3,HpAc,92949,19.4,58.7,26,[,91,127,335,],7,12,18,24,30,[,2,0,],22,254,[,0,46,0,120,76,2,11,],68,75,-23.509,-46.638,722,1998,2020,BR,,MARTE,,837790-99999_fig2.png
https://bioclimatic.github.io/predilection/psych/837800-99999_fig2.png,837800,99999,2,HpVt,92075,19.4,59.1,34,[,264,68,302,],7,16,23,33,40,[,2,0,],34,362,[,0,104,0,160,94,1,3,],52,86,-23.627,-46.655,802,1987,2020,BR,,CONGONHAS,,837800-99999_fig2.png
https://bioclimatic.github.io/predilection/psych/837840-99999_fig2.png,837840,99999,3,HpVt,94583,19.4,58,14,[,28,66,276,],1,4,8,11,14,[,4,0,],27,116,[,0,15,0,49,45,1,6,],37,46,-23.017,-45.567,577,2008,2020,BR,,TAUBATE,,837840-99999_fig2.png
https://bioclimatic.github.io/predilection/psych/838093-99999_fig2.png,838093,99999,2,HpVt,93800,19.4,58.3,30,[,161,88,574,],5,13,21,32,41,[,10,0,],25,354,[,0,80,0,149,120,1,4,],66,114,-23.229,-45.862,646,1991,2020,BR,,PROFESSOR URBANO ERNESTO STUM,,838093-99999_fig2.png
https://bioclimatic.github.io/predilection/psych/838180-99999_fig2.png,838180,99999,2,HpAc,101289,19.4,55.4,33,[,31,441,2312,],1,12,20,25,42,[,46,2,],30,337,[,0,22,0,91,155,1,69,],158,220,-23.925,-46.288,3,1987,2020,BR,,BASE AEREA DE SANTOS,,838180-99999_fig2.png
https://bioclimatic.github.io/predilection/psych/838270-99999_fig2.png,838270,99999,2,HpAc,98574,19.4,56.4,34,[,305,291,1373,],2,12,21,32,43,[,65,1,],32,362,[,0,77,0,103,143,1,37,],135,165,-25.596,-54.487,240,1987,2020,BR,,CATARATAS INTL,,838270-99999_fig2.png
https://bioclimatic.github.io/predilection/psych/838290-99999_fig2.png,838290,99999,3,__Vt,101631,19.4,55.3,8,[,16,9,58,],0,1,2,2,3,[,1,0,],27,24,[,0,6,0,8,9,0,1,],6,10,-23.217,-45.867,646,1987,1988,BR,,SAO JOSE DOS CAMPOS AERO,,838290-99999_fig2.png
https://bioclimatic.github.io/predilection/psych/838400-99999_fig2.png,838400,99999,3,HpVt,91302,19.4,59.4,33,[,731,5,157,],4,11,20,31,37,[,1,0,],33,362,[,0,198,0,115,49,0,0,],7,48,-25.528,-49.176,911,1987,2020,BR,,AFONSO PENA,,838400-99999_fig2.png
https://bioclimatic.github.io/predilection/psych/838420-99999_fig2.png,838420,99999,3,HpVt,90621,19.4,59.7,25,[,420,41,147,],6,12,21,28,34,[,0,0,],18,310,[,0,128,0,125,55,1,2,],32,47,-25.405,-49.232,932,1998,2020,BR,,BACACHERI,,838420-99999_fig2.png
https://bioclimatic.github.io/predilection/psych/838830-99999_fig2.png,838830,99999,3,HpVt,93430,19.4,58.5,15,[,193,58,199,],2,7,11,14,19,[,2,0,],24,162,[,0,49,0,62,45,1,5,],36,40,-27.117,-52.617,679,2008,2019,BR,,CHAPECO,,838830-99999_fig2.png
https://bioclimatic.github.io/predilection/psych/838990-99999_fig2.png,838990,99999,2,HpAc,101511,19.4,55.3,29,[,216,151,1544,],3,11,18,26,36,[,34,1,],28,363,[,0,86,0,111,142,0,24,],90,166,-27.67,-48.547,6,1987,2020,BR,,HERCILIO LUZ,,838990-99999_fig2.png
https://bioclimatic.github.io/predilection/psych/839140-99999_fig2.png,839140,99999,3,HpVt,92922,19.4,58.7,15,[,171,45,137,],0,5,9,12,15,[,1,0,],19,129,[,0,44,0,51,29,0,4,],26,28,-28.244,-52.327,724,2013,2019,BR,,LAURO KURTZ,,839140-99999_fig2.png
https://bioclimatic.github.io/predilection/psych/839280-99999_fig2.png,839280,99999,2,HpAc,100391,19.4,55.7,30,[,462,383,1044,],2,13,24,31,44,[,33,2,],18,358,[,0,109,0,95,97,4,53,],128,130,-29.782,-57.038,78,1995,2018,BR,,RUBEM BERTA,,839280-99999_fig2.png
https://bioclimatic.github.io/predilection/psych/839370-99999_fig2.png,839370,99999,3,HpAc,100266,19.4,55.8,22,[,488,256,948,],1,11,21,28,40,[,31,3,],14,330,[,0,112,0,87,97,1,33,],97,121,-29.711,-53.688,88,1988,2020,BR,,SANTA MARIA,,839370-99999_fig2.png
https://bioclimatic.github.io/predilection/psych/839670-99999_fig2.png,839670,99999,3,HpAc,101230,19.4,55.4,22,[,361,196,830,],1,9,17,23,33,[,26,2,],15,295,[,0,98,0,87,86,0,24,],82,109,-29.946,-51.144,8,1998,2020,BR,,CANOAS,,839670-99999_fig2.png
https://bioclimatic.github.io/predilection/psych/839710-99999_fig2.png,839710,99999,2,HpAc,101479,19.4,55.3,22,[,494,148,1099,],2,12,20,30,40,[,42,3,],20,363,[,0,131,0,95,117,0,20,],81,139,-29.994,-51.171,3,1987,2020,BR,,SALGADO FILHO,,839710-99999_fig2.png
https://bioclimatic.github.io/predilection/psych/839810-99999_fig2.png,839810,99999,2,HpAc,99147,19.4,56.2,34,[,479,460,823,],3,20,27,31,45,[,17,1,],12,338,[,1,110,0,88,74,9,56,],120,107,-31.391,-54.112,183,1987,2020,BR,,COMANDANTE GUSTAVO KRAEMER,,839810-99999_fig2.png
https://bioclimatic.github.io/predilection/psych/839850-99999_fig2.png,839850,99999,3,HpAc,101109,19.4,55.5,32,[,469,192,1015,],0,10,19,26,40,[,21,2,],20,331,[,0,121,0,89,93,1,28,],84,114,-31.718,-52.328,18,2000,2020,BR,,PELOTAS,,839850-99999_fig2.png
https://bioclimatic.github.io/predilection/psych/866070-99999_fig2.png,866070,99999,0,__Ac,97893,19.4,56.7,4,[,0,1231,2817,],6,14,22,32,49,[,173,0,],4,342,[,0,0,0,0,141,72,129,],336,252,-10.183,-48.3,282,2017,2020,BR,,PALMAS,,866070-99999_fig2.png
https://bioclimatic.github.io/predilection/psych/866090-99999_fig2.png,866090,99999,1,__Ac,95596,19.4,57.6,4,[,0,993,1574,],1,15,24,34,46,[,89,0,],3,346,[,0,0,0,15,191,61,79,],314,193,-10.717,-43.65,504,2017,2019,BR,,BURITIRAMA,,866090-99999_fig2.png
https://bioclimatic.github.io/predilection/psych/866100-99999_fig2.png,866100,99999,1,__Ev,94168,19.4,58.2,4,[,0,422,113,],13,16,24,34,43,[,0,0,],4,352,[,0,0,0,131,174,45,1,],209,44,-10.45,-41.2,638,2017,2020,BR,,DELFINO,,866100-99999_fig2.png
https://bioclimatic.github.io/predilection/psych/866110-99999_fig2.png,866110,99999,2,__Ac,95406,19.4,57.7,4,[,0,391,671,],9,14,24,33,46,[,4,0,],4,347,[,0,1,0,105,200,16,25,],196,165,-10.45,-40.15,550,2017,2020,BR,,SENHOR DO BONFIM,,866110-99999_fig2.png
https://bioclimatic.github.io/predilection/psych/866120-99999_fig2.png,866120,99999,1,__Ac,97899,19.4,56.7,4,[,0,828,1198,],9,16,26,36,48,[,66,0,],4,345,[,0,0,0,44,163,23,115,],263,240,-10.983,-39.617,316,2017,2020,BR,,QUEIMADAS,,866120-99999_fig2.png
https://bioclimatic.github.io/predilection/psych/866130-99999_fig2.png,866130,99999,1,__Ac,96445,19.4,57.3,2,[,0,552,806,],10,15,26,36,45,[,24,0,],1,359,[,0,0,0,73,219,4,63,],214,271,-10.533,-39,434,2017,2020,BR,,EUCLIDES DA CUNHA,,866130-99999_fig2.png
https://bioclimatic.github.io/predilection/psych/866140-99999_fig2.png,866140,99999,2,__Ac,97264,19.4,56.9,4,[,0,433,1483,],7,16,25,34,42,[,50,0,],3,342,[,0,0,0,65,237,0,40,],208,271,-10.733,-38.1,364,2017,2020,BR,,POCO VERDE,,866140-99999_fig2.png
https://bioclimatic.github.io/predilection/psych/866150-99999_fig2.png,866150,99999,1,__Ac,98122,19.4,56.6,3,[,0,506,2619,],2,14,21,31,41,[,129,1,],2,355,[,0,0,0,11,277,0,68,],213,345,-10.4,-37.75,310,2017,2020,BR,,CARIRA,,866150-99999_fig2.png
https://bioclimatic.github.io/predilection/psych/866160-99999_fig2.png,866160,99999,0,__Ac,101393,19.4,55.4,3,[,0,1030,2793,],12,21,26,31,37,[,12,0,],3,361,[,0,0,0,1,167,0,193,],350,351,-10.95,-37.05,6,2017,2020,BR,,ARACAJU,,866160-99999_fig2.png
https://bioclimatic.github.io/predilection/psych/866180-99999_fig2.png,866180,99999,1,__Ac,102996,19.4,54.8,3,[,0,821,5583,],1,10,17,25,32,[,206,0,],2,362,[,0,0,0,0,184,0,178,],335,357,-10.467,-36.483,12,2017,2019,BR,,BREJO GRANDE,,866180-99999_fig2.png
https://bioclimatic.github.io/predilection/psych/866190-99999_fig2.png,866190,99999,1,__Ac,100498,19.4,55.7,4,[,0,651,3412,],10,15,22,29,35,[,87,0,],3,345,[,0,0,0,3,252,0,90,],278,342,-10.133,-36.283,76,2017,2020,BR,,CORURIPE,,866190-99999_fig2.png
https://bioclimatic.github.io/predilection/psych/866200-99999_fig2.png,866200,99999,1,__Ac,98624,19.4,56.4,4,[,8,453,3830,],4,10,18,29,42,[,187,0,],2,365,[,0,6,0,26,308,0,25,],292,330,-11.017,-68.733,218,2017,2019,BR,,EPITACIOLANDIA,,866200-99999_fig2.png
https://bioclimatic.github.io/predilection/psych/866220-99999_fig2.png,866220,99999,1,__Ac,98953,19.4,56.3,4,[,1,920,3722,],8,14,21,31,46,[,215,0,],4,353,[,0,1,0,10,219,4,119,],333,324,-11.45,-61.433,212,2017,2020,BR,,CACOAL,,866220-99999_fig2.png
https://bioclimatic.github.io/predilection/psych/866240-99999_fig2.png,866240,99999,1,__Ac,97031,19.4,57,4,[,3,511,3201,],6,11,19,29,45,[,97,0,],2,365,[,0,2,0,23,296,10,34,],300,300,-11.383,-58.783,376,2017,2020,BR,,JUINA,,866240-99999_fig2.png
https://bioclimatic.github.io/predilection/psych/866250-99999_fig2.png,866250,99999,1,__Ac,98221,19.4,56.6,4,[,1,590,3482,],6,11,19,31,45,[,210,1,],1,355,[,0,1,0,27,267,5,55,],303,301,-11.283,-57.533,262,2018,2018,BR,,JUARA,,866250-99999_fig2.png
https://bioclimatic.github.io/predilection/psych/866260-99999_fig2.png,866260,99999,1,__Ac,97054,19.4,57,4,[,0,990,2864,],5,11,20,31,48,[,141,0,],2,343,[,0,0,0,7,203,56,77,],313,269,-11.983,-55.567,372,2017,2019,BR,,SINOP,,866260-99999_fig2.png
https://bioclimatic.github.io/predilection/psych/866280-99999_fig2.png,866280,99999,1,____,98900,19.4,56.3,2,[,0,994,NaN,],NaN,NaN,NaN,NaN,NaN,[,NaN,NaN,],1,322,[,NaN,0,NaN,0,322,NaN,NaN,],317,130,-11.617,-50.733,220,2020,2020,BR,,SAO FELIX DO ARAGUAIA,,866280-99999_fig2.png
https://bioclimatic.github.io/predilection/psych/866290-99999_fig2.png,866290,99999,0,__Ac,98738,19.4,56.4,4,[,0,1084,3117,],6,13,22,31,47,[,181,0,],3,365,[,0,0,0,4,199,51,111,],358,262,-11.883,-49.6,222,2017,2020,BR,,FORMOSO DO ARAGUAIA,,866290-99999_fig2.png
https://bioclimatic.github.io/predilection/psych/866300-99999_fig2.png,866300,99999,1,__Ac,98027,19.4,56.6,4,[,0,827,2815,],4,13,22,32,48,[,167,0,],3,348,[,0,0,0,32,200,26,90,],300,253,-11.75,-49.05,288,2017,2019,BR,,GURUPI,,866300-99999_fig2.png
https://bioclimatic.github.io/predilection/psych/866320-99999_fig2.png,866320,99999,1,__Ac,93199,19.4,58.6,4,[,0,478,1009,],6,13,22,31,43,[,1,0,],4,350,[,0,0,0,44,251,39,16,],219,202,-11.6,-46.85,734,2017,2020,BR,,DIANOPOLIS,,866320-99999_fig2.png
https://bioclimatic.github.io/predilection/psych/866330-99999_fig2.png,866330,99999,1,__Ac,96161,19.4,57.4,3,[,0,1010,1320,],9,15,25,34,47,[,56,0,],3,341,[,0,0,0,19,181,72,69,],310,187,-11.017,-44.533,452,2017,2019,BR,,SANTA RITA DE CASSIA,,866330-99999_fig2.png
https://bioclimatic.github.io/predilection/psych/866340-99999_fig2.png,866340,99999,0,__Ac,96697,19.4,57.1,4,[,0,1337,2350,],5,15,26,36,48,[,182,0,],4,354,[,0,0,0,8,134,22,190,],342,269,-11.083,-43.133,404,2017,2020,BR,,BARRA,,866340-99999_fig2.png
https://bioclimatic.github.io/predilection/psych/866350-99999_fig2.png,866350,99999,1,__Ac,92852,19.4,58.7,4,[,0,341,359,],7,13,23,34,44,[,0,0,],4,362,[,0,0,0,139,192,20,11,],189,106,-11.333,-41.867,756,2017,2020,BR,,IRECE,,866350-99999_fig2.png
https://bioclimatic.github.io/predilection/psych/866360-99999_fig2.png,866360,99999,1,__Ac,96484,19.4,57.2,4,[,0,481,685,],7,16,25,35,45,[,10,0,],3,356,[,0,0,0,111,186,16,43,],204,177,-11.2,-40.467,454,2017,2019,BR,,JACOBINA,,866360-99999_fig2.png
https://bioclimatic.github.io/predilection/psych/866370-99999_fig2.png,866370,99999,1,__Ac,97628,19.4,56.8,4,[,0,452,1556,],6,15,24,34,42,[,56,0,],3,344,[,0,0,0,62,234,0,48,],215,278,-11.667,-39.017,340,2017,2019,BR,,SERRINHA,,866370-99999_fig2.png
https://bioclimatic.github.io/predilection/psych/866380-99999_fig2.png,866380,99999,1,__Ac,99064,19.4,56.2,3,[,0,444,3328,],4,12,19,28,36,[,77,0,],2,346,[,0,0,0,7,319,0,21,],231,339,-11.267,-37.8,210,2017,2019,BR,,ITABAIANINHA,,866380-99999_fig2.png
https://bioclimatic.github.io/predilection/psych/866390-99999_fig2.png,866390,99999,1,__Ac,100984,19.4,55.5,4,[,0,720,5877,],1,10,16,23,28,[,158,1,],3,362,[,0,0,0,0,179,0,183,],327,362,-11.817,-37.617,16,2018,2020,BR,,CONDE,,866390-99999_fig2.png
https://bioclimatic.github.io/predilection/psych/866420-99999_fig2.png,866420,99999,1,__Ac,94657,19.4,58,4,[,10,381,1739,],8,14,21,31,42,[,5,0,],3,362,[,0,5,0,28,297,18,14,],244,269,-12.733,-60.15,592,2017,2020,BR,,VILHENA,,866420-99999_fig2.png
https://bioclimatic.github.io/predilection/psych/866450-99999_fig2.png,866450,99999,1,__Ac,96931,19.4,57.1,4,[,2,741,2736,],3,13,21,32,47,[,150,0,],2,359,[,0,1,0,18,248,32,60,],315,272,-12.55,-55.717,382,2017,2018,BR,,SORRISO,,866450-99999_fig2.png
https://bioclimatic.github.io/predilection/psych/866470-99999_fig2.png,866470,99999,1,__Ac,97432,19.4,56.9,4,[,0,650,3298,],2,9,19,31,46,[,214,5,],3,343,[,0,0,0,37,225,15,66,],290,269,-12.633,-52.217,384,2017,2020,BR,,QUERENCIA,,866470-99999_fig2.png
https://bioclimatic.github.io/predilection/psych/866490-99999_fig2.png,866490,99999,1,__Ac,98333,19.4,56.5,4,[,0,775,2322,],6,13,22,32,46,[,135,0,],1,316,[,0,0,0,12,196,34,74,],297,229,-12.017,-48.55,244,2018,2018,BR,,PEIXE,,866490-99999_fig2.png
https://bioclimatic.github.io/predilection/psych/866500-99999_fig2.png,866500,99999,1,__Ac,97987,19.4,56.6,4,[,0,809,1677,],9,15,24,34,48,[,110,0,],3,346,[,0,0,0,43,187,43,73,],289,218,-12.617,-47.983,276,2017,2020,BR,,PARANA,,866500-99999_fig2.png
https://bioclimatic.github.io/predilection/psych/866510-99999_fig2.png,866510,99999,1,__Ev,92883,19.4,58.7,4,[,0,263,893,],5,11,21,32,43,[,7,0,],3,362,[,0,1,0,103,230,20,8,],168,189,-12.15,-45.817,756,2017,2019,BR,,LUIS EDUARDO MAGALHAES,,866510-99999_fig2.png
https://bioclimatic.github.io/predilection/psych/866520-99999_fig2.png,866520,99999,1,__Ac,95972,19.4,57.4,4,[,0,722,2021,],5,11,22,32,48,[,90,0,],4,347,[,0,0,0,44,213,36,54,],282,225,-12.15,-45,472,2017,2020,BR,,BARREIRAS,,866520-99999_fig2.png
https://bioclimatic.github.io/predilection/psych/866530-99999_fig2.png,866530,99999,0,__Ac,96512,19.4,57.2,4,[,0,1366,1356,],8,15,26,36,49,[,106,0,],4,358,[,0,0,0,6,137,107,108,],344,193,-12.2,-43.217,432,2017,2020,BR,,IBOTIRAMA,,866530-99999_fig2.png
https://bioclimatic.github.io/predilection/psych/866540-99999_fig2.png,866540,99999,1,__Ac,96458,19.4,57.2,4,[,0,472,1625,],7,14,23,33,45,[,45,0,],4,358,[,0,0,0,79,221,3,55,],213,262,-12.567,-41.383,440,2017,2020,BR,,LENCOIS,,866540-99999_fig2.png
https://bioclimatic.github.io/predilection/psych/866550-99999_fig2.png,866550,99999,1,__Ac,97503,19.4,56.8,3,[,0,530,1403,],7,15,25,34,44,[,58,0,],3,354,[,0,1,0,76,198,13,66,],223,237,-12.117,-40.35,382,2017,2020,BR,,MACAJUBA,,866550-99999_fig2.png
https://bioclimatic.github.io/predilection/psych/866560-99999_fig2.png,866560,99999,1,__Ac,98615,19.4,56.4,4,[,0,744,3352,],3,14,22,32,40,[,172,5,],4,362,[,0,0,0,23,211,0,128,],272,338,-12.517,-40.283,251,2017,2020,BR,,ITABERABA,,866560-99999_fig2.png
https://bioclimatic.github.io/predilection/psych/866570-99999_fig2.png,866570,99999,1,__Ac,98968,19.4,56.3,4,[,0,454,2594,],5,13,21,29,39,[,47,0,],3,359,[,0,0,0,33,273,0,53,],202,326,-12.667,-39.15,227,2017,2020,BR,,CRUZ DAS ALMAS,,866570-99999_fig2.png
https://bioclimatic.github.io/predilection/psych/866580-99999_fig2.png,866580,99999,1,__Ac,98881,19.4,56.3,4,[,0,514,1959,],5,15,23,32,42,[,76,0,],4,348,[,0,0,0,47,235,0,66,],210,299,-12.2,-38.967,232,2017,2020,BR,,FEIRA DE SANTANA,,866580-99999_fig2.png
https://bioclimatic.github.io/predilection/psych/866610-99999_fig2.png,866610,99999,2,HpAc,94994,19.4,57.8,3,[,29,220,1595,],4,12,21,30,44,[,12,0,],1,357,[,0,18,0,47,234,25,33,],126,213,-13.717,-59.767,592,2018,2020,BR,,COMODORO,,866610-99999_fig2.png
https://bioclimatic.github.io/predilection/psych/866620-99999_fig2.png,866620,99999,1,HuAc,95194,19.4,57.8,4,[,10,628,1629,],3,9,18,29,41,[,45,0,],4,361,[,0,5,108,20,163,55,11,],256,161,-13.783,-57.833,572,2017,2020,BR,,CAMPO NOVO DOS PARECIS,,866620-99999_fig2.png
https://bioclimatic.github.io/predilection/psych/866630-99999_fig2.png,866630,99999,1,__Ac,97372,19.4,56.9,4,[,3,855,3950,],5,11,19,29,45,[,151,38,],4,353,[,0,2,0,45,228,8,70,],284,262,-13.033,-57.1,354,2017,2020,BR,,NOVA MARINGA,,866630-99999_fig2.png
https://bioclimatic.github.io/predilection/psych/866640-99999_fig2.png,866640,99999,3,__Ac,97347,19.4,56.9,5,[,2,200,944,],1,4,7,10,16,[,59,0,],6,116,[,0,1,0,15,75,4,21,],93,85,-13.45,-56.667,352,2017,2020,BR,,SAO JOSE DO RIO CLARO,,866640-99999_fig2.png
https://bioclimatic.github.io/predilection/psych/866650-99999_fig2.png,866650,99999,1,__Ac,96016,19.4,57.4,3,[,0,438,2534,],4,10,19,30,44,[,101,0,],2,346,[,0,0,0,34,271,21,20,],259,247,-13.417,-54.75,520,2018,2019,BR,,NOVA UBIRATA,,866650-99999_fig2.png
https://bioclimatic.github.io/predilection/psych/866660-99999_fig2.png,866660,99999,1,__Ac,96947,19.4,57.1,4,[,0,1165,2334,],9,15,24,33,48,[,128,0,],3,338,[,0,0,0,8,179,52,99,],321,242,-13.183,-53.25,380,2017,2020,BR,,GAUCHA DO NORTE,,866660-99999_fig2.png
https://bioclimatic.github.io/predilection/psych/866700-99999_fig2.png,866700,99999,1,__Ac,95125,19.4,57.8,2,[,0,733,1226,],8,13,23,34,45,[,36,0,],1,328,[,0,0,0,23,209,59,37,],278,191,-13.25,-46.883,1254,2017,2019,BR,,MONTE ALEGRE DE GOIAS,,866700-99999_fig2.png
https://bioclimatic.github.io/predilection/psych/866710-99999_fig2.png,866710,99999,1,__Ac,95150,19.4,57.8,4,[,0,452,2170,],1,8,20,32,46,[,143,0,],3,364,[,0,0,0,87,222,14,41,],234,228,-13.333,-44.617,550,2017,2020,BR,,CORRENTINA,,866710-99999_fig2.png
https://bioclimatic.github.io/predilection/psych/866720-99999_fig2.png,866720,99999,1,__Ac,96300,19.4,57.3,4,[,0,1116,1971,],4,14,24,34,49,[,128,1,],4,343,[,0,0,0,18,143,47,136,],316,219,-13.267,-43.417,442,2017,2020,BR,,BOM JESUS DA LAPA,,866720-99999_fig2.png
https://bioclimatic.github.io/predilection/psych/866730-99999_fig2.png,866730,99999,3,Hp__,87417,19.4,61.3,3,[,153,3,0,],0,NaN,NaN,NaN,NaN,[,0,0,],3,352,[,0,97,0,250,5,0,0,],5,0,-13.15,-41.767,1292,2017,2019,BR,,PIATA,,866730-99999_fig2.png
https://bioclimatic.github.io/predilection/psych/866740-99999_fig2.png,866740,99999,2,HpVt,93090,19.4,58.6,4,[,35,16,209,],8,12,21,32,40,[,1,0,],4,352,[,0,42,6,215,89,0,0,],23,83,-13.533,-40.117,757,2017,2020,BR,,ITIRUCU,,866740-99999_fig2.png
https://bioclimatic.github.io/predilection/psych/866750-99999_fig2.png,866750,99999,2,__Vt,97120,19.4,57,3,[,0,172,1430,],8,14,21,31,40,[,21,0,],3,359,[,0,1,0,103,250,0,5,],145,255,-13.017,-39.617,408,2017,2020,BR,,AMARGOSA,,866750-99999_fig2.png
https://bioclimatic.github.io/predilection/psych/866770-99999_fig2.png,866770,99999,1,HuAc,101472,19.4,55.3,4,[,0,608,3436,],7,13,19,26,36,[,73,0,],4,360,[,0,0,46,2,216,12,84,],277,278,-13.907,-38.972,12,2017,2020,BR,,MARAU,,866770-99999_fig2.png
https://bioclimatic.github.io/predilection/psych/866780-99999_fig2.png,866780,99999,1,__Ac,100887,19.4,55.6,4,[,0,712,4216,],8,15,20,27,34,[,103,0,],4,362,[,0,0,0,2,247,0,113,],318,360,-13,-38.5,53,2017,2020,BR,,SALVADOR,,866780-99999_fig2.png
https://bioclimatic.github.io/predilection/psych/866820-99999_fig2.png,866820,99999,1,__Ac,96245,19.4,57.3,4,[,21,543,2095,],5,11,20,31,47,[,87,0,],3,332,[,0,8,0,33,231,25,35,],260,226,-14.65,-57.433,323,2017,2020,BR,,TANGARA DA SERRA,,866820-99999_fig2.png
https://bioclimatic.github.io/predilection/psych/866840-99999_fig2.png,866840,99999,2,__Ac,95877,19.4,57.5,4,[,0,395,2294,],2,10,19,30,47,[,104,0,],1,321,[,0,0,0,68,220,18,15,],225,214,-14.417,-54.033,476,2019,2019,BR,,PARANATINGA,,866840-99999_fig2.png
https://bioclimatic.github.io/predilection/psych/866850-99999_fig2.png,866850,99999,1,__Ac,93879,19.4,58.3,3,[,6,446,1388,],6,12,20,31,45,[,8,0,],3,342,[,0,4,0,52,241,34,11,],186,221,-14.933,-53.883,650,2017,2019,BR,,SANTO ANTONIO DO LESTE,,866850-99999_fig2.png
https://bioclimatic.github.io/predilection/psych/866860-99999_fig2.png,866860,99999,1,__Ac,96272,19.4,57.3,4,[,0,736,2294,],6,12,21,31,47,[,85,0,],3,345,[,0,0,0,28,219,49,49,],281,244,-14.017,-52.217,434,2017,2019,BR,,AGUA BOA,,866860-99999_fig2.png
https://bioclimatic.github.io/predilection/psych/866890-99999_fig2.png,866890,99999,1,__Ac,95113,19.4,57.8,4,[,1,318,1565,],6,12,21,31,43,[,29,0,],4,357,[,0,1,0,99,228,13,16,],193,215,-14.983,-49.533,524,2017,2020,BR,,ITAPACI,,866890-99999_fig2.png
https://bioclimatic.github.io/predilection/psych/866900-99999_fig2.png,866900,99999,1,__Ev,93866,19.4,58.3,2,[,0,531,909,],9,14,23,33,42,[,3,0,],1,365,[,0,0,0,48,253,55,9,],245,192,-14.467,-48.45,584,2017,2017,BR,,NIQUELANDIA,,866900-99999_fig2.png
https://bioclimatic.github.io/predilection/psych/866910-99999_fig2.png,866910,99999,2,HpVt,87737,19.4,61.1,4,[,42,20,2,],5,25,24,30,31,[,0,0,],4,357,[,0,46,34,256,21,0,0,],22,2,-14.133,-47.517,1262,2017,2020,BR,,ALTO PARAISO DE GOIAS,,866910-99999_fig2.png
https://bioclimatic.github.io/predilection/psych/866920-99999_fig2.png,866920,99999,1,__Ev,92227,19.4,59,4,[,0,471,354,],10,16,24,33,42,[,0,0,],3,340,[,0,0,0,78,208,47,7,],206,116,-14.083,-46.367,836,2017,2019,BR,,POSSE,,866920-99999_fig2.png
https://bioclimatic.github.io/predilection/psych/866930-99999_fig2.png,866930,99999,1,__Ac,95525,19.4,57.6,4,[,3,460,774,],8,15,24,35,46,[,33,0,],4,360,[,0,4,0,114,187,31,24,],212,149,-14.4,-44.4,514,2017,2020,BR,,MONTALVANIA,,866930-99999_fig2.png
https://bioclimatic.github.io/predilection/psych/866940-99999_fig2.png,866940,99999,1,__Ac,95186,19.4,57.8,4,[,0,822,482,],12,18,27,36,46,[,3,0,],4,361,[,0,0,0,60,178,77,46,],293,124,-14.2,-42.75,552,2017,2020,BR,,GUANAMBI,,866940-99999_fig2.png
https://bioclimatic.github.io/predilection/psych/866950-99999_fig2.png,866950,99999,1,__Ac,95030,19.4,57.8,3,[,3,622,331,],9,17,26,35,47,[,1,0,],2,352,[,0,1,0,82,187,58,23,],255,92,-14.917,-42.8,572,2017,2018,BR,,ESPINOSA,,866950-99999_fig2.png
https://bioclimatic.github.io/predilection/psych/866960-99999_fig2.png,866960,99999,1,__Ac,96198,19.4,57.3,4,[,0,532,842,],8,15,25,35,46,[,30,0,],4,356,[,0,0,0,94,194,20,48,],236,184,-14.183,-41.667,472,2017,2020,BR,,BRUMADO,,866960-99999_fig2.png
https://bioclimatic.github.io/predilection/psych/866970-99999_fig2.png,866970,99999,2,HpVt,91822,19.4,59.2,4,[,94,31,255,],5,12,19,30,41,[,0,0,],4,358,[,0,75,0,190,90,1,2,],25,83,-14.883,-40.8,874,2017,2020,BR,,VITORIA DA CONQUISTA,,866970-99999_fig2.png
https://bioclimatic.github.io/predilection/psych/866980-99999_fig2.png,866980,99999,2,__Ac,100058,19.4,55.9,3,[,0,297,1770,],5,13,21,31,40,[,50,0,],3,351,[,0,0,0,66,269,0,16,],181,283,-14.167,-39.7,126,2017,2020,BR,,IPIAU,,866980-99999_fig2.png
https://bioclimatic.github.io/predilection/psych/866990-99999_fig2.png,866990,99999,2,__Vt,100601,19.4,55.7,4,[,0,188,2588,],6,11,18,26,32,[,17,0,],2,340,[,0,0,0,37,297,0,6,],174,302,-14.65,-39.167,80,2017,2018,BR,,ILHEUS,,866990-99999_fig2.png
https://bioclimatic.github.io/predilection/psych/867010-99999_fig2.png,867010,99999,0,__Ac,98729,19.4,56.4,3,[,17,1053,3814,],5,12,21,32,49,[,229,1,],1,365,[,0,7,0,32,185,10,131,],309,309,-15.067,-59.867,224,2017,2017,BR,,VILA BELA DA S TRINDADE,,867010-99999_fig2.png
https://bioclimatic.github.io/predilection/psych/867020-99999_fig2.png,867020,99999,1,__Ac,98114,19.4,56.6,3,[,13,684,2681,],8,13,22,32,46,[,155,0,],3,353,[,0,7,0,38,227,8,73,],291,270,-15.25,-59.35,258,2017,2019,BR,,PONTES E LACERDA,,867020-99999_fig2.png
https://bioclimatic.github.io/predilection/psych/867030-99999_fig2.png,867030,99999,1,HpAc,97819,19.4,56.7,4,[,21,530,3036,],5,11,19,31,46,[,177,1,],2,359,[,0,13,0,56,236,5,49,],265,266,-15.125,-58.128,304,2018,2019,BR,,SALTO DO CEU,,867030-99999_fig2.png
https://bioclimatic.github.io/predilection/psych/867040-99999_fig2.png,867040,99999,1,__Ac,99438,19.4,56.1,4,[,11,952,4186,],2,11,20,31,47,[,260,23,],2,363,[,0,5,0,37,125,8,188,],307,295,-15.325,-57.226,146,2017,2020,BR,,PORTO ESTRELA,,867040-99999_fig2.png
https://bioclimatic.github.io/predilection/psych/867050-99999_fig2.png,867050,99999,1,__Ac,98505,19.4,56.4,4,[,13,960,2869,],7,15,22,31,48,[,161,0,],2,340,[,0,7,0,25,161,27,119,],298,246,-15.617,-56.1,153,2017,2018,BR,,CUIABA,,867050-99999_fig2.png
https://bioclimatic.github.io/predilection/psych/867070-99999_fig2.png,867070,99999,2,__Ev,93020,19.4,58.7,4,[,19,270,1172,],5,12,20,31,43,[,1,0,],3,336,[,0,8,0,69,226,26,7,],151,204,-15.533,-55.133,750,2017,2020,BR,,CAMPO VERDE,,867070-99999_fig2.png
https://bioclimatic.github.io/predilection/psych/867090-99999_fig2.png,867090,99999,1,__Ac,97533,19.4,56.8,4,[,0,926,2315,],8,15,24,33,48,[,142,0,],4,352,[,0,1,0,41,176,38,96,],304,237,-15.9,-52.25,348,2017,2020,BR,,ARAGARCAS,,867090-99999_fig2.png
https://bioclimatic.github.io/predilection/psych/867120-99999_fig2.png,867120,99999,1,__Ac,95485,19.4,57.6,4,[,0,679,1663,],6,13,22,32,48,[,71,0,],3,347,[,0,0,0,35,228,48,36,],280,207,-15.933,-50.133,514,2017,2020,BR,,GOIAS,,867120-99999_fig2.png
https://bioclimatic.github.io/predilection/psych/867130-99999_fig2.png,867130,99999,1,__Ac,93878,19.4,58.3,4,[,0,630,769,],10,16,25,34,46,[,1,0,],3,340,[,0,0,0,57,203,45,35,],236,176,-15.217,-48.983,668,2018,2020,BR,,GOIANESIA,,867130-99999_fig2.png
https://bioclimatic.github.io/predilection/psych/867140-99999_fig2.png,867140,99999,2,HpEv,90552,19.4,59.8,3,[,19,92,56,],8,13,22,32,38,[,0,0,],3,342,[,0,20,0,227,84,10,1,],55,44,-15.9,-48.117,1154,2017,2019,BR,,FACULDADE DA TERRA,,867140-99999_fig2.png
https://bioclimatic.github.io/predilection/psych/867150-99999_fig2.png,867150,99999,2,HpVt,88767,19.4,60.6,4,[,18,61,10,],12,13,22,31,34,[,0,0,],4,363,[,0,22,0,285,52,4,0,],46,12,-15.783,-47.933,1161,2017,2020,BR,,BRASILIA,,867150-99999_fig2.png
https://bioclimatic.github.io/predilection/psych/867160-99999_fig2.png,867160,99999,2,HpVt,90079,19.4,60,4,[,26,42,47,],7,15,21,32,38,[,0,0,],4,362,[,0,28,0,258,75,1,0,],38,43,-15.6,-47.633,1202,2017,2020,BR,,AGUAS EMENDADAS,,867160-99999_fig2.png
https://bioclimatic.github.io/predilection/psych/867180-99999_fig2.png,867180,99999,2,__Ev,91208,19.4,59.5,4,[,3,163,199,],8,14,22,32,40,[,0,0,],3,345,[,0,6,0,174,146,18,1,],98,91,-15.517,-46.433,896,2018,2020,BR,,BURITIS,,867180-99999_fig2.png
https://bioclimatic.github.io/predilection/psych/867190-99999_fig2.png,867190,99999,2,__Ev,91748,19.4,59.2,4,[,3,211,253,],9,14,22,32,41,[,0,0,],4,360,[,0,4,0,162,175,19,0,],128,102,-15.3,-45.617,882,2017,2020,BR,,CHAPADA GAUCHA,,867190-99999_fig2.png
https://bioclimatic.github.io/predilection/psych/867200-99999_fig2.png,867200,99999,1,__Ac,96267,19.4,57.3,4,[,0,583,1065,],9,14,24,34,47,[,47,0,],4,362,[,0,0,0,90,196,35,41,],251,176,-15.083,-44.017,462,2017,2020,BR,,MOCAMBINHO,,867200-99999_fig2.png
https://bioclimatic.github.io/predilection/psych/867210-99999_fig2.png,867210,99999,2,HpVt,92091,19.4,59.1,4,[,44,49,182,],7,12,20,31,40,[,0,0,],4,359,[,0,43,0,210,104,2,0,],52,72,-15.717,-42.433,854,2017,2020,BR,,RIO PARDO DE MINAS,,867210-99999_fig2.png
https://bioclimatic.github.io/predilection/psych/867220-99999_fig2.png,867220,99999,2,HpVt,93088,19.4,58.6,4,[,63,55,137,],9,13,21,32,40,[,1,0,],3,345,[,0,45,0,207,91,2,0,],55,53,-15.75,-41.45,752,2017,2019,BR,,AGUAS VERMELHAS,,867220-99999_fig2.png
https://bioclimatic.github.io/predilection/psych/867230-99999_fig2.png,867230,99999,2,__Ac,98466,19.4,56.5,4,[,7,349,1203,],8,15,23,33,44,[,50,0,],4,343,[,0,5,0,99,197,1,41,],166,226,-15.25,-40.233,270,2017,2020,BR,,ITAPETINGA,,867230-99999_fig2.png
https://bioclimatic.github.io/predilection/psych/867280-99999_fig2.png,867280,99999,1,__Ac,97907,19.4,56.7,4,[,7,857,2698,],6,13,22,32,49,[,171,4,],4,347,[,0,5,0,49,175,29,89,],277,237,-16.45,-54.567,286,2017,2020,BR,,RONDONOPOLIS,,867280-99999_fig2.png
https://bioclimatic.github.io/predilection/psych/867290-99999_fig2.png,867290,99999,1,__Ac,95391,19.4,57.7,4,[,2,890,2590,],8,13,22,32,47,[,155,0,],4,362,[,0,2,0,35,202,39,84,],314,247,-16.35,-53.767,528,2017,2020,BR,,GUIRATINGA,,867290-99999_fig2.png
https://bioclimatic.github.io/predilection/psych/867300-99999_fig2.png,867300,99999,2,__Ev,93139,19.4,58.6,4,[,7,269,737,],9,14,23,33,43,[,1,0,],3,349,[,0,5,0,105,209,24,6,],158,178,-16.967,-51.817,738,2017,2019,BR,,CAIPONIA,,867300-99999_fig2.png
https://bioclimatic.github.io/predilection/psych/867320-99999_fig2.png,867320,99999,1,__Ac,93757,19.4,58.4,4,[,9,440,1068,],8,14,23,32,44,[,7,0,],4,353,[,0,5,0,85,211,33,19,],208,195,-16.963,-50.425,680,2017,2020,BR,,PARAUNA,,867320-99999_fig2.png
https://bioclimatic.github.io/predilection/psych/867340-99999_fig2.png,867340,99999,1,__Ev,93243,19.4,58.6,4,[,4,320,689,],10,14,23,34,43,[,4,0,],4,363,[,0,3,0,109,218,24,9,],189,173,-16.65,-49.217,772,2017,2020,BR,,GOIANIA,,867340-99999_fig2.png
https://bioclimatic.github.io/predilection/psych/867350-99999_fig2.png,867350,99999,2,HpEv,90909,19.4,59.6,4,[,22,112,246,],8,13,21,32,40,[,0,0,],4,360,[,0,19,0,175,156,10,1,],72,114,-16.683,-48.617,950,2017,2020,BR,,SILVANIA,,867350-99999_fig2.png
https://bioclimatic.github.io/predilection/psych/867360-99999_fig2.png,867360,99999,2,HpEv,90432,19.4,59.8,4,[,10,146,134,],8,14,22,32,39,[,0,0,],3,357,[,0,10,0,192,139,15,1,],92,81,-16.267,-47.967,960,2017,2019,BR,,LUZIANIA,,867360-99999_fig2.png
https://bioclimatic.github.io/predilection/psych/867370-99999_fig2.png,867370,99999,2,HpVt,88250,19.4,60.8,4,[,61,54,6,],13,22,25,32,34,[,0,0,],4,362,[,0,44,1,274,38,5,0,],39,8,-16.783,-47.617,1204,2017,2020,BR,,CRISTALINA,,867370-99999_fig2.png
https://bioclimatic.github.io/predilection/psych/867380-99999_fig2.png,867380,99999,1,__Ev,94216,19.4,58.2,4,[,3,352,919,],6,13,22,33,44,[,3,0,],2,365,[,0,3,0,106,222,25,9,],198,185,-16.55,-46.883,632,2017,2019,BR,,UNAI,,867380-99999_fig2.png
https://bioclimatic.github.io/predilection/psych/867390-99999_fig2.png,867390,99999,1,__Ac,95865,19.4,57.5,4,[,1,568,1492,],5,11,22,34,47,[,125,0,],3,362,[,0,2,0,95,197,25,43,],244,196,-16.367,-45.117,462,2017,2019,BR,,SAO ROMAO,,867390-99999_fig2.png
https://bioclimatic.github.io/predilection/psych/867400-99999_fig2.png,867400,99999,1,__Ac,94218,19.4,58.2,4,[,0,394,441,],10,15,24,34,44,[,2,0,],4,363,[,0,2,0,133,182,35,11,],200,114,-16.717,-43.867,648,2017,2020,BR,,MONTES CLAROS,,867400-99999_fig2.png
https://bioclimatic.github.io/predilection/psych/867410-99999_fig2.png,867410,99999,1,__Ac,95973,19.4,57.4,4,[,0,513,704,],9,15,24,35,46,[,24,0,],4,362,[,0,1,0,118,179,34,31,],221,147,-16.167,-42.317,496,2017,2020,BR,,SALINAS,,867410-99999_fig2.png
https://bioclimatic.github.io/predilection/psych/867420-99999_fig2.png,867420,99999,1,__Ac,98429,19.4,56.5,4,[,0,777,1265,],9,16,27,36,47,[,88,0,],3,345,[,0,0,0,70,155,18,102,],263,212,-16.583,-41.483,268,2017,2019,BR,,ITAOBIM,,867420-99999_fig2.png
https://bioclimatic.github.io/predilection/psych/867430-99999_fig2.png,867430,99999,1,__Ac,99423,19.4,56.1,4,[,0,815,2027,],6,16,25,33,45,[,86,1,],3,355,[,0,0,0,69,168,1,117,],251,264,-16.167,-40.683,210,2017,2019,BR,,ALMENARA,,867430-99999_fig2.png
https://bioclimatic.github.io/predilection/psych/867440-99999_fig2.png,867440,99999,2,__Ac,100563,19.4,55.7,4,[,0,192,2346,],2,10,18,28,36,[,45,0,],3,354,[,0,1,0,62,277,0,14,],152,291,-16.083,-39.217,90,2017,2020,BR,,BELMONTE,,867440-99999_fig2.png
https://bioclimatic.github.io/predilection/psych/867450-99999_fig2.png,867450,99999,2,__Ac,100613,19.4,55.7,4,[,0,222,2476,],3,11,18,27,34,[,36,0,],3,343,[,0,1,0,47,280,0,15,],159,296,-16.383,-39.183,86,2017,2019,BR,,PORTO SEGURO,,867450-99999_fig2.png
https://bioclimatic.github.io/predilection/psych/867480-99999_fig2.png,867480,99999,2,__Ac,94281,19.4,58.1,3,[,19,446,1859,],5,12,20,31,45,[,49,0,],3,337,[,0,9,0,45,229,28,26,],218,220,-17.183,-54.5,586,2017,2019,BR,,ITIQUIRA,,867480-99999_fig2.png
https://bioclimatic.github.io/predilection/psych/867500-99999_fig2.png,867500,99999,2,HpVt,91774,19.4,59.2,4,[,36,119,605,],5,12,20,32,42,[,0,0,],3,362,[,0,16,0,135,201,9,1,],88,161,-17.817,-53.283,876,2017,2020,BR,,ALTO TAQUARI,,867500-99999_fig2.png
https://bioclimatic.github.io/predilection/psych/867510-99999_fig2.png,867510,99999,2,HpEv,91765,19.4,59.2,4,[,25,209,758,],7,12,21,32,43,[,0,0,],2,365,[,0,10,0,109,221,24,1,],127,183,-17.567,-52.6,708,2019,2020,BR,,MINEIROS,,867510-99999_fig2.png
https://bioclimatic.github.io/predilection/psych/867520-99999_fig2.png,867520,99999,2,HpEv,93866,19.4,58.3,4,[,22,284,1127,],3,12,22,32,43,[,12,0,],3,355,[,0,11,0,101,216,18,9,],172,190,-17.917,-51.717,584,2017,2020,BR,,JATAI,,867520-99999_fig2.png
https://bioclimatic.github.io/predilection/psych/867530-99999_fig2.png,867530,99999,2,__Ev,92757,19.4,58.8,4,[,18,197,545,],8,13,22,33,44,[,0,0,],3,346,[,0,9,0,120,197,17,3,],119,159,-17.783,-50.967,784,2017,2019,BR,,RIO VERDE,,867530-99999_fig2.png
https://bioclimatic.github.io/predilection/psych/867550-99999_fig2.png,867550,99999,2,HpEv,93017,19.4,58.7,4,[,28,209,659,],7,13,22,33,42,[,2,0,],4,362,[,0,17,0,128,199,16,2,],139,164,-17.717,-49.1,773,2017,2020,BR,,MORRINHOS,,867550-99999_fig2.png
https://bioclimatic.github.io/predilection/psych/867560-99999_fig2.png,867560,99999,2,__Ev,93014,19.4,58.7,4,[,10,286,738,],8,13,22,33,43,[,2,0,],4,363,[,0,7,0,112,216,21,7,],170,172,-17.3,-48.283,754,2017,2020,BR,,PIRES DO RIO,,867560-99999_fig2.png
https://bioclimatic.github.io/predilection/psych/867570-99999_fig2.png,867570,99999,2,HpVt,90523,19.4,59.8,4,[,44,77,236,],6,12,20,31,39,[,0,0,],4,355,[,0,32,0,180,136,7,0,],59,102,-17.567,-47.2,1002,2017,2020,BR,,GUARDA-MOR,,867570-99999_fig2.png
https://bioclimatic.github.io/predilection/psych/867580-99999_fig2.png,867580,99999,2,HpEv,91750,19.4,59.2,4,[,13,187,151,],10,18,24,32,39,[,0,0,],4,359,[,0,12,0,192,137,16,2,],109,74,-17.783,-46.117,872,2017,2020,BR,,JOAO PINHEIRO,,867580-99999_fig2.png
https://bioclimatic.github.io/predilection/psych/867590-99999_fig2.png,867590,99999,2,__Ac,95746,19.4,57.5,4,[,4,467,998,],9,15,24,34,46,[,37,0,],4,343,[,0,4,0,104,180,21,34,],211,173,-17.25,-44.833,504,2017,2020,BR,,PIRAPORA,,867590-99999_fig2.png
https://bioclimatic.github.io/predilection/psych/867610-99999_fig2.png,867610,99999,2,HpVt,91221,19.4,59.5,2,[,146,26,145,],7,14,22,32,38,[,0,0,],2,360,[,0,91,0,199,67,2,1,],20,58,-17.7,-42.383,934,2017,2020,BR,,CAPELINHA,,867610-99999_fig2.png
https://bioclimatic.github.io/predilection/psych/867620-99999_fig2.png,867620,99999,2,HpAc,96292,19.4,57.3,4,[,7,232,865,],9,14,23,32,44,[,19,0,],3,351,[,0,10,0,146,181,1,13,],143,171,-17.9,-41.517,476,2017,2020,BR,,TEOFILO OTONI,,867620-99999_fig2.png
https://bioclimatic.github.io/predilection/psych/867630-99999_fig2.png,867630,99999,2,__Ac,99194,19.4,56.2,4,[,2,299,1698,],7,13,22,31,41,[,52,0,],4,346,[,0,3,0,97,221,0,25,],165,244,-17.8,-40.25,210,2017,2020,BR,,SERRA DOS AIMORES,,867630-99999_fig2.png
https://bioclimatic.github.io/predilection/psych/867640-99999_fig2.png,867640,99999,2,__Ac,101536,19.4,55.3,4,[,0,457,3446,],4,12,19,26,33,[,75,0,],2,335,[,0,0,0,21,250,0,64,],210,314,-17.733,-39.25,4,2018,2019,BR,,CARAVELAS,,867640-99999_fig2.png
https://bioclimatic.github.io/predilection/psych/867650-99999_fig2.png,867650,99999,2,__Ac,101404,19.4,55.4,3,[,0,529,3292,],9,17,20,23,35,[,15,0,],3,321,[,0,0,0,15,223,1,82,],279,268,-17.967,-38.7,26,2017,2020,BR,,ABROLHOS,,867650-99999_fig2.png
https://bioclimatic.github.io/predilection/psych/867670-99999_fig2.png,867670,99999,1,HpAc,99787,19.4,56,4,[,35,1249,2805,],0,17,25,34,49,[,165,13,],2,348,[,0,17,0,38,88,21,184,],287,248,-19,-57.633,128,2019,2020,BR,,CORUMBA,,867670-99999_fig2.png
https://bioclimatic.github.io/predilection/psych/867680-99999_fig2.png,867680,99999,1,HpAc,100053,19.4,55.9,4,[,47,1014,3862,],1,12,21,31,47,[,213,13,],2,364,[,0,14,0,54,117,3,176,],276,277,-18.983,-56.617,106,2017,2019,BR,,NHUMIRIM,,867680-99999_fig2.png
https://bioclimatic.github.io/predilection/psych/867700-99999_fig2.png,867700,99999,1,__Ac,98326,19.4,56.5,3,[,20,1064,2655,],6,13,23,33,52,[,172,2,],2,342,[,0,9,0,59,133,25,115,],261,230,-18.517,-54.733,254,2019,2020,BR,,COXIM,,867700-99999_fig2.png
https://bioclimatic.github.io/predilection/psych/867720-99999_fig2.png,867720,99999,2,HpEv,92316,19.4,59,4,[,39,208,564,],7,14,23,32,41,[,0,0,],2,359,[,0,16,0,121,201,19,2,],127,172,-18.8,-52.6,820,2018,2019,BR,,CHAPADAO DO SUL,,867720-99999_fig2.png
https://bioclimatic.github.io/predilection/psych/867730-99999_fig2.png,867730,99999,1,__Ac,95787,19.4,57.5,4,[,13,783,1567,],6,14,24,33,48,[,66,0,],4,341,[,0,6,0,67,164,37,68,],248,199,-18.967,-50.633,490,2017,2020,BR,,SAO SIMAO,,867730-99999_fig2.png
https://bioclimatic.github.io/predilection/psych/867740-99999_fig2.png,867740,99999,1,__Ac,95782,19.4,57.5,4,[,11,528,1490,],8,14,23,33,47,[,49,0,],4,362,[,0,7,0,98,194,23,40,],232,207,-18.417,-49.2,490,2017,2020,BR,,ITUMBIARA,,867740-99999_fig2.png
https://bioclimatic.github.io/predilection/psych/867750-99999_fig2.png,867750,99999,1,HpAc,95320,19.4,57.7,4,[,22,449,1456,],6,12,22,33,46,[,56,0,],3,362,[,0,11,0,101,198,30,22,],213,205,-18.95,-49.533,562,2017,2019,BR,,ITUIUTABA,,867750-99999_fig2.png
https://bioclimatic.github.io/predilection/psych/867760-99999_fig2.png,867760,99999,2,__Ev,91745,19.4,59.2,4,[,13,244,282,],9,15,24,33,41,[,0,0,],4,342,[,0,7,1,146,165,19,3,],135,108,-18.917,-48.25,870,2017,2020,BR,,UBERLANDIA,,867760-99999_fig2.png
https://bioclimatic.github.io/predilection/psych/867770-99999_fig2.png,867770,99999,2,__Ev,91486,19.4,59.3,4,[,10,232,293,],9,14,23,32,40,[,0,0,],4,349,[,0,8,0,148,168,23,2,],129,110,-18.15,-47.933,892,2017,2020,BR,,CATALAO,,867770-99999_fig2.png
https://bioclimatic.github.io/predilection/psych/867780-99999_fig2.png,867780,99999,2,HpVt,90690,19.4,59.7,4,[,99,22,228,],4,11,19,31,39,[,0,0,],3,351,[,0,66,0,171,113,1,0,],24,98,-19,-46.983,964,2018,2020,BR,,PATROCINIO,,867780-99999_fig2.png
https://bioclimatic.github.io/predilection/psych/867790-99999_fig2.png,867790,99999,2,HpVt,91240,19.4,59.5,4,[,23,130,143,],10,14,23,32,39,[,0,0,],3,359,[,0,21,0,194,136,8,0,],93,76,-18.2,-45.467,922,2017,2019,BR,,TRES MARIAS,,867790-99999_fig2.png
https://bioclimatic.github.io/predilection/psych/867800-99999_fig2.png,867800,99999,2,HpAc,93996,19.4,58.3,4,[,18,293,578,],8,14,23,33,44,[,5,0,],4,351,[,0,16,0,130,172,18,16,],155,136,-18.75,-44.45,672,2017,2020,BR,,CURVELO,,867800-99999_fig2.png
https://bioclimatic.github.io/predilection/psych/867810-99999_fig2.png,867810,99999,3,Hp__,86849,19.4,61.5,4,[,324,5,0,],7,NaN,22,30,30,[,0,0,],4,359,[,0,147,0,206,6,0,0,],5,1,-18.233,-43.65,1358,2017,2020,BR,,DIAMANTINA,,867810-99999_fig2.png
https://bioclimatic.github.io/predilection/psych/867820-99999_fig2.png,867820,99999,3,HpVt,92015,19.4,59.1,4,[,130,61,233,],6,13,22,32,42,[,1,0,],4,316,[,0,65,0,155,90,1,5,],41,79,-18.783,-42.95,862,2017,2020,BR,,GUANHAES,,867820-99999_fig2.png
https://bioclimatic.github.io/predilection/psych/867830-99999_fig2.png,867830,99999,1,__Ac,99180,19.4,56.2,4,[,4,496,1736,],7,14,23,32,45,[,70,0,],3,358,[,0,6,0,106,182,4,60,],204,226,-18.783,-41.983,264,2017,2020,BR,,GOVERNADOR VALADARES,,867830-99999_fig2.png
https://bioclimatic.github.io/predilection/psych/867840-99999_fig2.png,867840,99999,2,__Ac,98600,19.4,56.4,4,[,4,370,1247,],8,16,24,33,43,[,35,0,],4,347,[,0,6,0,128,172,1,41,],170,201,-18.783,-40.983,272,2017,2020,BR,,MANTENA,,867840-99999_fig2.png
https://bioclimatic.github.io/predilection/psych/867850-99999_fig2.png,867850,99999,1,__Ac,99822,19.4,55.9,4,[,1,506,2052,],7,15,23,32,41,[,89,2,],4,352,[,0,2,0,100,183,1,66,],190,248,-18.7,-40.383,156,2017,2020,BR,,NOVA VENECIA,,867850-99999_fig2.png
https://bioclimatic.github.io/predilection/psych/867860-99999_fig2.png,867860,99999,2,__Ac,101184,19.4,55.4,3,[,0,341,3111,],2,10,18,27,34,[,95,2,],3,352,[,0,1,0,47,254,0,49,],183,303,-18.717,-39.85,40,2017,2020,BR,,SAO MATEUS,,867860-99999_fig2.png
https://bioclimatic.github.io/predilection/psych/867890-99999_fig2.png,867890,99999,2,HpAc,94028,19.4,58.2,4,[,59,275,1152,],5,12,21,31,45,[,14,0,],4,347,[,0,22,0,96,203,14,12,],153,182,-19.417,-54.55,648,2017,2020,BR,,SAO GABRIEL DO OESTE,,867890-99999_fig2.png
https://bioclimatic.github.io/predilection/psych/867910-99999_fig2.png,867910,99999,1,HpAc,95753,19.4,57.5,4,[,22,514,1463,],7,14,23,33,48,[,68,0,],3,350,[,0,10,0,86,192,21,41,],229,191,-19.117,-51.717,518,2017,2020,BR,,CASSILANDIA,,867910-99999_fig2.png
