URL,WMOstn,WBANo,Acz,HVAC,meanPa,WBref,hBASE,dpy,[,avHDD,avCDD,avChD,],low,min,ave,max,best,[,WsD,YsD,],yrs,dys,[,Icy,Hea,Hum,Pas,Vtn,EvC,DX,],24Cd,67Fd,latitude,longitude,elev,base,stop,CC,ST,Placename,,psychrometric_chart_image
https://bioclimatic.github.io/predilection/psych/915500-99999_fig2.png,915500,99999,3,__Ev,101265,19.4,55.4,6,[,0,94,0,],0,0,0,0,0,[,0,0,],21,30,[,0,0,0,0,16,14,0,],30,7,-13.317,166.617,5,1992,1993,NH,,LINUA AIRPORT AWS (TORRES IS.,,915500-99999_fig2.png
https://bioclimatic.github.io/predilection/psych/915510-99999_fig2.png,915510,99999,1,__Ac,101110,19.4,55.5,34,[,0,983,6755,],0,9,16,21,31,[,189,3,],26,351,[,0,0,0,0,93,0,258,],347,351,-13.85,167.55,18,1987,2020,NH,,SOLA/VANUA LAVA ISL,,915510-99999_fig2.png
https://bioclimatic.github.io/predilection/psych/915515-99999_fig2.png,915515,99999,1,__Ac,100714,19.4,55.6,10,[,0,1048,6536,],0,7,16,21,32,[,177,2,],6,326,[,0,0,0,0,82,0,244,],325,326,-15.3,167.967,51,2012,2017,NH,,LONGANA AIRPORT,,915515-99999_fig2.png
https://bioclimatic.github.io/predilection/psych/915540-99999_fig2.png,915540,99999,1,__Ac,100800,19.4,55.6,34,[,0,764,5466,],0,9,17,23,33,[,127,0,],32,355,[,0,0,0,6,171,0,178,],330,348,-15.501,167.223,56,1987,2020,NH,,SANTO PEKOA INTL,,915540-99999_fig2.png
https://bioclimatic.github.io/predilection/psych/915550-99999_fig2.png,915550,99999,1,__Ac,101003,19.4,55.5,33,[,0,825,5677,],1,10,17,22,33,[,147,4,],25,350,[,0,0,0,8,154,0,188,],322,341,-16.417,167.8,26,1987,2018,NH,,LAMAP/MALEKOULA ISL,,915550-99999_fig2.png
https://bioclimatic.github.io/predilection/psych/915570-99999_fig2.png,915570,99999,1,__Ac,101070,19.4,55.5,34,[,0,423,4036,],0,8,16,24,33,[,104,1,],34,358,[,0,1,0,46,204,0,107,],220,311,-17.699,168.32,21,1987,2020,NH,,PORT VILA BAUERFIELD,,915570-99999_fig2.png
https://bioclimatic.github.io/predilection/psych/915590-99999_fig2.png,915590,99999,1,____,101325,19.4,55.4,0,[,0,543,NaN,],NaN,NaN,NaN,NaN,NaN,[,NaN,NaN,],6,364,[,NaN,0,NaN,0,364,NaN,NaN,],278,364,-17.757,168.3,0,2006,2011,NH,,POINT VITA/NTF/AWS,,915590-99999_fig2.png
https://bioclimatic.github.io/predilection/psych/915650-99999_fig2.png,915650,99999,1,__Ac,101234,19.4,55.4,33,[,0,472,3551,],0,8,17,24,33,[,74,1,],28,354,[,0,0,0,63,195,0,96,],217,290,-19.455,169.224,6,1987,2020,NH,,TANNA,,915650-99999_fig2.png
https://bioclimatic.github.io/predilection/psych/915680-99999_fig2.png,915680,99999,1,__Ac,101240,19.4,55.4,34,[,0,406,3421,],0,9,17,23,33,[,59,1,],30,354,[,0,0,0,70,197,0,87,],203,282,-20.233,169.767,7,1987,2020,NH,,ANEITYUM,,915680-99999_fig2.png
