URL,WMOstn,WBANo,Acz,HVAC,meanPa,WBref,hBASE,dpy,[,avHDD,avCDD,avChD,],low,min,ave,max,best,[,WsD,YsD,],yrs,dys,[,Icy,Hea,Hum,Pas,Vtn,EvC,DX,],24Cd,67Fd,latitude,longitude,elev,base,stop,CC,ST,Placename,,psychrometric_chart_image
https://bioclimatic.github.io/predilection/psych/286760-99999_fig2.png,286760,99999,7,GsVt,100209,19.4,55.8,14,[,5398,21,10,],6,9,26,32,35,[,0,0,],15,339,[,153,124,0,47,12,1,1,],13,4,54.83,69.15,142,2006,2020,KZ,,PETROPAVLOVSK,,286760-99999_fig2.png
https://bioclimatic.github.io/predilection/psych/286790-99999_fig2.png,286790,99999,7,GsVt,100071,19.4,55.9,19,[,5139,14,13,],6,4,23,30,33,[,0,0,],22,313,[,152,113,0,38,9,1,1,],10,5,54.833,69.15,136,1987,2008,KZ,,PETROPAVLOVSK,,286790-99999_fig2.png
https://bioclimatic.github.io/predilection/psych/286870-99999_fig2.png,286870,99999,3,Hp__,100099,19.4,55.8,3,[,328,1,0,],0,0,1,1,1,[,0,0,],33,22,[,9,10,0,3,1,0,0,],1,0,54.9,70.45,134,2019,2020,KZ,,BULAJEVO,,286870-99999_fig2.png
https://bioclimatic.github.io/predilection/psych/287640-99999_fig2.png,287640,99999,3,Gs__,99795,19.4,56,3,[,335,2,0,],1,0,2,2,2,[,0,0,],33,22,[,10,8,0,3,1,0,0,],1,0,54.483,65.767,158,2019,2020,KZ,,PRESNOGORKOVKA,,287640-99999_fig2.png
https://bioclimatic.github.io/predilection/psych/287660-99999_fig2.png,287660,99999,7,GsVt,99879,19.4,55.9,34,[,5908,15,4,],7,17,27,36,38,[,0,0,],32,363,[,170,134,0,49,9,1,0,],9,2,54.367,66.967,151,1987,2020,KZ,,BLAGOVESHCHENKA,,287660-99999_fig2.png
https://bioclimatic.github.io/predilection/psych/287751-99999_fig2.png,287751,99999,7,GsVt,100385,19.4,55.7,2,[,5330,19,6,],0,NaN,27,36,39,[,0,0,],2,362,[,158,146,0,44,12,1,0,],14,2,54.4,68.4,115,2019,2020,KZ,,JAVLENKA,,287751-99999_fig2.png
https://bioclimatic.github.io/predilection/psych/287850-99999_fig2.png,287850,99999,7,Gs__,99809,19.4,55.9,9,[,5377,21,4,],12,NaN,28,37,39,[,1,0,],3,327,[,160,120,0,37,6,3,0,],9,3,54.433,70.917,127,1988,1990,KZ,,VOZVISHEN SOVKHOZ,,287850-99999_fig2.png
https://bioclimatic.github.io/predilection/psych/288430-99999_fig2.png,288430,99999,3,Hp__,99659,19.4,56,3,[,316,3,0,],1,0,1,1,1,[,0,0,],33,22,[,8,9,0,3,1,0,0,],1,0,53.75,62.033,187,2019,2020,KZ,,KOMSOMOLEC,,288430-99999_fig2.png
https://bioclimatic.github.io/predilection/psych/288630-99999_fig2.png,288630,99999,3,Gs__,99949,19.4,55.9,3,[,325,2,1,],0,0,1,1,1,[,0,0,],33,22,[,10,8,0,3,1,0,0,],1,0,53.767,67.383,137,2019,2020,KZ,,MARYEVKA,,288630-99999_fig2.png
https://bioclimatic.github.io/predilection/psych/288670-99999_fig2.png,288670,99999,7,GsVt,99293,19.4,56.1,34,[,5646,22,1,],6,NaN,32,39,41,[,0,0,],32,357,[,160,132,0,52,11,2,0,],13,1,53.317,65.55,216,1987,2020,KZ,,SARYKOL,,288670-99999_fig2.png
https://bioclimatic.github.io/predilection/psych/288730-99999_fig2.png,288730,99999,3,Hp__,99918,19.4,55.9,3,[,319,1,0,],0,0,0,0,0,[,0,0,],33,22,[,9,9,0,3,1,0,0,],1,0,53.833,69.783,153,2019,2020,KZ,,KRASNOARMEJSK,,288730-99999_fig2.png
https://bioclimatic.github.io/predilection/psych/288770-99999_fig2.png,288770,99999,7,Gs__,97873,19.4,56.7,8,[,5902,13,5,],4,21,31,37,39,[,0,0,],8,357,[,171,134,0,43,8,0,0,],9,2,53.317,68.1,319,1987,1994,KZ,,VOLODARSKOE,,288770-99999_fig2.png
https://bioclimatic.github.io/predilection/psych/288790-99999_fig2.png,288790,99999,7,GsVt,99061,19.4,56.2,34,[,5481,18,2,],8,NaN,29,36,38,[,0,0,],31,356,[,147,148,0,50,10,2,0,],11,1,53.283,69.383,229,1987,2020,KZ,,KOKSHETAY,,288790-99999_fig2.png
https://bioclimatic.github.io/predilection/psych/288841-99999_fig2.png,288841,99999,7,GsVt,99836,19.4,55.9,2,[,5188,27,0,],14,NaN,39,45,45,[,0,0,],2,364,[,140,161,0,48,13,2,0,],16,0,53.6,70.5,165,2019,2020,KZ,,CHKALOVO,,288841-99999_fig2.png
https://bioclimatic.github.io/predilection/psych/288860-99999_fig2.png,288860,99999,7,GsVt,99858,19.4,55.9,10,[,5356,30,6,],13,14,27,35,37,[,0,0,],4,318,[,163,97,0,44,10,3,1,],13,2,53.633,72.367,138,1987,1990,KZ,,KZIL-TUS SOVKHOZ,,288860-99999_fig2.png
https://bioclimatic.github.io/predilection/psych/289480-99999_fig2.png,289480,99999,3,Hp__,98749,19.4,56.3,3,[,321,4,0,],0,0,0,0,0,[,0,0,],33,22,[,9,9,0,3,1,1,0,],1,0,52.717,61.167,260,2019,2020,KZ,,GEORGIYEVKA,,289480-99999_fig2.png
https://bioclimatic.github.io/predilection/psych/289520-99999_fig2.png,289520,99999,7,GsVt,99462,19.4,56.1,32,[,5587,34,4,],8,16,29,38,40,[,0,0,],31,362,[,165,127,0,54,13,3,1,],17,2,53.217,63.617,170,1987,2020,KZ,,KOSTANAY,,289520-99999_fig2.png
https://bioclimatic.github.io/predilection/psych/289570-99999_fig2.png,289570,99999,7,GsVt,98851,19.4,56.3,8,[,5611,29,1,],7,NaN,33,39,39,[,0,0,],7,345,[,165,117,1,48,11,3,0,],15,1,52.683,62.6,208,1987,1994,KZ,,TOBOL,,289570-99999_fig2.png
https://bioclimatic.github.io/predilection/psych/289660-99999_fig2.png,289660,99999,7,GsVt,99137,19.4,56.2,34,[,5728,20,2,],5,NaN,29,38,39,[,0,0,],33,359,[,159,139,0,50,9,2,0,],11,1,52.817,66.967,227,1987,2020,KZ,,RUZAEVKA,,289660-99999_fig2.png
https://bioclimatic.github.io/predilection/psych/289780-99999_fig2.png,289780,99999,7,Gs__,97107,19.4,57,34,[,5985,6,0,],0,NaN,NaN,NaN,NaN,[,0,0,],34,357,[,166,145,0,42,4,0,0,],4,0,52.533,68.75,398,1987,2020,KZ,,BALKASINO,,289780-99999_fig2.png
https://bioclimatic.github.io/predilection/psych/289840-99999_fig2.png,289840,99999,7,Gs__,97134,19.4,57,34,[,5918,8,0,],2,NaN,27,35,35,[,0,0,],29,358,[,161,149,0,42,5,0,0,],6,0,52.95,70.217,395,1987,2020,KZ,,SUCINSK,,289840-99999_fig2.png
https://bioclimatic.github.io/predilection/psych/289860-99999_fig2.png,289860,99999,7,GsVt,98993,19.4,56.3,4,[,5196,22,0,],0,NaN,NaN,NaN,NaN,[,0,0,],1,319,[,141,114,1,51,10,2,0,],12,0,52.967,71.933,196,1988,1988,KZ,,ZOLOTAJA NIVA,,289860-99999_fig2.png
https://bioclimatic.github.io/predilection/psych/289930-99999_fig2.png,289930,99999,3,Gs__,100392,19.4,55.7,6,[,539,3,0,],1,0,1,2,2,[,0,0,],30,35,[,16,12,0,5,1,0,0,],2,0,53.15,74.2,126,1988,2020,KZ,,GOLUBOVKA,,289930-99999_fig2.png
https://bioclimatic.github.io/predilection/psych/298020-99999_fig2.png,298020,99999,5,Gs__,100486,19.4,55.7,20,[,3374,11,1,],3,0,10,13,14,[,0,0,],33,208,[,95,75,0,30,6,1,0,],7,1,53.817,76.533,114,2002,2020,KZ,,MIKHAILOVKA,,298020-99999_fig2.png
https://bioclimatic.github.io/predilection/psych/298070-99999_fig2.png,298070,99999,7,GsVt,100708,19.4,55.6,34,[,5785,26,1,],5,NaN,31,38,40,[,0,0,],34,363,[,158,135,0,54,13,2,0,],16,1,53.35,75.45,94,1987,2020,KZ,,ERTIS,,298070-99999_fig2.png
https://bioclimatic.github.io/predilection/psych/299060-99999_fig2.png,299060,99999,3,Hp__,100535,19.4,55.7,3,[,313,2,0,],0,0,0,0,0,[,0,0,],33,22,[,8,9,0,4,1,0,0,],1,0,52.917,77.417,112,2019,2020,KZ,,USPENKA,,299060-99999_fig2.png
https://bioclimatic.github.io/predilection/psych/343850-99999_fig2.png,343850,99999,6,GsEv,101109,19.4,55.5,4,[,4341,139,9,],13,NaN,31,40,44,[,0,0,],1,320,[,146,89,0,36,31,16,2,],49,5,49.767,47.75,18,1988,1988,KZ,,ASCE UZJAK,,343850-99999_fig2.png
https://bioclimatic.github.io/predilection/psych/343940-99999_fig2.png,343940,99999,3,Hp__,101613,19.4,55.3,0,[,215,8,0,],0,0,0,0,0,[,0,0,],31,20,[,0,15,0,1,4,0,0,],3,4,49.783,48.533,13,2019,2020,KZ,,DZHAMBALA SOUTH,,343940-99999_fig2.png
https://bioclimatic.github.io/predilection/psych/343980-99999_fig2.png,343980,99999,5,GsEv,101793,19.4,55.2,27,[,3703,149,11,],15,11,30,36,38,[,4,0,],23,313,[,120,101,0,47,23,19,3,],45,5,49.667,49.483,10,1987,2020,KZ,,ZHALPAKTAL,,343980-99999_fig2.png
https://bioclimatic.github.io/predilection/psych/344731-99999_fig2.png,344731,99999,5,GsEv,101531,19.4,55.3,2,[,3811,155,1,],13,NaN,34,44,48,[,1,0,],2,363,[,121,138,0,56,26,21,0,],48,1,49.4,46.8,28,2019,2020,KZ,,JANIBEK,,344731-99999_fig2.png
https://bioclimatic.github.io/predilection/psych/345810-99999_fig2.png,345810,99999,5,GsEv,101404,19.4,55.4,10,[,3771,101,4,],19,NaN,32,40,44,[,1,0,],3,322,[,118,117,1,50,23,11,2,],37,5,48.767,47.433,4,1987,1990,KZ,,URDA,,345810-99999_fig2.png
https://bioclimatic.github.io/predilection/psych/346910-99999_fig2.png,346910,99999,5,GsEv,101921,19.4,55.2,34,[,3763,231,13,],19,27,38,44,48,[,6,0,],34,359,[,110,131,0,54,31,29,5,],64,6,47.9,48.8,-10,1987,2020,KZ,,NOVYJ USHTOGAN,,346910-99999_fig2.png
https://bioclimatic.github.io/predilection/psych/347980-99999_fig2.png,347980,99999,5,GsAc,102203,19.4,55.1,28,[,3063,153,80,],12,17,28,35,39,[,8,0,],25,311,[,98,110,0,49,31,9,13,],54,18,46.6,49.267,-23,1987,2020,KZ,,GANJUSHKINO,,347980-99999_fig2.png
https://bioclimatic.github.io/predilection/psych/350420-99999_fig2.png,350420,99999,7,GsVt,98155,19.4,56.6,10,[,5135,34,1,],4,NaN,24,34,34,[,0,0,],4,320,[,146,113,0,46,10,5,0,],15,1,52.3,61.317,279,1987,1990,KZ,,ZABELOVKA,,350420-99999_fig2.png
https://bioclimatic.github.io/predilection/psych/350530-99999_fig2.png,350530,99999,7,GsVt,100129,19.4,55.8,7,[,5328,48,3,],9,22,30,39,44,[,0,0,],3,329,[,155,105,0,49,14,4,1,],21,4,52.467,64.667,110,1987,1990,KZ,,KUSMURUN,,350530-99999_fig2.png
https://bioclimatic.github.io/predilection/psych/350670-99999_fig2.png,350670,99999,7,GsVt,99196,19.4,56.2,34,[,5597,33,1,],5,NaN,29,38,39,[,0,0,],33,361,[,160,129,0,55,13,4,0,],17,0,51.883,66.333,221,1987,2020,KZ,,ESIL',,350670-99999_fig2.png
https://bioclimatic.github.io/predilection/psych/350675-99999_fig2.png,350675,99999,7,Gs__,97934,19.4,56.7,13,[,5572,12,1,],2,NaN,27,38,40,[,0,0,],13,362,[,143,148,0,62,8,1,0,],9,1,50.037,82.494,286,2008,2020,KZ,,UST KAMENOGORSK,,350675-99999_fig2.png
https://bioclimatic.github.io/predilection/psych/350780-99999_fig2.png,350780,99999,7,GsVt,98294,19.4,56.5,34,[,5847,20,0,],1,NaN,27,36,36,[,0,0,],34,358,[,170,125,1,51,10,2,0,],12,0,51.817,68.367,304,1987,2020,KZ,,ATBASAR,,350780-99999_fig2.png
https://bioclimatic.github.io/predilection/psych/350850-99999_fig2.png,350850,99999,7,Gs__,97328,19.4,56.9,34,[,5804,11,0,],2,NaN,31,40,40,[,0,0,],33,359,[,162,141,0,48,7,1,0,],8,0,52,70.95,384,1987,2020,KZ,,AKKOL',,350850-99999_fig2.png
https://bioclimatic.github.io/predilection/psych/350920-99999_fig2.png,350920,99999,6,GsVt,99817,19.4,55.9,3,[,4910,32,3,],7,NaN,26,33,35,[,0,0,],2,337,[,100,164,14,22,32,5,0,],18,40,52.5,73.1,168,2015,2020,KZ,,BESTOBE,,350920-99999_fig2.png
https://bioclimatic.github.io/predilection/psych/351060-99999_fig2.png,351060,99999,3,Hp__,101354,19.4,55.4,3,[,265,5,1,],1,1,2,3,3,[,0,0,],33,22,[,8,8,0,4,1,0,0,],2,0,51.4,51.95,38,2019,2020,KZ,,SHARAKKOP,,351060-99999_fig2.png
https://bioclimatic.github.io/predilection/psych/351070-99999_fig2.png,351070,99999,3,Hp__,100960,19.4,55.5,3,[,273,4,0,],1,0,1,1,2,[,0,0,],33,22,[,9,8,0,4,1,0,0,],2,0,51.117,50.317,72,2019,2020,KZ,,KAMEMKA,,351070-99999_fig2.png
https://bioclimatic.github.io/predilection/psych/351080-99999_fig2.png,351080,99999,6,GsEv,100879,19.4,55.6,34,[,4742,80,12,],10,15,31,39,43,[,2,0,],34,361,[,153,119,0,58,20,8,2,],31,5,51.151,51.543,38,1987,2020,KZ,,URALSK,,351080-99999_fig2.png
https://bioclimatic.github.io/predilection/psych/351171-99999_fig2.png,351171,99999,6,GsEv,101163,19.4,55.5,1,[,4266,135,6,],29,NaN,41,47,48,[,9,0,],1,366,[,129,151,0,51,18,14,3,],36,3,51.16,52.998,63,2020,2020,KZ,,AKSAI,,351171-99999_fig2.png
https://bioclimatic.github.io/predilection/psych/351180-99999_fig2.png,351180,99999,3,Hp__,100758,19.4,55.6,3,[,273,7,0,],0,0,0,0,0,[,0,0,],33,22,[,8,9,0,3,1,1,0,],2,0,51.033,54.1,105,2019,2020,KZ,,CINGIRLAU,,351180-99999_fig2.png
https://bioclimatic.github.io/predilection/psych/351570-99999_fig2.png,351570,99999,7,GsVt,98578,19.4,56.4,11,[,5138,54,2,],5,NaN,35,43,45,[,1,0,],4,327,[,149,105,0,51,15,7,1,],23,1,51.083,62.7,230,1987,1990,KZ,,ARALKOL',,351570-99999_fig2.png
https://bioclimatic.github.io/predilection/psych/351670-99999_fig2.png,351670,99999,6,GsVt,99002,19.4,56.3,5,[,4837,38,2,],3,NaN,23,34,34,[,0,0,],4,330,[,117,149,18,27,15,5,0,],21,11,51.083,66.3,243,2015,2020,KZ,,DERZHAVINSK,,351670-99999_fig2.png
https://bioclimatic.github.io/predilection/psych/351730-99999_fig2.png,351730,99999,7,GsVt,98285,19.4,56.5,34,[,5633,28,0,],2,NaN,31,38,38,[,0,0,],34,356,[,157,133,0,51,12,3,0,],15,0,51.617,69.8,305,1987,2020,KZ,,ZHALTYR,,351730-99999_fig2.png
https://bioclimatic.github.io/predilection/psych/351880-99999_fig2.png,351880,99999,7,GsVt,97196,19.4,57,34,[,5652,22,0,],4,NaN,30,38,38,[,0,0,],33,363,[,162,133,0,54,11,2,0,],13,0,51.022,71.467,355,1987,2020,KZ,,ASTANA INTL,,351880-99999_fig2.png
https://bioclimatic.github.io/predilection/psych/351910-99999_fig2.png,351910,99999,7,Gs__,96741,19.4,57.1,9,[,5112,18,0,],6,NaN,36,41,41,[,0,0,],3,324,[,151,120,0,43,6,3,0,],9,0,51.633,73.167,397,1988,1990,KZ,,JERMENTAU,,351910-99999_fig2.png
https://bioclimatic.github.io/predilection/psych/352170-99999_fig2.png,352170,99999,6,GsEv,101554,19.4,55.3,34,[,4579,130,7,],16,25,34,42,44,[,3,0,],34,361,[,143,119,0,57,24,16,3,],43,3,50.25,52.567,32,1987,2020,KZ,,DZHAMBEJTY,,352170-99999_fig2.png
https://bioclimatic.github.io/predilection/psych/352290-99999_fig2.png,352290,99999,6,GsEv,98720,19.4,56.4,34,[,5016,79,1,],8,NaN,31,39,40,[,1,0,],34,362,[,151,123,1,57,19,11,0,],31,1,50.246,57.207,225,1987,2020,KZ,,AKTYUBINSK,,352290-99999_fig2.png
https://bioclimatic.github.io/predilection/psych/352340-99999_fig2.png,352340,99999,3,Hp__,97881,19.4,56.7,3,[,314,3,1,],0,1,1,1,1,[,0,0,],33,22,[,8,10,0,3,1,0,0,],1,0,50.733,57.9,340,2019,2020,KZ,,KOS-ISTEK,,352340-99999_fig2.png
https://bioclimatic.github.io/predilection/psych/352350-99999_fig2.png,352350,99999,6,GsEv,98548,19.4,56.4,3,[,4487,72,0,],0,NaN,NaN,NaN,NaN,[,0,0,],1,333,[,134,120,12,36,19,12,0,],31,0,50.717,58.667,243,2016,2020,KZ,,STEPNOE,,352350-99999_fig2.png
https://bioclimatic.github.io/predilection/psych/352830-99999_fig2.png,352830,99999,3,Hp__,96905,19.4,57.1,3,[,333,1,0,],0,0,0,0,0,[,0,0,],33,22,[,9,9,0,3,0,0,0,],1,0,50.833,72.183,411,2019,2020,KZ,,VISHNEVKA,,352830-99999_fig2.png
https://bioclimatic.github.io/predilection/psych/352840-99999_fig2.png,352840,99999,3,Hp__,98019,19.4,56.6,3,[,326,2,0,],0,0,0,0,0,[,0,0,],33,22,[,10,8,0,4,1,0,0,],1,0,50.633,70.55,320,2019,2020,KZ,,ARYKTY,,352840-99999_fig2.png
https://bioclimatic.github.io/predilection/psych/353020-99999_fig2.png,353020,99999,6,GsEv,101730,19.4,55.2,32,[,4292,145,12,],15,22,35,42,47,[,3,0,],26,356,[,131,123,0,54,26,17,4,],47,5,50.2,51.167,17,1987,2020,KZ,,CHAPAEVO,,353020-99999_fig2.png
https://bioclimatic.github.io/predilection/psych/353150-99999_fig2.png,353150,99999,3,Hp__,101408,19.4,55.4,3,[,253,10,0,],2,1,2,3,3,[,0,0,],33,22,[,7,9,0,3,2,1,0,],3,0,49.517,53.517,80,2019,2020,KZ,,KARATYUBINSKIY,,353150-99999_fig2.png
https://bioclimatic.github.io/predilection/psych/353210-99999_fig2.png,353210,99999,6,GsEv,99947,19.4,55.9,10,[,4488,82,4,],16,NaN,33,40,43,[,1,0,],4,322,[,135,108,0,49,19,10,1,],30,2,50.133,55.7,142,1987,1990,KZ,,NOVOALEKSJEVKA,,353210-99999_fig2.png
https://bioclimatic.github.io/predilection/psych/353250-99999_fig2.png,353250,99999,3,Hp__,99722,19.4,56,3,[,280,8,0,],1,0,1,1,1,[,0,0,],33,22,[,8,9,0,3,1,1,0,],3,0,49.933,56.4,188,2019,2020,KZ,,LLINKA,,353250-99999_fig2.png
https://bioclimatic.github.io/predilection/psych/353340-99999_fig2.png,353340,99999,6,GsEv,97579,19.4,56.8,6,[,4190,88,0,],0,NaN,NaN,NaN,NaN,[,0,0,],2,331,[,121,131,2,37,27,13,0,],35,8,49.8,57.983,368,2016,2020,KZ,,TOKMANSAY,,353340-99999_fig2.png
https://bioclimatic.github.io/predilection/psych/353440-99999_fig2.png,353440,99999,3,Gs__,99211,19.4,56.2,11,[,1036,16,1,],1,0,2,3,4,[,0,0,],29,71,[,30,24,0,11,4,2,0,],6,0,49.95,60.133,229,1987,2020,KZ,,KARABUTAK,,353440-99999_fig2.png
https://bioclimatic.github.io/predilection/psych/353450-99999_fig2.png,353450,99999,6,GsEv,98985,19.4,56.3,9,[,4948,78,0,],0,NaN,NaN,NaN,NaN,[,1,0,],4,324,[,136,113,0,47,17,11,0,],29,0,49.983,61.483,221,1987,1990,KZ,,TAMABULAK,,353450-99999_fig2.png
https://bioclimatic.github.io/predilection/psych/353570-99999_fig2.png,353570,99999,7,GsVt,97712,19.4,56.7,12,[,5550,49,0,],2,NaN,33,42,42,[,0,0,],12,363,[,142,139,1,58,17,6,0,],24,0,49.683,69.517,349,2009,2020,KZ,,BARSHINO,,353570-99999_fig2.png
https://bioclimatic.github.io/predilection/psych/353580-99999_fig2.png,353580,99999,5,GsEv,100367,19.4,55.7,27,[,3946,103,2,],8,0,22,27,29,[,1,0,],32,282,[,87,114,0,45,21,14,1,],36,1,49.635,63.482,133,1987,2020,KZ,,TORGAI,,353580-99999_fig2.png
https://bioclimatic.github.io/predilection/psych/353610-99999_fig2.png,353610,99999,3,GsVt,100291,19.4,55.8,16,[,1759,27,4,],2,0,7,9,9,[,1,0,],28,123,[,46,46,0,20,7,3,1,],11,1,50.133,65.233,142,1987,2020,KZ,,AMANGELDY,,353610-99999_fig2.png
https://bioclimatic.github.io/predilection/psych/353630-99999_fig2.png,353630,99999,3,Gs__,97712,19.4,56.7,15,[,1254,8,0,],0,0,0,0,0,[,0,0,],25,81,[,37,28,0,11,4,1,0,],5,0,50.217,66.833,343,1987,2020,KZ,,ARKALYK,,353630-99999_fig2.png
https://bioclimatic.github.io/predilection/psych/353680-99999_fig2.png,353680,99999,6,GsEv,98604,19.4,56.4,10,[,4792,95,1,],7,NaN,17,29,29,[,1,0,],4,328,[,142,103,0,51,18,15,0,],33,1,49.75,66.15,229,1987,1990,KZ,,SENBER,,353680-99999_fig2.png
https://bioclimatic.github.io/predilection/psych/353760-99999_fig2.png,353760,99999,7,GsVt,97672,19.4,56.8,22,[,5547,42,2,],5,NaN,32,39,40,[,0,0,],21,359,[,160,125,0,55,14,5,0,],19,1,49.883,69.517,349,1987,2007,KZ,,BERLIK,,353760-99999_fig2.png
https://bioclimatic.github.io/predilection/psych/353860-99999_fig2.png,353860,99999,7,GsVt,96357,19.4,57.3,11,[,5200,40,2,],0,NaN,30,38,41,[,1,0,],3,322,[,169,91,0,43,15,4,0,],19,1,49.95,71.583,422,1987,1989,KZ,,KAZGORODOK,,353860-99999_fig2.png
https://bioclimatic.github.io/predilection/psych/353940-99999_fig2.png,353940,99999,7,Gs__,94865,19.4,57.9,34,[,5551,17,0,],0,NaN,NaN,NaN,NaN,[,0,0,],34,361,[,149,153,1,48,7,2,0,],10,0,49.671,73.334,538,1987,2020,KZ,,KARAGANDA,,353940-99999_fig2.png
https://bioclimatic.github.io/predilection/psych/353941-99999_fig2.png,353941,99999,3,Gs__,99110,19.4,56.2,1,[,1355,8,1,],3,0,6,8,8,[,0,0,],4,92,[,40,33,0,14,4,1,0,],5,1,53.2,63.55,186,2008,2008,KZ,,KOSTANAY,,353941-99999_fig2.png
https://bioclimatic.github.io/predilection/psych/354040-99999_fig2.png,354040,99999,5,GsAc,101241,19.4,55.4,8,[,3488,120,104,],2,17,29,37,47,[,6,1,],1,309,[,126,97,0,43,24,5,14,],40,23,49.217,50.3,7,1989,1989,KZ,,DZHANGALA,,354040-99999_fig2.png
https://bioclimatic.github.io/predilection/psych/354060-99999_fig2.png,354060,99999,6,GsEv,101884,19.4,55.2,32,[,4087,209,17,],18,19,38,45,47,[,7,0,],30,355,[,117,127,0,55,28,25,4,],58,6,49.05,51.867,2,1987,2020,KZ,,TAIPAK,,354060-99999_fig2.png
https://bioclimatic.github.io/predilection/psych/354160-99999_fig2.png,354160,99999,6,GsEv,100806,19.4,55.6,34,[,4398,172,3,],16,24,37,43,46,[,2,0,],33,357,[,127,122,1,56,27,23,2,],52,2,49.067,54.683,128,1987,2020,KZ,,UIL,,354160-99999_fig2.png
https://bioclimatic.github.io/predilection/psych/354260-99999_fig2.png,354260,99999,6,GsEv,99188,19.4,56.2,34,[,4795,106,3,],7,31,33,41,43,[,1,0,],32,357,[,139,124,1,55,23,15,1,],38,1,49.15,57.117,234,1987,2020,KZ,,TEMIR,,354260-99999_fig2.png
https://bioclimatic.github.io/predilection/psych/354300-99999_fig2.png,354300,99999,7,GsVt,98647,19.4,56.4,8,[,5150,53,0,],4,NaN,36,48,48,[,0,0,],7,346,[,147,124,1,51,15,8,0,],23,0,49.25,59.55,260,1987,1993,KZ,,TALDYK,,354300-99999_fig2.png
https://bioclimatic.github.io/predilection/psych/354370-99999_fig2.png,354370,99999,3,Hp__,98967,19.4,56.3,2,[,275,10,0,],0,0,0,0,0,[,0,0,],32,22,[,5,10,0,4,2,1,0,],3,0,48.817,58.217,230,2019,2020,KZ,,EMBA,,354370-99999_fig2.png
https://bioclimatic.github.io/predilection/psych/354490-99999_fig2.png,354490,99999,3,Hp__,100344,19.4,55.8,3,[,280,13,0,],1,0,2,3,3,[,0,0,],33,22,[,8,7,0,3,2,1,0,],4,0,48.833,62.1,82,2019,2020,KZ,,NURA,,354490-99999_fig2.png
https://bioclimatic.github.io/predilection/psych/354590-99999_fig2.png,354590,99999,6,GsEv,100055,19.4,55.9,7,[,4602,132,1,],5,NaN,33,40,42,[,1,0,],4,329,[,129,111,0,50,20,19,1,],40,1,48.817,64.617,122,1987,1990,KZ,,BISARY,,354590-99999_fig2.png
https://bioclimatic.github.io/predilection/psych/354750-99999_fig2.png,354750,99999,5,GsVt,96021,19.4,57.4,7,[,4048,30,0,],0,NaN,NaN,NaN,NaN,[,0,0,],2,320,[,99,138,1,67,11,4,0,],15,0,49.017,68.667,490,2016,2019,KZ,,SHUBARKUL,,354750-99999_fig2.png
https://bioclimatic.github.io/predilection/psych/354780-99999_fig2.png,354780,99999,6,GsVt,95492,19.4,57.6,6,[,5002,49,3,],10,NaN,40,46,46,[,1,0,],3,327,[,153,100,0,52,16,6,0,],23,1,48.883,68.083,506,1987,1990,KZ,,ALGABAS,,354780-99999_fig2.png
https://bioclimatic.github.io/predilection/psych/354970-99999_fig2.png,354970,99999,7,GsVt,94288,19.4,58.1,34,[,5267,24,2,],0,2,24,32,35,[,0,0,],34,361,[,119,175,1,54,10,3,0,],13,0,48.85,72.867,656,1987,2020,KZ,,ZHARYK,,354970-99999_fig2.png
https://bioclimatic.github.io/predilection/psych/354980-99999_fig2.png,354980,99999,3,Gs__,93520,19.4,58.5,3,[,617,1,0,],0,0,0,0,0,[,0,0,],18,40,[,17,16,0,6,1,0,0,],1,0,48.783,73.667,724,2019,2020,KZ,,AKSU-AYULY,,354980-99999_fig2.png
https://bioclimatic.github.io/predilection/psych/355140-99999_fig2.png,355140,99999,6,GsEv,101325,19.4,55.4,7,[,4205,158,10,],19,25,36,43,46,[,4,0,],6,344,[,129,112,1,54,26,19,3,],48,5,48.45,52.917,0,1987,1993,KZ,,KARABAU,,355140-99999_fig2.png
https://bioclimatic.github.io/predilection/psych/355190-99999_fig2.png,355190,99999,5,GsEv,100451,19.4,55.7,2,[,3892,195,36,],21,24,38,45,48,[,7,1,],1,318,[,101,120,0,38,35,15,9,],59,9,48.2,54.933,73,1988,1988,KZ,,SAGIZ,,355190-99999_fig2.png
https://bioclimatic.github.io/predilection/psych/355220-99999_fig2.png,355220,99999,3,Hp__,99543,19.4,56,3,[,259,12,0,],0,0,0,0,0,[,0,0,],33,22,[,8,8,0,2,2,2,0,],4,0,48.733,56.033,186,2019,2020,KZ,,KARAUL KEL'DY,,355220-99999_fig2.png
https://bioclimatic.github.io/predilection/psych/355290-99999_fig2.png,355290,99999,6,GsEv,99917,19.4,55.9,8,[,4848,116,30,],16,16,36,43,46,[,5,0,],7,365,[,140,125,0,56,28,10,6,],43,11,48.217,57.117,151,1987,1993,KZ,,KOZASAJ,,355290-99999_fig2.png
https://bioclimatic.github.io/predilection/psych/355320-99999_fig2.png,355320,99999,6,GsEv,97225,19.4,56.9,33,[,4806,123,1,],6,NaN,38,44,45,[,0,0,],30,360,[,126,137,0,55,24,18,0,],43,1,48.633,58.5,398,1987,2020,KZ,,MUGODZARSKAJA,,355320-99999_fig2.png
https://bioclimatic.github.io/predilection/psych/355420-99999_fig2.png,355420,99999,6,GsEv,100457,19.4,55.7,8,[,4643,133,2,],4,11,29,38,39,[,1,0,],7,347,[,133,108,1,59,27,19,0,],47,1,48.617,61.267,114,1987,1994,KZ,,IRGIZ,,355420-99999_fig2.png
https://bioclimatic.github.io/predilection/psych/355490-99999_fig2.png,355490,99999,6,GsEv,100721,19.4,55.6,8,[,4897,151,2,],16,NaN,34,42,44,[,2,0,],6,356,[,146,107,1,55,26,21,1,],49,2,48.25,62,74,1987,1993,KZ,,TAUP,,355490-99999_fig2.png
https://bioclimatic.github.io/predilection/psych/355630-99999_fig2.png,355630,99999,3,Hp__,94513,19.4,58,3,[,304,3,0,],0,0,0,0,0,[,0,0,],33,22,[,7,10,0,3,1,0,0,],1,0,48.583,67.083,632,2019,2020,KZ,,ULYTAU,,355630-99999_fig2.png
https://bioclimatic.github.io/predilection/psych/355760-99999_fig2.png,355760,99999,5,GsVt,97696,19.4,56.8,27,[,4008,67,1,],4,0,18,23,24,[,1,0,],33,284,[,112,96,0,48,19,8,0,],29,0,48.3,69.65,361,1987,2020,KZ,,KZYLZHAR,,355760-99999_fig2.png
https://bioclimatic.github.io/predilection/psych/355820-99999_fig2.png,355820,99999,6,GsVt,95897,19.4,57.5,11,[,4937,33,6,],3,25,34,41,45,[,1,0,],4,321,[,143,116,1,45,12,3,2,],16,2,48.7,71.633,488,1987,1990,KZ,,ATASU,,355820-99999_fig2.png
https://bioclimatic.github.io/predilection/psych/356050-99999_fig2.png,356050,99999,5,GsEv,101505,19.4,55.3,10,[,3832,138,28,],20,24,33,40,45,[,3,0,],4,328,[,116,117,0,49,26,14,6,],46,9,47.667,51.583,-15,1987,1990,KZ,,MAHAMBET,,356050-99999_fig2.png
https://bioclimatic.github.io/predilection/psych/356150-99999_fig2.png,356150,99999,5,GsEv,101878,19.4,55.2,5,[,3198,363,6,],35,NaN,42,47,49,[,4,0,],4,327,[,100,108,3,41,25,47,3,],76,6,47.633,53.317,-22,2015,2020,KZ,,MAKAT,,356150-99999_fig2.png
https://bioclimatic.github.io/predilection/psych/356330-99999_fig2.png,356330,99999,6,GsEv,99230,19.4,56.2,8,[,4909,118,0,],4,NaN,24,33,33,[,0,0,],8,357,[,134,121,1,58,26,17,0,],43,0,47.85,59.617,176,1987,1994,KZ,,CELKAR,,356330-99999_fig2.png
https://bioclimatic.github.io/predilection/psych/356560-99999_fig2.png,356560,99999,3,Hp__,101325,19.4,55.4,3,[,206,15,0,],1,0,1,1,2,[,0,0,],33,20,[,6,7,0,3,1,2,0,],4,0,47.633,64.583,0,2019,2020,KZ,,APPROXIMATE LOCALE,,356560-99999_fig2.png
https://bioclimatic.github.io/predilection/psych/356620-99999_fig2.png,356620,99999,6,____,95866,19.4,57.5,5,[,4241,78,NaN,],NaN,NaN,NaN,NaN,NaN,[,NaN,NaN,],1,313,[,NaN,203,NaN,53,57,NaN,NaN,],31,44,47.833,66.733,488,2015,2015,KZ,,KARSAKBAY,,356620-99999_fig2.png
https://bioclimatic.github.io/predilection/psych/356630-99999_fig2.png,356630,99999,7,GsVt,95705,19.4,57.5,8,[,5197,50,0,],4,NaN,36,43,43,[,0,0,],6,356,[,125,146,1,59,21,5,0,],26,0,47.833,66.75,508,1987,1993,KZ,,KARSAKPAJ,,356630-99999_fig2.png
https://bioclimatic.github.io/predilection/psych/356710-99999_fig2.png,356710,99999,6,GsEv,97841,19.4,56.7,34,[,4816,129,1,],2,NaN,35,43,45,[,0,0,],33,357,[,129,128,1,55,26,18,0,],45,0,47.8,67.717,346,1987,2020,KZ,,ZHEZKAZGAN,,356710-99999_fig2.png
https://bioclimatic.github.io/predilection/psych/356830-99999_fig2.png,356830,99999,7,Gs__,92290,19.4,59,9,[,5137,9,0,],0,NaN,NaN,NaN,NaN,[,0,0,],3,332,[,119,162,1,44,5,1,0,],7,0,47.85,72.083,810,1987,1990,KZ,,KZYL-TAU,,356830-99999_fig2.png
https://bioclimatic.github.io/predilection/psych/356870-99999_fig2.png,356870,99999,3,____,95943,19.4,57.5,8,[,180,3,0,],0,0,0,0,0,[,0,0,],25,13,[,4,5,0,2,1,0,0,],1,0,47.998,70.771,458,1988,1988,KZ,,KARAZHAL,,356870-99999_fig2.png
https://bioclimatic.github.io/predilection/psych/356990-99999_fig2.png,356990,99999,6,GsVt,94742,19.4,57.9,31,[,4080,62,0,],2,0,13,16,16,[,0,0,],25,315,[,89,140,2,56,20,8,0,],28,0,47.45,74.817,620,1987,2020,KZ,,BEKTAUATA,,356990-99999_fig2.png
https://bioclimatic.github.io/predilection/psych/357000-99999_fig2.png,357000,99999,5,GsEv,102173,19.4,55.1,31,[,3356,250,35,],17,23,32,38,44,[,6,0,],33,330,[,101,115,0,50,28,28,8,],64,11,47.117,51.917,-22,1987,2020,KZ,,ATYRAU,,357000-99999_fig2.png
https://bioclimatic.github.io/predilection/psych/357010-99999_fig2.png,357010,99999,4,GsAc,101793,19.4,55.2,5,[,2836,458,114,],10,32,36,42,51,[,15,1,],4,333,[,49,140,18,33,25,48,20,],88,24,47.217,50.983,-27,2015,2020,KZ,,ISATAI,,357010-99999_fig2.png
https://bioclimatic.github.io/predilection/psych/357040-99999_fig2.png,357040,99999,5,GsAc,101614,19.4,55.3,5,[,3130,119,88,],8,22,30,38,44,[,6,0,],3,313,[,111,109,0,43,32,6,12,],47,24,46.75,50.167,-24,1988,1990,KZ,,ZOBURUN'JE,,357040-99999_fig2.png
https://bioclimatic.github.io/predilection/psych/357050-99999_fig2.png,357050,99999,3,Hp__,102249,19.4,55.1,3,[,215,11,3,],0,1,2,2,3,[,1,0,],33,22,[,7,8,0,3,2,1,0,],4,1,46.867,51.25,0,2019,2020,KZ,,APPROXIMATE LOCALE,,357050-99999_fig2.png
https://bioclimatic.github.io/predilection/psych/357150-99999_fig2.png,357150,99999,5,GsEv,101124,19.4,55.5,8,[,3728,218,19,],12,21,35,42,48,[,7,0,],7,338,[,114,108,0,56,28,27,4,],59,7,46.8,53.917,18,1987,1994,KZ,,KULSARY,,357150-99999_fig2.png
https://bioclimatic.github.io/predilection/psych/357210-99999_fig2.png,357210,99999,5,GsEv,100786,19.4,55.6,4,[,3663,232,18,],16,NaN,32,41,49,[,7,0,],1,320,[,87,135,0,31,33,28,6,],67,10,47.033,55.133,45,1988,1988,KZ,,ZAMBIKE,,357210-99999_fig2.png
https://bioclimatic.github.io/predilection/psych/357290-99999_fig2.png,357290,99999,6,GsEv,100798,19.4,55.6,2,[,4214,177,6,],26,NaN,40,46,48,[,6,0,],1,319,[,87,134,0,53,19,22,4,],45,4,46.633,57.333,44,1987,1987,KZ,,AK-TUMSUK,,357290-99999_fig2.png
https://bioclimatic.github.io/predilection/psych/357390-99999_fig2.png,357390,99999,5,GsEv,100319,19.4,55.8,12,[,4036,146,3,],8,11,31,40,43,[,2,0,],4,327,[,117,116,0,44,28,21,1,],50,2,46.717,59.167,114,1987,1990,KZ,,AYAK-KUM,,357390-99999_fig2.png
https://bioclimatic.github.io/predilection/psych/357420-99999_fig2.png,357420,99999,5,GsEv,100380,19.4,55.7,3,[,3744,301,0,],0,NaN,NaN,NaN,NaN,[,2,0,],1,321,[,96,114,0,41,25,45,0,],70,0,47.083,61.217,79,1988,1988,KZ,,SAKSAULSKI,,357420-99999_fig2.png
https://bioclimatic.github.io/predilection/psych/357460-99999_fig2.png,357460,99999,6,GsEv,101361,19.4,55.4,34,[,4212,310,32,],18,27,39,45,49,[,7,0,],34,364,[,123,115,1,50,30,37,8,],76,10,46.783,61.667,56,1987,2020,KZ,,ARALSK,,357460-99999_fig2.png
https://bioclimatic.github.io/predilection/psych/357490-99999_fig2.png,357490,99999,5,GsAc,100368,19.4,55.7,3,[,3569,228,69,],9,11,30,40,51,[,14,2,],1,313,[,106,97,0,36,44,17,13,],71,23,46.717,62.5,80,1988,1988,KZ,,MONSYR,,357490-99999_fig2.png
https://bioclimatic.github.io/predilection/psych/357560-99999_fig2.png,357560,99999,6,GsEv,100728,19.4,55.6,5,[,4268,218,10,],13,18,33,41,44,[,3,0,],4,352,[,127,111,0,50,32,30,3,],64,4,46.883,64.667,79,1987,1990,KZ,,KARA-KUM,,357560-99999_fig2.png
https://bioclimatic.github.io/predilection/psych/357770-99999_fig2.png,357770,99999,6,GsEv,98271,19.4,56.5,12,[,4650,132,2,],7,NaN,29,38,38,[,1,0,],7,348,[,118,129,2,51,28,19,1,],48,1,46.583,68.617,276,1987,1994,KZ,,JETI-KONUR,,357770-99999_fig2.png
https://bioclimatic.github.io/predilection/psych/357910-99999_fig2.png,357910,99999,7,GsVt,94983,19.4,57.8,6,[,5155,56,0,],0,NaN,NaN,NaN,NaN,[,0,0,],5,359,[,127,143,3,60,19,6,0,],26,0,47.2,73.35,581,1987,1991,KZ,,MOINTY,,357910-99999_fig2.png
https://bioclimatic.github.io/predilection/psych/357930-99999_fig2.png,357930,99999,6,GsVt,95170,19.4,57.8,7,[,4153,58,0,],0,NaN,NaN,NaN,NaN,[,0,0,],5,325,[,99,138,2,57,21,7,0,],29,0,47.217,73.35,582,2016,2020,KZ,,MOIYNTY,,357930-99999_fig2.png
https://bioclimatic.github.io/predilection/psych/357960-99999_fig2.png,357960,99999,6,GsVt,97980,19.4,56.6,34,[,4742,74,13,],16,22,30,36,40,[,0,0,],34,362,[,124,135,1,64,29,6,2,],38,5,46.8,75.083,350,1987,2020,KZ,,BALHASH,,357960-99999_fig2.png
https://bioclimatic.github.io/predilection/psych/358160-99999_fig2.png,358160,99999,3,Hp__,102015,19.4,55.1,7,[,341,42,1,],1,2,2,3,3,[,1,0,],30,35,[,9,13,0,4,2,6,0,],8,0,46.233,54.483,-16,1988,2020,KZ,,OPORNY,,358160-99999_fig2.png
https://bioclimatic.github.io/predilection/psych/358470-99999_fig2.png,358470,99999,6,GsAc,100606,19.4,55.7,2,[,4165,202,115,],9,20,33,41,47,[,14,0,],1,313,[,125,95,0,43,19,10,21,],49,25,45.983,61.067,60,1987,1987,KZ,,IMENI SHAVCHEMKO,,358470-99999_fig2.png
https://bioclimatic.github.io/predilection/psych/358490-99999_fig2.png,358490,99999,5,GsEv,101160,19.4,55.5,34,[,3857,245,27,],21,20,38,44,47,[,6,0,],33,358,[,103,129,0,55,33,29,9,],71,9,45.767,62.117,68,1987,2020,KZ,,KAZALY,,358490-99999_fig2.png
https://bioclimatic.github.io/predilection/psych/358840-99999_fig2.png,358840,99999,5,GsEv,97636,19.4,56.8,11,[,4058,152,0,],5,NaN,28,34,34,[,1,0,],4,333,[,110,121,2,49,29,22,0,],53,0,46,70,325,1987,1990,KZ,,BETPAK-DALA STEPPE,,358840-99999_fig2.png
https://bioclimatic.github.io/predilection/psych/358950-99999_fig2.png,358950,99999,3,Gs__,97804,19.4,56.7,7,[,541,13,2,],2,1,3,4,4,[,0,0,],31,44,[,15,15,0,8,4,1,0,],6,1,46.033,73.533,344,1988,2020,KZ,,KOKTAS,,358950-99999_fig2.png
https://bioclimatic.github.io/predilection/psych/359250-99999_fig2.png,359250,99999,5,GsEv,100907,19.4,55.5,34,[,3763,338,12,],16,24,37,44,47,[,6,0,],34,363,[,113,119,2,50,29,45,4,],79,5,45.4,56.117,88,1987,2020,KZ,,SAM,,359250-99999_fig2.png
https://bioclimatic.github.io/predilection/psych/359270-99999_fig2.png,359270,99999,3,Hp__,101900,19.4,55.2,6,[,329,44,7,],2,2,3,3,3,[,1,0,],30,35,[,9,13,0,4,2,5,1,],9,2,45.25,55.083,74,1988,2020,KZ,,BEJNEU,,359270-99999_fig2.png
https://bioclimatic.github.io/predilection/psych/359410-99999_fig2.png,359410,99999,5,GsAc,100704,19.4,55.6,6,[,3649,208,254,],13,23,30,37,45,[,13,0,],4,322,[,120,101,0,36,35,2,28,],63,46,45.683,59.917,80,1987,1990,KZ,,BARSAKELMES ISLAND,,359410-99999_fig2.png
https://bioclimatic.github.io/predilection/psych/359530-99999_fig2.png,359530,99999,5,GsEv,100746,19.4,55.6,34,[,3832,321,8,],20,17,39,45,48,[,5,0,],32,359,[,112,116,3,49,32,46,2,],80,3,45.5,64.083,103,1987,2020,KZ,,ZHOSALY,,359530-99999_fig2.png
https://bioclimatic.github.io/predilection/psych/359690-99999_fig2.png,359690,99999,5,GsEv,100318,19.4,55.8,34,[,3781,274,5,],13,19,37,44,46,[,4,0,],34,358,[,92,140,2,51,33,39,2,],74,2,45.25,67.067,138,1987,2020,KZ,,ZLIKHA,,359690-99999_fig2.png
https://bioclimatic.github.io/predilection/psych/359970-99999_fig2.png,359970,99999,5,GsEv,97691,19.4,56.8,10,[,3789,137,14,],13,NaN,34,41,47,[,4,0,],4,334,[,117,111,0,55,32,16,4,],52,6,45.1,73.967,349,1987,1990,KZ,,CIGANAK,,359970-99999_fig2.png
https://bioclimatic.github.io/predilection/psych/360010-99999_fig2.png,360010,99999,6,GsVt,98773,19.4,56.3,10,[,4967,30,2,],4,NaN,31,39,49,[,0,0,],3,318,[,132,125,1,46,12,2,0,],15,2,51.7,75.367,234,1987,1990,KZ,,EKIBASTUZ,,360010-99999_fig2.png
https://bioclimatic.github.io/predilection/psych/360030-99999_fig2.png,360030,99999,7,GsVt,99870,19.4,55.9,34,[,5659,31,4,],7,16,29,37,41,[,0,0,],34,363,[,155,135,0,56,13,3,1,],17,2,52.195,77.074,125,1987,2020,KZ,,PAVLODAR,,360030-99999_fig2.png
https://bioclimatic.github.io/predilection/psych/360120-99999_fig2.png,360120,99999,3,Hp__,100224,19.4,55.8,3,[,324,2,0,],0,0,0,0,0,[,0,0,],33,22,[,9,8,0,4,1,0,0,],1,0,52.35,78.333,149,2019,2020,KZ,,SCERBAKTY,,360120-99999_fig2.png
https://bioclimatic.github.io/predilection/psych/360150-99999_fig2.png,360150,99999,3,Gs__,100000,19.4,55.9,7,[,360,2,0,],0,0,0,0,0,[,0,0,],29,25,[,10,9,0,4,1,0,0,],1,0,51.483,77.767,144,2019,2020,KZ,,LEBJAZJE,,360150-99999_fig2.png
https://bioclimatic.github.io/predilection/psych/360260-99999_fig2.png,360260,99999,6,____,98272,19.4,56.5,1,[,4536,21,NaN,],NaN,NaN,NaN,NaN,NaN,[,NaN,NaN,],1,327,[,NaN,270,NaN,9,47,NaN,NaN,],16,61,51.067,79.417,258,2019,2019,KZ,,NOVONIKALAEVKA,,360260-99999_fig2.png
https://bioclimatic.github.io/predilection/psych/361260-99999_fig2.png,361260,99999,3,Gs__,96460,19.4,57.2,19,[,2020,6,0,],0,0,0,0,0,[,0,0,],23,133,[,46,65,0,18,3,0,0,],4,0,50.8,75.7,504,1987,2020,KZ,,BAJANAUL,,361260-99999_fig2.png
https://bioclimatic.github.io/predilection/psych/361520-99999_fig2.png,361520,99999,7,GsVt,100251,19.4,55.8,34,[,5363,53,3,],8,NaN,31,40,43,[,1,0,],34,359,[,140,135,0,59,17,6,1,],24,1,50.867,78.35,149,1987,2020,KZ,,SEMIJARKA,,361520-99999_fig2.png
https://bioclimatic.github.io/predilection/psych/361770-99999_fig2.png,361770,99999,7,GsVt,99725,19.4,56,34,[,5284,30,5,],7,NaN,31,39,41,[,1,0,],32,362,[,130,153,0,60,15,2,1,],18,2,50.417,80.3,196,1987,2020,KZ,,SEMIPALATINSK,,361770-99999_fig2.png
https://bioclimatic.github.io/predilection/psych/361860-99999_fig2.png,361860,99999,7,Gs__,97539,19.4,56.8,8,[,5534,9,1,],5,NaN,27,37,37,[,0,0,],8,355,[,148,150,0,50,5,1,0,],6,0,50.633,81.917,320,1987,1994,KZ,,SEMONAIHA,,361860-99999_fig2.png
https://bioclimatic.github.io/predilection/psych/361970-99999_fig2.png,361970,99999,6,GsVt,98783,19.4,56.3,7,[,4605,11,1,],3,NaN,18,24,24,[,0,0,],4,333,[,108,145,0,70,9,1,0,],11,0,50.167,82.033,270,2016,2020,KZ,,TAVRIA,,361970-99999_fig2.png
https://bioclimatic.github.io/predilection/psych/362080-99999_fig2.png,362080,99999,7,Gs__,92578,19.4,58.9,33,[,5579,1,0,],0,NaN,NaN,NaN,NaN,[,0,0,],32,356,[,112,214,0,29,1,0,0,],1,0,50.333,83.55,811,1987,2020,KZ,,LENINOGORSK,,362080-99999_fig2.png
https://bioclimatic.github.io/predilection/psych/363350-99999_fig2.png,363350,99999,7,Gs__,92431,19.4,58.9,6,[,5557,5,0,],0,NaN,NaN,NaN,NaN,[,0,0,],5,343,[,136,171,1,31,4,0,0,],4,0,49.383,75.517,812,1987,1991,KZ,,KARKARALINSK,,363350-99999_fig2.png
https://bioclimatic.github.io/predilection/psych/363410-99999_fig2.png,363410,99999,6,GsVt,92670,19.4,58.8,4,[,4600,7,0,],0,NaN,NaN,NaN,NaN,[,0,0,],1,322,[,77,196,1,35,12,1,0,],6,12,49.783,76.383,776,2015,2019,KZ,,EGINDYBULAK,,363410-99999_fig2.png
https://bioclimatic.github.io/predilection/psych/363580-99999_fig2.png,363580,99999,7,Gs__,91739,19.4,59.2,10,[,5546,7,0,],0,NaN,NaN,NaN,NaN,[,0,0,],7,342,[,119,179,1,38,5,1,0,],5,0,49.2,77.367,842,1987,1994,KZ,,KAJNAR,,363580-99999_fig2.png
https://bioclimatic.github.io/predilection/psych/363920-99999_fig2.png,363920,99999,3,Hp__,97826,19.4,56.7,3,[,300,1,0,],0,0,0,0,0,[,0,0,],33,22,[,8,9,0,4,0,0,0,],0,0,49.967,81.467,371,2019,2020,KZ,,BORODINE,,363920-99999_fig2.png
https://bioclimatic.github.io/predilection/psych/363940-99999_fig2.png,363940,99999,3,Hp__,98131,19.4,56.6,3,[,313,1,0,],0,0,0,0,0,[,0,0,],33,22,[,9,8,0,4,1,0,0,],1,0,49.583,81.05,334,2019,2020,KZ,,CARSKAJA,,363940-99999_fig2.png
https://bioclimatic.github.io/predilection/psych/363970-99999_fig2.png,363970,99999,7,GsVt,96677,19.4,57.2,33,[,5139,33,0,],3,NaN,31,39,39,[,0,0,],25,350,[,126,146,1,60,13,4,0,],18,0,49.217,81.217,455,1987,2020,KZ,,ZHANGIZTOBE,,363970-99999_fig2.png
https://bioclimatic.github.io/predilection/psych/364030-99999_fig2.png,364030,99999,6,Gs__,98339,19.4,56.5,11,[,4854,5,0,],1,NaN,20,32,32,[,0,0,],3,318,[,122,152,0,40,3,1,0,],3,0,49.967,82.633,292,1988,1990,KZ,,UST-KAMENOGORSK,,364030-99999_fig2.png
https://bioclimatic.github.io/predilection/psych/364180-99999_fig2.png,364180,99999,3,Hp__,96220,19.4,57.3,3,[,305,1,0,],0,0,0,0,0,[,0,0,],33,22,[,7,9,0,5,1,0,0,],1,0,49.033,83.383,524,2019,2020,KZ,,SAMARSKOE,,364180-99999_fig2.png
https://bioclimatic.github.io/predilection/psych/364210-99999_fig2.png,364210,99999,3,Gs__,96738,19.4,57.1,3,[,378,0,0,],0,0,1,1,1,[,0,0,],33,22,[,11,9,0,2,0,0,0,],0,0,49.75,84.283,492,2019,2020,KZ,,ZYRJANOVSK,,364210-99999_fig2.png
https://bioclimatic.github.io/predilection/psych/364280-99999_fig2.png,364280,99999,7,GsVt,97329,19.4,56.9,34,[,5859,17,4,],5,-4,30,39,41,[,0,0,],32,363,[,158,133,0,60,10,1,0,],11,1,49.2,84.517,401,1987,2020,KZ,,ULKEN NARYN,,364280-99999_fig2.png
https://bioclimatic.github.io/predilection/psych/364390-99999_fig2.png,364390,99999,3,Gs__,89774,19.4,60.1,11,[,1286,0,0,],0,0,0,0,0,[,0,0,],24,80,[,21,55,0,4,0,0,0,],0,0,49.183,85.617,1081,1987,2020,KZ,,KATON-KARAGAJ,,364390-99999_fig2.png
https://bioclimatic.github.io/predilection/psych/364670-99999_fig2.png,364670,99999,7,Gs__,92474,19.4,58.9,9,[,5389,16,1,],4,NaN,37,41,43,[,0,0,],4,321,[,136,138,0,40,5,2,1,],7,1,48.3,74.967,780,1987,1990,KZ,,AKTOGAJ,,364670-99999_fig2.png
https://bioclimatic.github.io/predilection/psych/364870-99999_fig2.png,364870,99999,7,Gs__,93515,19.4,58.5,10,[,5587,12,2,],2,NaN,26,36,36,[,1,0,],4,327,[,140,139,1,42,4,2,0,],7,1,48.267,77.317,699,1987,1990,KZ,,OGIZTAU,,364870-99999_fig2.png
https://bioclimatic.github.io/predilection/psych/364980-99999_fig2.png,364980,99999,3,Gs__,94456,19.4,58.1,16,[,1888,11,0,],0,0,0,0,0,[,0,0,],28,128,[,42,59,0,20,5,1,0,],6,0,48.167,78.417,643,1987,2020,KZ,,BARSHATAS,,364980-99999_fig2.png
https://bioclimatic.github.io/predilection/psych/365010-99999_fig2.png,365010,99999,3,Gs__,94852,19.4,57.9,12,[,1148,5,0,],0,0,0,0,0,[,0,0,],25,81,[,23,42,0,13,2,1,0,],3,0,49,79.333,618,1987,2020,KZ,,KARAUL,,365010-99999_fig2.png
https://bioclimatic.github.io/predilection/psych/365350-99999_fig2.png,365350,99999,7,GsVt,96116,19.4,57.4,34,[,6048,14,0,],2,NaN,34,41,42,[,0,0,],34,363,[,141,155,0,57,9,1,0,],10,0,48.75,82.367,512,1987,2020,KZ,,KOKPEKTY,,365350-99999_fig2.png
https://bioclimatic.github.io/predilection/psych/365460-99999_fig2.png,365460,99999,6,Gs__,96699,19.4,57.1,11,[,5025,15,2,],5,NaN,28,36,37,[,1,0,],4,324,[,140,124,0,51,7,2,0,],9,1,48.55,83.683,427,1987,1990,KZ,,KURCUM,,365460-99999_fig2.png
https://bioclimatic.github.io/predilection/psych/366190-99999_fig2.png,366190,99999,3,Hp__,96357,19.4,57.3,7,[,435,9,0,],1,0,1,2,2,[,0,0,],30,35,[,8,17,0,7,2,1,0,],4,0,47.083,79.717,422,1988,2020,KZ,,ZUZ-AGAC,,366190-99999_fig2.png
https://bioclimatic.github.io/predilection/psych/366220-99999_fig2.png,366220,99999,6,Gs__,94304,19.4,58.1,10,[,4962,15,0,],0,NaN,NaN,NaN,NaN,[,0,0,],4,333,[,130,149,1,45,7,2,0,],9,0,47.967,80.45,655,1987,1991,KZ,,AJAGUZ,,366220-99999_fig2.png
https://bioclimatic.github.io/predilection/psych/366390-99999_fig2.png,366390,99999,6,GsVt,96198,19.4,57.3,34,[,4944,37,1,],5,NaN,33,41,42,[,1,0,],34,362,[,125,149,0,68,16,4,0,],21,1,47.117,81.617,491,1987,2020,KZ,,URZHAR,,366390-99999_fig2.png
https://bioclimatic.github.io/predilection/psych/366430-99999_fig2.png,366430,99999,3,Gs__,95770,19.4,57.5,6,[,641,4,0,],0,0,0,0,0,[,0,0,],30,44,[,15,18,0,9,2,0,0,],2,0,47.8,82.833,548,1988,2020,KZ,,AKSUAT,,366430-99999_fig2.png
https://bioclimatic.github.io/predilection/psych/366650-99999_fig2.png,366650,99999,3,Gs__,95216,19.4,57.7,11,[,1528,20,0,],0,0,0,0,0,[,0,0,],33,109,[,39,40,0,21,6,3,0,],9,0,47.467,84.917,603,1987,2020,KZ,,ZAJSAN,,366650-99999_fig2.png
https://bioclimatic.github.io/predilection/psych/366860-99999_fig2.png,366860,99999,4,GsVt,97968,19.4,56.6,16,[,2491,52,24,],7,11,17,21,24,[,1,0,],25,200,[,69,69,0,35,21,3,2,],26,6,46.55,76.867,349,1988,2014,KZ,,ALGAZY OSTROV,,366860-99999_fig2.png
https://bioclimatic.github.io/predilection/psych/367290-99999_fig2.png,367290,99999,3,GsVt,97408,19.4,56.9,16,[,1521,25,1,],2,0,7,9,10,[,0,0,],28,127,[,47,43,0,25,9,3,0,],12,0,46.167,80.933,397,1987,2020,KZ,,UC-ARAL,,367290-99999_fig2.png
https://bioclimatic.github.io/predilection/psych/367360-99999_fig2.png,367360,99999,3,Gs__,96815,19.4,57.1,7,[,410,4,0,],1,0,2,3,3,[,0,0,],30,35,[,10,15,0,8,2,0,0,],2,0,46.65,82.75,441,1988,2020,KZ,,BAHTY,,367360-99999_fig2.png
https://bioclimatic.github.io/predilection/psych/367440-99999_fig2.png,367440,99999,6,GsEv,97600,19.4,56.8,9,[,4184,101,6,],14,NaN,37,43,46,[,3,0,],7,345,[,126,119,0,61,24,13,2,],39,2,45.633,75.117,353,1987,1994,KZ,,AUL,,367440-99999_fig2.png
https://bioclimatic.github.io/predilection/psych/367730-99999_fig2.png,367730,99999,3,Gs__,97022,19.4,57,7,[,495,17,0,],1,0,1,1,2,[,0,0,],31,44,[,15,15,0,7,4,2,0,],7,0,45.85,78.717,412,1988,2020,KZ,,MATAJ,,367730-99999_fig2.png
https://bioclimatic.github.io/predilection/psych/367770-99999_fig2.png,367770,99999,3,Hp__,96936,19.4,57.1,3,[,234,7,0,],1,0,1,1,1,[,0,0,],33,22,[,7,8,0,4,2,1,0,],3,0,45.333,78.017,443,2019,2020,KZ,,KARATAL E,,367770-99999_fig2.png
https://bioclimatic.github.io/predilection/psych/367780-99999_fig2.png,367780,99999,5,GsVt,94609,19.4,58,9,[,3509,62,1,],5,NaN,32,40,43,[,0,0,],4,328,[,102,132,2,63,22,6,1,],29,1,45,78.383,602,1987,1990,KZ,,TALDY-KURGAN,,367780-99999_fig2.png
https://bioclimatic.github.io/predilection/psych/367850-99999_fig2.png,367850,99999,4,GsEv,94547,19.4,58,7,[,3062,178,0,],0,NaN,NaN,NaN,NaN,[,0,0,],4,322,[,70,139,4,53,31,26,0,],58,0,45.383,79.5,628,2017,2020,KZ,,ZHANSUGUROV,,367850-99999_fig2.png
https://bioclimatic.github.io/predilection/psych/367860-99999_fig2.png,367860,99999,3,Gs__,93089,19.4,58.6,7,[,492,6,0,],1,0,1,2,2,[,0,0,],31,44,[,12,21,0,8,2,1,0,],3,0,45.417,79.9,1113,1988,2020,KZ,,SARKAND,,367860-99999_fig2.png
https://bioclimatic.github.io/predilection/psych/367960-99999_fig2.png,367960,99999,3,Hp__,87833,19.4,61,3,[,334,0,0,],0,0,0,0,0,[,0,0,],33,22,[,9,11,0,2,0,0,0,],0,0,45.883,80.917,1189,2019,2020,KZ,,LEPSINSK,,367960-99999_fig2.png
https://bioclimatic.github.io/predilection/psych/368060-99999_fig2.png,368060,99999,3,Hp__,97558,19.4,56.8,7,[,404,17,0,],2,0,3,3,3,[,0,0,],30,35,[,8,15,0,6,4,2,0,],6,0,45.3,82.483,394,1988,2020,KZ,,DRUZBA,,368060-99999_fig2.png
https://bioclimatic.github.io/predilection/psych/368170-99999_fig2.png,368170,99999,3,Hp__,92307,19.4,59,3,[,202,15,0,],0,0,0,0,0,[,0,0,],33,22,[,0,14,0,4,2,2,0,],4,0,43.983,75.083,830,2019,2020,KZ,,ANARKHAY,,368170-99999_fig2.png
https://bioclimatic.github.io/predilection/psych/368190-99999_fig2.png,368190,99999,3,Gs__,96061,19.4,57.4,6,[,340,21,0,],1,0,1,2,2,[,0,0,],30,34,[,11,12,0,6,3,3,0,],6,0,44.133,75.85,499,1988,2020,KZ,,AYDARLI,,368190-99999_fig2.png
https://bioclimatic.github.io/predilection/psych/368210-99999_fig2.png,368210,99999,4,GsEv,97263,19.4,56.9,24,[,2558,111,4,],9,4,20,24,25,[,2,0,],30,240,[,76,82,1,42,24,15,1,],40,2,44.833,76.267,396,1988,2020,KZ,,BAKANAS,,368210-99999_fig2.png
https://bioclimatic.github.io/predilection/psych/368215-99999_fig2.png,368215,99999,7,GsVt,98205,19.4,56.6,15,[,5328,52,2,],8,21,32,37,40,[,0,0,],14,361,[,146,140,2,50,16,6,1,],23,2,53.32,69.6,263,2006,2020,KZ,,KOKSHETAU AIRPORT,,368215-99999_fig2.png
https://bioclimatic.github.io/predilection/psych/368370-99999_fig2.png,368370,99999,3,Gs__,96133,19.4,57.4,6,[,426,16,1,],1,1,2,3,3,[,0,0,],30,44,[,11,18,0,9,4,2,0,],6,1,44.017,77.133,710,1988,2020,KZ,,ILIYSK,,368370-99999_fig2.png
https://bioclimatic.github.io/predilection/psych/368390-99999_fig2.png,368390,99999,3,Hp__,91039,19.4,59.5,3,[,246,3,0,],0,0,0,0,0,[,0,0,],33,22,[,6,11,0,4,1,0,0,],2,0,44.367,77.9,948,2019,2020,KZ,,SARYOZEK,,368390-99999_fig2.png
https://bioclimatic.github.io/predilection/psych/368430-99999_fig2.png,368430,99999,3,Hp__,90617,19.4,59.7,3,[,216,3,0,],0,0,0,0,0,[,0,0,],33,22,[,3,13,0,4,2,0,0,],2,0,44.633,78.75,1114,2019,2020,KZ,,KOK-SU,,368430-99999_fig2.png
https://bioclimatic.github.io/predilection/psych/368460-99999_fig2.png,368460,99999,3,Hp__,86234,19.4,61.8,3,[,278,0,0,],0,0,0,0,0,[,0,0,],33,22,[,4,15,0,3,0,0,0,],0,0,44.467,78.667,1385,2019,2020,KZ,,KUGALI,,368460-99999_fig2.png
https://bioclimatic.github.io/predilection/psych/368560-99999_fig2.png,368560,99999,5,GsVt,87926,19.4,61,5,[,3506,22,0,],0,NaN,NaN,NaN,NaN,[,0,0,],3,331,[,73,181,2,61,11,3,0,],13,0,44.267,79.317,1224,2015,2020,KZ,,KONYROLEN,,368560-99999_fig2.png
https://bioclimatic.github.io/predilection/psych/368590-99999_fig2.png,368590,99999,5,GsEv,94436,19.4,58.1,34,[,3397,106,9,],11,18,34,42,44,[,2,0,],34,363,[,88,148,1,77,36,11,2,],50,3,44.167,80.067,645,1987,2020,KZ,,ZHARKENT,,368590-99999_fig2.png
https://bioclimatic.github.io/predilection/psych/368640-99999_fig2.png,368640,99999,4,GsEv,93277,19.4,58.6,24,[,2450,85,0,],2,0,6,7,8,[,0,0,],30,241,[,76,88,2,42,21,12,0,],33,0,43.533,75.25,743,1988,2020,KZ,,OTAR,,368640-99999_fig2.png
https://bioclimatic.github.io/predilection/psych/368700-99999_fig2.png,368700,99999,4,GsEv,92115,19.4,59.1,29,[,3022,77,1,],6,0,23,27,28,[,0,0,],33,309,[,96,117,0,63,23,10,0,],34,1,43.233,76.933,851,1987,2020,KZ,,ALMATY,,368700-99999_fig2.png
https://bioclimatic.github.io/predilection/psych/368710-99999_fig2.png,368710,99999,5,GsEv,92078,19.4,59.1,2,[,3318,62,4,],20,NaN,31,39,41,[,0,0,],1,346,[,115,134,0,57,24,16,0,],31,6,43.183,76.75,810,2015,2019,KZ,,KARASAYSKY,,368710-99999_fig2.png
https://bioclimatic.github.io/predilection/psych/368720-99999_fig2.png,368720,99999,5,GsVt,93408,19.4,58.5,13,[,3398,77,0,],1,0,17,21,21,[,0,0,],14,337,[,111,121,1,68,27,9,0,],36,0,43.352,77.041,681,2007,2020,KZ,,ALMATY,,368720-99999_fig2.png
https://bioclimatic.github.io/predilection/psych/368770-99999_fig2.png,368770,99999,5,GsVt,89962,19.4,60,4,[,3886,19,5,],3,NaN,33,39,42,[,0,0,],2,319,[,135,108,0,61,12,1,1,],14,1,43.167,76.05,992,1988,1989,KZ,,PRUDKY,,368770-99999_fig2.png
https://bioclimatic.github.io/predilection/psych/368830-99999_fig2.png,368830,99999,4,GsEv,94217,19.4,58.2,2,[,2790,122,7,],21,NaN,34,41,44,[,1,0,],1,320,[,108,111,0,54,24,23,1,],45,5,43.483,76.983,614,2015,2020,KZ,,ILIYSKY,,368830-99999_fig2.png
https://bioclimatic.github.io/predilection/psych/368850-99999_fig2.png,368850,99999,3,Hp__,91023,19.4,59.6,3,[,213,5,0,],0,0,0,0,0,[,0,0,],33,22,[,6,10,0,4,2,1,0,],2,0,43.35,77.467,1098,2019,2020,KZ,,ISSYK,,368850-99999_fig2.png
https://bioclimatic.github.io/predilection/psych/368890-99999_fig2.png,368890,99999,3,Hp__,90094,19.4,60,3,[,415,0,0,],0,0,0,0,0,[,0,0,],33,22,[,4,18,0,0,0,0,0,],0,0,43.383,77.55,980,2019,2020,KZ,,TURGEN,,368890-99999_fig2.png
https://bioclimatic.github.io/predilection/psych/368910-99999_fig2.png,368910,99999,3,Hp__,96119,19.4,57.4,3,[,183,12,1,],1,0,2,3,3,[,0,0,],33,22,[,6,9,0,4,2,1,0,],4,0,43.583,78.2,600,2019,2020,KZ,,CILIK,,368910-99999_fig2.png
https://bioclimatic.github.io/predilection/psych/368940-99999_fig2.png,368940,99999,3,Hp__,94808,19.4,57.9,3,[,192,12,0,],0,0,0,0,0,[,0,0,],33,22,[,5,9,0,4,2,2,0,],4,0,43.483,78.4,870,2019,2020,KZ,,MALIBAY,,368940-99999_fig2.png
https://bioclimatic.github.io/predilection/psych/368970-99999_fig2.png,368970,99999,3,Hp__,78115,19.4,66.4,3,[,381,0,0,],0,0,0,0,0,[,0,0,],33,22,[,9,13,0,0,0,0,0,],0,0,43.317,78.25,2216,2019,2020,KZ,,ASSI,,368970-99999_fig2.png
https://bioclimatic.github.io/predilection/psych/369050-99999_fig2.png,369050,99999,3,Hp__,87500,19.4,61.2,6,[,363,3,0,],0,0,0,0,0,[,0,0,],30,35,[,7,20,0,6,2,0,0,],2,0,43.317,79.483,1273,1988,2020,KZ,,PODGORNOJE,,369050-99999_fig2.png
https://bioclimatic.github.io/predilection/psych/369530-99999_fig2.png,369530,99999,3,Hp__,82131,19.4,64,3,[,309,0,0,],0,0,0,0,0,[,0,0,],33,22,[,8,13,0,1,0,0,0,],0,0,42.733,80.133,1807,2019,2020,KZ,,NARYNKOL,,369530-99999_fig2.png
https://bioclimatic.github.io/predilection/psych/380010-99999_fig2.png,380010,99999,4,GsAc,101619,19.4,55.3,34,[,2865,256,231,],7,17,27,34,45,[,10,1,],27,361,[,86,144,1,52,39,25,15,],74,34,43.86,51.092,22,1988,2020,KZ,,AKTAU,,380010-99999_fig2.png
https://bioclimatic.github.io/predilection/psych/380020-99999_fig2.png,380020,99999,3,Hp__,101884,19.4,55.2,7,[,298,39,4,],2,2,4,4,5,[,1,0,],30,35,[,9,14,0,4,3,5,1,],8,1,44.733,51.967,56,1988,2020,KZ,,TUSCIKUDUK,,380020-99999_fig2.png
https://bioclimatic.github.io/predilection/psych/380080-99999_fig2.png,380080,99999,3,Hp__,99027,19.4,56.2,3,[,178,21,0,],2,2,2,3,3,[,0,0,],33,22,[,5,9,0,3,2,3,0,],5,0,44.15,51.95,240,2019,2020,KZ,,TUSHCHIBEK,,380080-99999_fig2.png
https://bioclimatic.github.io/predilection/psych/380190-99999_fig2.png,380190,99999,5,GsAc,99671,19.4,56,7,[,3300,200,130,],11,17,32,41,49,[,15,2,],4,317,[,103,114,0,40,32,11,17,],56,28,44.317,54.6,143,1987,1990,KZ,,DUKEN,,380190-99999_fig2.png
https://bioclimatic.github.io/predilection/psych/380440-99999_fig2.png,380440,99999,5,GsAc,101215,19.4,55.4,8,[,3774,269,284,],8,19,32,40,47,[,24,3,],8,357,[,103,129,0,52,33,13,28,],72,38,44.583,61.15,55,1987,1994,KZ,,UJALY,,380440-99999_fig2.png
https://bioclimatic.github.io/predilection/psych/380490-99999_fig2.png,380490,99999,3,GsEv,100950,19.4,55.5,11,[,1106,119,22,],6,3,11,12,14,[,5,0,],32,113,[,22,49,0,16,10,13,4,],27,5,44.067,62.9,88,1987,2020,KZ,,CIRIK-RABAT,,380490-99999_fig2.png
https://bioclimatic.github.io/predilection/psych/380510-99999_fig2.png,380510,99999,3,Hp__,100828,19.4,55.6,3,[,208,23,0,],0,0,0,0,0,[,0,0,],33,22,[,6,8,0,3,2,3,0,],5,0,44.883,63.167,92,2019,2020,KZ,,KARAK,,380510-99999_fig2.png
https://bioclimatic.github.io/predilection/psych/380620-99999_fig2.png,380620,99999,5,GsEv,100123,19.4,55.8,32,[,3584,323,9,],16,21,41,46,49,[,5,0,],32,364,[,92,135,1,52,35,46,3,],84,3,44.767,65.533,129,1987,2020,KZ,,KZYL-ORDA,,380620-99999_fig2.png
https://bioclimatic.github.io/predilection/psych/380690-99999_fig2.png,380690,99999,4,GsEv,100031,19.4,55.9,24,[,2079,186,4,],10,2,21,24,25,[,4,0,],30,240,[,48,99,1,38,26,27,1,],54,2,44.167,66.75,153,1988,2020,KZ,,SHIELI,,380690-99999_fig2.png
https://bioclimatic.github.io/predilection/psych/380810-99999_fig2.png,380810,99999,5,GsEv,99574,19.4,56,8,[,3825,257,2,],5,NaN,35,41,43,[,2,0,],8,362,[,97,137,3,51,34,39,1,],74,1,44.8,69.117,190,1987,1994,KZ,,TASTY,,380810-99999_fig2.png
https://bioclimatic.github.io/predilection/psych/380910-99999_fig2.png,380910,99999,5,GsEv,98418,19.4,56.5,8,[,3831,217,6,],15,23,37,45,48,[,3,0,],8,359,[,102,133,2,55,32,32,2,],67,2,44.8,71.067,266,1987,1994,KZ,,ULANBEL',,380910-99999_fig2.png
https://bioclimatic.github.io/predilection/psych/380990-99999_fig2.png,380990,99999,3,Hp__,97738,19.4,56.7,7,[,427,23,2,],1,0,2,3,3,[,1,0,],31,44,[,7,22,0,7,5,3,1,],8,1,44.283,72.95,350,1988,2020,KZ,,FURMANOVO,,380990-99999_fig2.png
https://bioclimatic.github.io/predilection/psych/381080-99999_fig2.png,381080,99999,3,Hp__,95415,19.4,57.7,3,[,373,38,0,],0,0,0,0,0,[,0,0,],17,43,[,6,21,0,7,3,6,0,],9,0,44.217,73.8,504,2019,2020,KZ,,KHANTAU,,381080-99999_fig2.png
https://bioclimatic.github.io/predilection/psych/381110-99999_fig2.png,381110,99999,3,GsEv,102099,19.4,55.1,24,[,1039,66,45,],3,7,10,13,19,[,2,0,],15,136,[,25,65,0,22,14,7,3,],21,10,43.583,51.083,15,1987,2020,KZ,,SEVCENKO,,381110-99999_fig2.png
https://bioclimatic.github.io/predilection/psych/381411-99999_fig2.png,381411,99999,5,GsAc,101588,19.4,55.3,15,[,3753,294,58,],14,18,33,41,47,[,8,0,],15,363,[,121,115,0,50,32,33,11,],76,15,47.122,51.821,-22,2005,2020,KZ,,ATYRAU,,381411-99999_fig2.png
https://bioclimatic.github.io/predilection/psych/381910-99999_fig2.png,381910,99999,3,Hp__,99736,19.4,56,3,[,177,27,0,],0,0,0,0,0,[,1,0,],33,22,[,4,9,0,3,2,4,0,],6,0,43.717,67.417,174,2019,2020,KZ,,AK-KUM,,381910-99999_fig2.png
https://bioclimatic.github.io/predilection/psych/381960-99999_fig2.png,381960,99999,3,GsEv,92350,19.4,59,20,[,1827,100,0,],0,0,0,0,0,[,0,0,],33,208,[,36,103,3,33,18,15,0,],34,0,43.55,68.9,822,2002,2020,KZ,,ASHCHYSAI,,381960-99999_fig2.png
https://bioclimatic.github.io/predilection/psych/381980-99999_fig2.png,381980,99999,4,GsEv,99330,19.4,56.1,32,[,2658,389,4,],20,7,36,43,45,[,6,0,],32,338,[,74,125,2,48,33,55,2,],90,2,43.267,68.217,207,1987,2020,KZ,,TURKESTAN,,381980-99999_fig2.png
https://bioclimatic.github.io/predilection/psych/382010-99999_fig2.png,382010,99999,3,Hp__,96215,19.4,57.3,7,[,325,26,0,],1,0,1,2,2,[,0,0,],30,35,[,9,13,0,5,3,4,0,],7,0,43.8,69.2,481,1988,2020,KZ,,CULAKKURGAN,,382010-99999_fig2.png
https://bioclimatic.github.io/predilection/psych/382021-99999_fig2.png,382021,99999,5,GsEv,97889,19.4,56.7,2,[,3208,266,0,],13,NaN,35,42,42,[,4,0,],2,364,[,95,139,0,60,29,41,0,],71,0,43.8,69.9,336,2019,2020,KZ,,BAIKADAM,,382021-99999_fig2.png
https://bioclimatic.github.io/predilection/psych/382070-99999_fig2.png,382070,99999,3,Hp__,97442,19.4,56.9,3,[,165,24,0,],1,0,2,2,2,[,0,0,],33,22,[,5,9,0,3,1,3,0,],5,0,43.033,69.367,365,2019,2020,KZ,,CAJAN,,382070-99999_fig2.png
https://bioclimatic.github.io/predilection/psych/382220-99999_fig2.png,382220,99999,5,GsEv,96516,19.4,57.2,30,[,3378,136,6,],10,23,34,43,46,[,5,0,],25,357,[,106,127,0,69,37,17,2,],57,3,43.7,73.783,456,1987,2020,KZ,,TOLE BI,,382220-99999_fig2.png
https://bioclimatic.github.io/predilection/psych/382230-99999_fig2.png,382230,99999,3,Hp__,92999,19.4,58.7,3,[,199,13,0,],0,0,0,0,0,[,0,0,],33,22,[,5,10,0,3,2,2,0,],4,0,43.833,74.4,768,2019,2020,KZ,,CHOKPAR,,382230-99999_fig2.png
https://bioclimatic.github.io/predilection/psych/382290-99999_fig2.png,382290,99999,3,Hp__,88851,19.4,60.6,3,[,226,4,0,],0,0,0,0,0,[,0,0,],33,22,[,5,12,0,3,1,1,0,],2,0,43.3,74.983,1145,2019,2020,KZ,,KURDAJ,,382290-99999_fig2.png
https://bioclimatic.github.io/predilection/psych/382320-99999_fig2.png,382320,99999,4,GsEv,100838,19.4,55.6,34,[,3015,483,33,],17,28,38,45,49,[,14,1,],34,362,[,85,133,2,46,28,59,9,],96,10,42.967,54.117,78,1987,2020,KZ,,AKKUDUK,,382320-99999_fig2.png
https://bioclimatic.github.io/predilection/psych/383010-99999_fig2.png,383010,99999,3,HpVt,99601,19.4,56,7,[,267,51,3,],2,0,4,5,5,[,2,0,],30,35,[,7,14,0,4,3,6,1,],10,1,42.8,67.417,185,1988,2020,KZ,,KYZYLKUM,,383010-99999_fig2.png
https://bioclimatic.github.io/predilection/psych/383130-99999_fig2.png,383130,99999,4,GsEv,98760,19.4,56.3,2,[,2289,340,0,],0,NaN,NaN,NaN,NaN,[,8,0,],1,329,[,72,144,3,27,39,45,0,],85,81,43.717,69,405,2016,2020,KZ,,BUGUN,,383130-99999_fig2.png
https://bioclimatic.github.io/predilection/psych/383160-99999_fig2.png,383160,99999,3,Hp__,98958,19.4,56.3,3,[,151,28,0,],2,0,3,3,3,[,1,0,],33,21,[,4,8,0,2,2,4,0,],6,0,42.433,68.8,240,2019,2020,KZ,,ARYS,,383160-99999_fig2.png
https://bioclimatic.github.io/predilection/psych/383180-99999_fig2.png,383180,99999,4,____,99206,19.4,56.2,1,[,2323,365,NaN,],NaN,NaN,NaN,NaN,NaN,[,NaN,NaN,],6,333,[,NaN,228,NaN,51,54,NaN,NaN,],91,42,42.1,68.117,184,2015,2020,KZ,,BAYYRKUM,,383180-99999_fig2.png
https://bioclimatic.github.io/predilection/psych/383280-99999_fig2.png,383280,99999,3,GsEv,94268,19.4,58.1,27,[,2000,240,0,],5,0,17,20,20,[,1,0,],31,279,[,53,113,1,45,30,36,0,],66,0,42.364,69.479,422,1988,2020,KZ,,SHYMKENT,,383280-99999_fig2.png
https://bioclimatic.github.io/predilection/psych/383285-99999_fig2.png,383285,99999,5,GsEv,93588,19.4,58.4,13,[,3157,169,0,],0,NaN,NaN,NaN,NaN,[,0,0,],11,363,[,90,150,2,61,34,25,0,],60,0,42.854,71.304,666,2008,2020,KZ,,TARAZ,,383285-99999_fig2.png
https://bioclimatic.github.io/predilection/psych/383340-99999_fig2.png,383340,99999,3,GsEv,92483,19.4,58.9,20,[,1635,88,0,],0,0,0,0,0,[,0,0,],33,209,[,36,99,1,39,22,12,0,],34,0,42.483,70.3,808,2002,2020,KZ,,AUL TURARA RYSKULOVA,,383340-99999_fig2.png
https://bioclimatic.github.io/predilection/psych/383380-99999_fig2.png,383380,99999,3,Hp__,88553,19.4,60.7,3,[,275,0,0,],0,0,0,0,0,[,0,0,],33,22,[,4,16,0,2,0,0,0,],0,0,42.233,70.117,1122,2019,2020,KZ,,BLINKOVO,,383380-99999_fig2.png
https://bioclimatic.github.io/predilection/psych/383410-99999_fig2.png,383410,99999,5,GsEv,94230,19.4,58.2,31,[,3101,129,0,],1,0,24,28,29,[,0,0,],31,349,[,92,139,0,66,33,18,0,],52,0,42.85,71.3,652,1987,2018,KZ,,TARAZ,,383410-99999_fig2.png
https://bioclimatic.github.io/predilection/psych/383430-99999_fig2.png,383430,99999,4,GsEv,93711,19.4,58.4,23,[,2222,80,0,],2,0,3,7,7,[,0,0,],30,240,[,66,94,0,47,22,11,0,],33,0,42.95,72.75,683,1988,2020,KZ,,KULAN,,383430-99999_fig2.png
https://bioclimatic.github.io/predilection/psych/383511-99999_fig2.png,383511,99999,5,GsEv,93825,19.4,58.3,2,[,3185,179,0,],0,NaN,NaN,NaN,NaN,[,1,0,],2,362,[,99,148,0,59,27,29,0,],57,0,42.9,73.2,702,2019,2020,KZ,,MERKE,,383511-99999_fig2.png
https://bioclimatic.github.io/predilection/psych/384230-99999_fig2.png,384230,99999,4,GsAc,98931,19.4,56.3,6,[,2555,376,165,],15,30,38,45,49,[,31,6,],4,327,[,53,151,0,39,29,26,29,],83,29,41.8,66.717,202,1987,1990,KZ,,TORUK,,384230-99999_fig2.png
https://bioclimatic.github.io/predilection/psych/384390-99999_fig2.png,384390,99999,4,GsAc,98488,19.4,56.4,34,[,2449,401,103,],18,27,36,43,49,[,18,1,],34,359,[,75,131,0,54,37,40,22,],100,24,41.367,68,275,1987,2020,KZ,,SHARDARA,,384390-99999_fig2.png
https://bioclimatic.github.io/predilection/psych/384520-99999_fig2.png,384520,99999,3,Hp__,94800,19.4,57.9,3,[,150,17,1,],1,0,2,3,3,[,0,0,],33,22,[,4,10,0,3,2,2,0,],5,0,41.867,69.433,637,2019,2020,KZ,,KARATAS,,384520-99999_fig2.png
